{"0":[{"seq":1,"id":"6701","name":"CNO GIGANTES esq. CNO DR ANTONIO DE BONI","lat":-34.84995615401497,"lng":-56.061174843494605,"code":"6701"},{"seq":2,"id":"5781","name":"CNO SERVANDO GOMEZ esq. CNO DR MIGUEL C RUBINO","lat":-34.85476742166296,"lng":-56.06181800968433,"code":"5781"},{"seq":3,"id":"5782","name":"CNO SERVANDO GOMEZ esq. CNO DR MIGUEL C RUBINO","lat":-34.85972751918694,"lng":-56.06249114078418,"code":"5782"},{"seq":4,"id":"5783","name":"CNO SERVANDO GOMEZ esq. AV DEL POLO","lat":-34.86320582897237,"lng":-56.062984036673434,"code":"5783"},{"seq":5,"id":"5784","name":"CNO SERVANDO GOMEZ esq. AV DEL POLO","lat":-34.866322453834236,"lng":-56.06344601802171,"code":"5784"},{"seq":6,"id":"6776","name":"CAPRI esq. JUAN PEDRO BERANGER","lat":-34.87007273654741,"lng":-56.06563479207922,"code":"6776"},{"seq":7,"id":"4335","name":"CONSTANCIO C VIGIL esq. EDMUNDO BIANCHI","lat":-34.8706911075381,"lng":-56.062716051962056,"code":"4335"},{"seq":8,"id":"4336","name":"CONSTANCIO C VIGIL esq. SANTA MONICA","lat":-34.86981176788729,"lng":-56.05993449875654,"code":"4336"},{"seq":9,"id":"6589","name":"ARQ HORACIO ACOSTA Y LARA esq. PSJE 2 (7878)","lat":-34.869769739378384,"lng":-56.0570798206258,"code":"6589"},{"seq":10,"id":"6590","name":"ARQ HORACIO ACOSTA Y LARA esq. DR RAUL E BAETHGEN","lat":-34.870400606264276,"lng":-56.05502746151291,"code":"6590"},{"seq":11,"id":"5650","name":"ARQ HORACIO ACOSTA Y LARA esq. GRAL SANTANDER","lat":-34.87049803648882,"lng":-56.051339544385634,"code":"5650"},{"seq":12,"id":"6591","name":"ARQ HORACIO ACOSTA Y LARA esq. LAS MARGARITAS","lat":-34.87032805438665,"lng":-56.04873565420493,"code":"6591"},{"seq":13,"id":"6594","name":"GRAL FRENCH esq. ING VICTOR SUDRIERS","lat":-34.87209795120266,"lng":-56.04813950883067,"code":"6594"},{"seq":14,"id":"4420","name":"GRAL FRENCH esq. GRAL MAXIMO TAJES","lat":-34.87477588716666,"lng":-56.04781657609599,"code":"4420"},{"seq":15,"id":"6592","name":"GRAL FRENCH esq. AV ITALIA","lat":-34.87593648988235,"lng":-56.04770170335689,"code":"6592"},{"seq":16,"id":"2160","name":"AV ITALIA esq. GRAL NARIÑO","lat":-34.876590645775416,"lng":-56.051677268199725,"code":"2160"},{"seq":17,"id":"2161","name":"AV ITALIA esq. CESAR CORTINAS","lat":-34.8767322075038,"lng":-56.05502912679423,"code":"2161"},{"seq":18,"id":"2162","name":"AV ITALIA esq. SANTA MONICA","lat":-34.87696810219915,"lng":-56.05756680296511,"code":"2162"},{"seq":19,"id":"2163","name":"AV ITALIA esq. SANTA MONICA","lat":-34.87724161981989,"lng":-56.0601648161608,"code":"2163"},{"seq":20,"id":"2164","name":"AV ITALIA esq. ORLEANS","lat":-34.87743603014244,"lng":-56.062700976714524,"code":"2164"},{"seq":21,"id":"2165","name":"AV ITALIA esq. COOPER","lat":-34.877854850476396,"lng":-56.0676649709756,"code":"2165"},{"seq":22,"id":"2166","name":"AV ITALIA esq. CORCEGA","lat":-34.87915549183596,"lng":-56.07257241686605,"code":"2166"},{"seq":23,"id":"2167","name":"AV ITALIA esq. BOLONIA","lat":-34.880873833046,"lng":-56.07817241805266,"code":"2167"},{"seq":24,"id":"4835","name":"AV ITALIA esq. AV BOLIVIA","lat":-34.882455782801124,"lng":-56.08317891772805,"code":"4835"}],"1":[{"seq":1,"id":"4836","name":"AV DRA MA LUISA SALDUN DE RODRIGUEZ esq. AV BOLIVIA","lat":-34.88181683901149,"lng":-56.08330093239711,"code":"4836"},{"seq":2,"id":"4523","name":"AV DRA MA LUISA SALDUN DE RODRIGUEZ esq. GRAL MAXIMO TAJES","lat":-34.87738938775507,"lng":-56.07907211831197,"code":"4523"},{"seq":3,"id":"4525","name":"AV DRA MA LUISA SALDUN DE RODRIGUEZ esq. DR JOSE F ARIAS","lat":-34.87525973975657,"lng":-56.077428199527695,"code":"4525"},{"seq":4,"id":"4215","name":"JUAN PEDRO BERANGER esq. DR AGUSTIN MUSSO","lat":-34.87324527213273,"lng":-56.07454076572788,"code":"4215"},{"seq":5,"id":"4440","name":"HAVRE esq. FEDRA","lat":-34.87390789198466,"lng":-56.07054853601441,"code":"4440"},{"seq":6,"id":"5647","name":"FEDRA esq. COOPER","lat":-34.87419187974421,"lng":-56.06924678772764,"code":"5647"},{"seq":7,"id":"4497","name":"JUAN PEDRO BERANGER esq. ADOLFO LAPUENTE","lat":-34.87137963760386,"lng":-56.06824854506834,"code":"4497"},{"seq":8,"id":"4499","name":"JUAN PEDRO BERANGER esq. CAPRI","lat":-34.87117176902361,"lng":-56.065627493651725,"code":"4499"},{"seq":9,"id":"6777","name":"CAPRI esq. CNO CARRASCO","lat":-34.86989854667094,"lng":-56.0652932890201,"code":"6777"},{"seq":10,"id":"5778","name":"CNO SERVANDO GOMEZ esq. DR ALVARO VARGAS GUILLEMETTE","lat":-34.86566768888378,"lng":-56.063184298460904,"code":"5778"},{"seq":11,"id":"5779","name":"CNO SERVANDO GOMEZ esq. CNO GIGANTES","lat":-34.86295421258912,"lng":-56.062808226481756,"code":"5779"},{"seq":12,"id":"5785","name":"CNO SERVANDO GOMEZ esq. CNO DR MIGUEL C RUBINO","lat":-34.85916298389252,"lng":-56.06228908438666,"code":"5785"},{"seq":13,"id":"6951","name":"CNO SERVANDO GOMEZ esq. CNO GIGANTES","lat":-34.85485046232458,"lng":-56.06172514993412,"code":"6951"},{"seq":14,"id":"6952","name":"CNO SERVANDO GOMEZ esq. CNO GIGANTES","lat":-34.850009402719046,"lng":-56.06100367943945,"code":"6952"}]}