{"0":[{"seq":1,"id":"4903","name":"CIRC INT SIN DENOM esq. CNO FAUQUET","lat":-34.78884500906482,"lng":-56.242318390814724,"code":"4903"},{"seq":2,"id":"956","name":"CIRC INT SIN DENOM esq. GUANAHANY","lat":-34.791684956273166,"lng":-56.24276964944626,"code":"956"},{"seq":3,"id":"958","name":"GUANAHANY esq. GIOIA","lat":-34.793820739981655,"lng":-56.24483573745431,"code":"958"},{"seq":4,"id":"960","name":"GUANAHANY esq. AV LEZICA","lat":-34.796182065286224,"lng":-56.24788804999927,"code":"960"},{"seq":5,"id":"932","name":"AV LEZICA esq. VERAGUAS","lat":-34.79522197715612,"lng":-56.249150182346206,"code":"932"},{"seq":6,"id":"934","name":"AV LEZICA esq. PEABODY","lat":-34.793976757847204,"lng":-56.25063926930574,"code":"934"},{"seq":7,"id":"936","name":"AV LEZICA esq. LUIS MORANDI","lat":-34.79275156518204,"lng":-56.25203303906295,"code":"936"},{"seq":8,"id":"938","name":"AV LEZICA esq. MEDIODIA","lat":-34.79155469600061,"lng":-56.25336357777876,"code":"938"},{"seq":9,"id":"941","name":"AV LEZICA esq. CNO AVIADORES CIVILES","lat":-34.78802998399366,"lng":-56.258264339341125,"code":"941"},{"seq":10,"id":"942","name":"AV LEZICA esq. CALLE N1","lat":-34.78721748485073,"lng":-56.259966119672846,"code":"942"},{"seq":11,"id":"5255","name":"CNO MELILLA esq. CNO AVIADORES CIVILES","lat":-34.79197566342066,"lng":-56.25879150081938,"code":"5255"},{"seq":12,"id":"5254","name":"CNO MELILLA esq. CNO PANAMBY","lat":-34.7945075489336,"lng":-56.25822270104989,"code":"5254"},{"seq":13,"id":"5639","name":"CNO MELILLA esq. PINTA","lat":-34.80215653137038,"lng":-56.25517778910303,"code":"5639"},{"seq":14,"id":"795","name":"CNO MELILLA esq. CNO DE LA REDENCION","lat":-34.80523346835528,"lng":-56.25379624996829,"code":"795"},{"seq":15,"id":"4691","name":"CNO MELILLA esq. ANTONIO RUBIO","lat":-34.80690696008738,"lng":-56.25353891958564,"code":"4691"},{"seq":16,"id":"796","name":"CNO MELILLA esq. NIÑA","lat":-34.81078459408742,"lng":-56.25242342152304,"code":"796"},{"seq":17,"id":"800","name":"CNO MELILLA esq. CNO LUIS EDUARDO PEREZ","lat":-34.81320775342285,"lng":-56.251891741799156,"code":"800"},{"seq":18,"id":"5253","name":"CNO LUIS EDUARDO PEREZ esq. RUTA NAL 5 BRIG GRAL F RIVERA","lat":-34.814868407987056,"lng":-56.25687365300908,"code":"5253"},{"seq":19,"id":"5251","name":"CNO LUIS EDUARDO PEREZ esq. LAS PITAS","lat":-34.817723114732416,"lng":-56.26824177409783,"code":"5251"},{"seq":20,"id":"6578","name":"AV IDEARIO ARTIGUISTA esq. CALLE E","lat":-34.819013232543256,"lng":-56.27303873223938,"code":"6578"},{"seq":21,"id":"5658","name":"AV IDEARIO ARTIGUISTA esq. PSJE LINCOLN PRESNO","lat":-34.81947185854439,"lng":-56.27510970765182,"code":"5658"},{"seq":22,"id":"6720","name":"AV IDEARIO ARTIGUISTA esq. VIOLETA AMORETTI","lat":-34.81990364807055,"lng":-56.27677732348395,"code":"6720"},{"seq":23,"id":"4753","name":"AV IDEARIO ARTIGUISTA esq. VIOLETA AMORETTI","lat":-34.81857093914085,"lng":-56.27700672109659,"code":"4753"},{"seq":24,"id":"4149","name":"LA CARRETA esq. CNO LUIS EDUARDO PEREZ","lat":-34.81691547974892,"lng":-56.27576312395439,"code":"4149"},{"seq":25,"id":"6641","name":"CNO LUIS EDUARDO PEREZ esq. LIGA FEDERAL","lat":-34.815250166335304,"lng":-56.277755270493174,"code":"6641"},{"seq":26,"id":"4984","name":"CNO LUIS EDUARDO PEREZ esq. CNO HAMILTON","lat":-34.81395748370477,"lng":-56.28029503689186,"code":"4984"},{"seq":27,"id":"6140","name":"CNO LUIS EDUARDO PEREZ esq. CNO CAMPAMENTOS ORIENTALES","lat":-34.81150691929587,"lng":-56.28502575510079,"code":"6140"},{"seq":28,"id":"4985","name":"CNO LUIS EDUARDO PEREZ esq. CNO LOS NARANJOS","lat":-34.809749150679956,"lng":-56.28851678534682,"code":"4985"},{"seq":29,"id":"6249","name":"CNO LUIS EDUARDO PEREZ esq. CNO DE LOS ORIENTALES","lat":-34.806854564249335,"lng":-56.292970987155215,"code":"6249"},{"seq":30,"id":"4153","name":"CNO LUIS EDUARDO PEREZ esq. CNO DE LOS ORIENTALES","lat":-34.804360980126674,"lng":-56.29691521781683,"code":"4153"},{"seq":31,"id":"5237","name":"CNO DE LOS ORIENTALES esq. CNO LUIS EDUARDO PEREZ","lat":-34.80703369706424,"lng":-56.29913230774797,"code":"5237"},{"seq":32,"id":"5236","name":"CNO DE LOS ORIENTALES esq. DEL TRANVIA A LA BARRA","lat":-34.808827716689756,"lng":-56.3004707320172,"code":"5236"},{"seq":33,"id":"4154","name":"CNO DE LOS ORIENTALES esq. DEL TRANVIA A LA BARRA","lat":-34.811510317977536,"lng":-56.30239143958002,"code":"4154"},{"seq":34,"id":"5751","name":"CNO DE LOS ORIENTALES esq. SBRE DE 4 MTS (6580)","lat":-34.81560643516627,"lng":-56.30539073073605,"code":"5751"},{"seq":35,"id":"5752","name":"CNO DE LOS ORIENTALES esq. AV LUIS BATLLE BERRES","lat":-34.81880533371356,"lng":-56.307766855542994,"code":"5752"},{"seq":36,"id":"4121","name":"AV LUIS BATLLE BERRES esq. NUEVO LLAMAS","lat":-34.821600695684644,"lng":-56.30303464273651,"code":"4121"},{"seq":37,"id":"4123","name":"AV LUIS BATLLE BERRES esq. CNO EDUARDO CAYOTA","lat":-34.82357386750943,"lng":-56.29901455434702,"code":"4123"},{"seq":38,"id":"4125","name":"AV LUIS BATLLE BERRES esq. AV IDEARIO ARTIGUISTA","lat":-34.8249813300751,"lng":-56.296125054662326,"code":"4125"},{"seq":39,"id":"4127","name":"AV LUIS BATLLE BERRES esq. ZANJA REYUNA","lat":-34.82722744793422,"lng":-56.29152665123479,"code":"4127"},{"seq":40,"id":"4129","name":"AV LUIS BATLLE BERRES esq. CNO SOSA","lat":-34.829337634762766,"lng":-56.287178366496946,"code":"4129"},{"seq":41,"id":"4131","name":"AV LUIS BATLLE BERRES esq. CALLE 6575","lat":-34.83093668023151,"lng":-56.283901407242716,"code":"4131"},{"seq":42,"id":"5043","name":"AV LUIS BATLLE BERRES esq. LAS ARTES","lat":-34.832279614141584,"lng":-56.2811196588032,"code":"5043"},{"seq":43,"id":"4134","name":"AV LUIS BATLLE BERRES esq. ANATOLE FRANCE","lat":-34.833997945729394,"lng":-56.277499659850704,"code":"4134"},{"seq":44,"id":"4135","name":"AV LUIS BATLLE BERRES esq. ING CARLOS A AROCENA","lat":-34.834932390272506,"lng":-56.27557785851192,"code":"4135"},{"seq":45,"id":"4136","name":"AV LUIS BATLLE BERRES esq. CNO TOMKINSON","lat":-34.83621012430118,"lng":-56.272781531868425,"code":"4136"},{"seq":46,"id":"583","name":"CNO TOMKINSON esq. AV CIBILS","lat":-34.83788621801676,"lng":-56.2744667999385,"code":"583"},{"seq":47,"id":"851","name":"AV CIBILS esq. DR CESAR CARLOS BIANCO","lat":-34.84027569319778,"lng":-56.27444324310968,"code":"851"},{"seq":48,"id":"849","name":"AV CIBILS esq. COSTANERA PARQUE TOMKINSON","lat":-34.84207732146267,"lng":-56.27387836423637,"code":"849"},{"seq":49,"id":"839","name":"LOS NOGALES esq. PSJE LOS ALELIES","lat":-34.8445256253723,"lng":-56.27464099333522,"code":"839"},{"seq":50,"id":"840","name":"LOS NOGALES esq. LAS CAMELIAS","lat":-34.84652105671206,"lng":-56.27643216031947,"code":"840"},{"seq":51,"id":"842","name":"LOS NOGALES esq. LAS LILAS","lat":-34.847628377428094,"lng":-56.27793763616918,"code":"842"},{"seq":52,"id":"844","name":"LOS NOGALES esq. FRANCISCO DE GOYA","lat":-34.84949856206773,"lng":-56.27933170082086,"code":"844"},{"seq":53,"id":"6145","name":"FRANCISCO DE GOYA esq. ALFONSO X EL SABIO","lat":-34.84948897202655,"lng":-56.275387525106694,"code":"6145"},{"seq":54,"id":"6146","name":"FRANCISCO DE GOYA esq. AV CIBILS","lat":-34.84924753351412,"lng":-56.272034455519545,"code":"6146"},{"seq":55,"id":"6843","name":"JACARANDA esq. LOS CEDROS","lat":-34.849118682066866,"lng":-56.26981480618566,"code":"6843"},{"seq":56,"id":"4707","name":"CALLE 3 esq. PSJE MARACANA","lat":-34.84935422538914,"lng":-56.26767584575137,"code":"4707"},{"seq":57,"id":"4679","name":"CALLE 3 esq. PRIMERA AL NORTE","lat":-34.85026117716846,"lng":-56.26753848251279,"code":"4679"},{"seq":58,"id":"4678","name":"AV CIBILS esq. PRIMERA AL NORTE","lat":-34.85080420353092,"lng":-56.271186205399594,"code":"4678"},{"seq":59,"id":"988","name":"AV CIBILS esq. NUBLE YIC","lat":-34.85374184840991,"lng":-56.27088373866238,"code":"988"},{"seq":60,"id":"990","name":"AV CIBILS esq. CALLE 7688","lat":-34.85655713107771,"lng":-56.27030680977662,"code":"990"},{"seq":61,"id":"992","name":"AV CIBILS esq. CNO ALIANZA","lat":-34.85847278718945,"lng":-56.26993077854201,"code":"992"},{"seq":62,"id":"994","name":"AV CIBILS esq. CNO LA BOYADA","lat":-34.860399827091776,"lng":-56.269501464237756,"code":"994"},{"seq":63,"id":"5978","name":"MARTIRES DE LA IND FRIGORIFICA esq. ARTIGAS SANCHEZ","lat":-34.86403425790844,"lng":-56.27774962412714,"code":"5978"},{"seq":64,"id":"5979","name":"MARTIRES DE LA IND FRIGORIFICA esq. WALTER MOTA","lat":-34.863836263515495,"lng":-56.27585137385235,"code":"5979"},{"seq":65,"id":"5980","name":"MARTIRES DE LA IND FRIGORIFICA esq. CESAR MUÑOZ","lat":-34.863685417666616,"lng":-56.2745190230809,"code":"5980"},{"seq":66,"id":"5981","name":"MARTIRES DE LA IND FRIGORIFICA esq. ERLINDA GUTIERREZ","lat":-34.86317961069274,"lng":-56.2717361057929,"code":"5981"},{"seq":67,"id":"996","name":"AV CIBILS esq. MARTIRES DE LA IND FRIGORIFICA","lat":-34.86282172627452,"lng":-56.268994670535655,"code":"996"},{"seq":68,"id":"998","name":"AV CIBILS esq. CIRC INT SIN DENOM","lat":-34.86427209156674,"lng":-56.26866365204319,"code":"998"},{"seq":69,"id":"1000","name":"AV CIBILS esq. VERDUN","lat":-34.86695686128212,"lng":-56.268163906158584,"code":"1000"},{"seq":70,"id":"4931","name":"AV CIBILS esq. PERNAMBUCO","lat":-34.86899680848665,"lng":-56.267789294092985,"code":"4931"},{"seq":71,"id":"4932","name":"AV CIBILS esq. PSJE DE LA VIA A LA TABLADA","lat":-34.86987955641381,"lng":-56.26763655315406,"code":"4932"},{"seq":72,"id":"1004","name":"AV CIBILS esq. SDA DE PASO","lat":-34.87185706573459,"lng":-56.26719738795407,"code":"1004"},{"seq":73,"id":"1034","name":"AV CIBILS esq. AUSTRALIA","lat":-34.87394134350834,"lng":-56.26679809561375,"code":"1034"},{"seq":74,"id":"1059","name":"AV CARLOS MARIA RAMIREZ esq. BULGARIA","lat":-34.876148834692884,"lng":-56.265802464977895,"code":"1059"},{"seq":75,"id":"1060","name":"AV CARLOS MARIA RAMIREZ esq. DINAMARCA","lat":-34.87580957574045,"lng":-56.26343999545671,"code":"1060"},{"seq":76,"id":"1061","name":"AV CARLOS MARIA RAMIREZ esq. FILIPINAS","lat":-34.87553424979873,"lng":-56.2612750347582,"code":"1061"},{"seq":77,"id":"1062","name":"AV CARLOS MARIA RAMIREZ esq. PUERTO RICO","lat":-34.87524622337117,"lng":-56.25914896228572,"code":"1062"},{"seq":78,"id":"1063","name":"AV CARLOS MARIA RAMIREZ esq. VIZCAYA","lat":-34.874999773262616,"lng":-56.25717543648007,"code":"1063"},{"seq":79,"id":"1064","name":"AV CARLOS MARIA RAMIREZ esq. BOGOTA","lat":-34.874694071295146,"lng":-56.25494367903302,"code":"1064"},{"seq":80,"id":"4775","name":"AV DR SANTIN CARLOS ROSSI esq. DR PEDRO CASTELLINO","lat":-34.87366351246541,"lng":-56.25252419496949,"code":"4775"},{"seq":81,"id":"4925","name":"DR PEDRO CASTELLINO esq. DR RAUL MORETTI","lat":-34.87323947810137,"lng":-56.249403424783246,"code":"4925"}],"1":[{"seq":1,"id":"4925","name":"DR PEDRO CASTELLINO esq. DR RAUL MORETTI","lat":-34.87323947810137,"lng":-56.249403424783246,"code":"4925"},{"seq":2,"id":"4816","name":"AV CARLOS MARIA RAMIREZ esq. TURQUIA","lat":-34.87400931094092,"lng":-56.250790573274884,"code":"4816"},{"seq":3,"id":"1069","name":"AV CARLOS MARIA RAMIREZ esq. BOGOTA","lat":-34.87448886666334,"lng":-56.25426770949178,"code":"1069"},{"seq":4,"id":"1070","name":"AV CARLOS MARIA RAMIREZ esq. VIZCAYA","lat":-34.87477629905185,"lng":-56.25640314183071,"code":"1070"},{"seq":5,"id":"1071","name":"AV CARLOS MARIA RAMIREZ esq. PUERTO RICO","lat":-34.875146457511654,"lng":-56.25879999150518,"code":"1071"},{"seq":6,"id":"1072","name":"AV CARLOS MARIA RAMIREZ esq. FILIPINAS","lat":-34.87543730279701,"lng":-56.260973324849196,"code":"1072"},{"seq":7,"id":"1073","name":"AV CARLOS MARIA RAMIREZ esq. DINAMARCA","lat":-34.875720619083616,"lng":-56.26314915066202,"code":"1073"},{"seq":8,"id":"1074","name":"AV CARLOS MARIA RAMIREZ esq. BULGARIA","lat":-34.87593173417382,"lng":-56.265296686126106,"code":"1074"},{"seq":9,"id":"1035","name":"AV CIBILS esq. AUSTRALIA","lat":-34.873754095579244,"lng":-56.266694666068794,"code":"1035"},{"seq":10,"id":"1033","name":"AV CIBILS esq. OCEANIA","lat":-34.87266655755696,"lng":-56.26690839578399,"code":"1033"},{"seq":11,"id":"1003","name":"AV CIBILS esq. CNO LA PALOMA","lat":-34.87056107614808,"lng":-56.26733520167936,"code":"1003"},{"seq":12,"id":"1002","name":"AV CIBILS esq. CNO BUFFA","lat":-34.868715098076734,"lng":-56.26770149849207,"code":"1002"},{"seq":13,"id":"999","name":"AV CIBILS esq. FRANCISCO JAVIER SITI","lat":-34.86572072285732,"lng":-56.26827360776794,"code":"999"},{"seq":14,"id":"997","name":"AV CIBILS esq. CIRC INT SIN DENOM","lat":-34.86344890226988,"lng":-56.268686602920255,"code":"997"},{"seq":15,"id":"5978","name":"MARTIRES DE LA IND FRIGORIFICA esq. ARTIGAS SANCHEZ","lat":-34.86403425790844,"lng":-56.27774962412714,"code":"5978"},{"seq":16,"id":"5979","name":"MARTIRES DE LA IND FRIGORIFICA esq. WALTER MOTA","lat":-34.863836263515495,"lng":-56.27585137385235,"code":"5979"},{"seq":17,"id":"5980","name":"MARTIRES DE LA IND FRIGORIFICA esq. CESAR MUÑOZ","lat":-34.863685417666616,"lng":-56.2745190230809,"code":"5980"},{"seq":18,"id":"5981","name":"MARTIRES DE LA IND FRIGORIFICA esq. ERLINDA GUTIERREZ","lat":-34.86317961069274,"lng":-56.2717361057929,"code":"5981"},{"seq":19,"id":"995","name":"AV CIBILS esq. CNO LA BOYADA","lat":-34.86114316399076,"lng":-56.26920144948005,"code":"995"},{"seq":20,"id":"993","name":"AV CIBILS esq. CNO ALIANZA","lat":-34.85908970155631,"lng":-56.269635086591066,"code":"993"},{"seq":21,"id":"991","name":"AV CIBILS esq. CALLE 7688","lat":-34.85621904149477,"lng":-56.27023219466702,"code":"991"},{"seq":22,"id":"989","name":"AV CIBILS esq. NUBLE YIC","lat":-34.85406287878005,"lng":-56.2706397957903,"code":"989"},{"seq":23,"id":"831","name":"AV CIBILS esq. PRIMERA AL NORTE","lat":-34.85107837483759,"lng":-56.271295196572126,"code":"831"},{"seq":24,"id":"4680","name":"PRIMERA AL NORTE esq. CALLE 3","lat":-34.850600281192214,"lng":-56.26781257279279,"code":"4680"},{"seq":25,"id":"4710","name":"CALLE 3 esq. PSJE MARACANA","lat":-34.8496883368896,"lng":-56.2673411197161,"code":"4710"},{"seq":26,"id":"6844","name":"LOS CEDROS esq. JACARANDA","lat":-34.84894445241388,"lng":-56.269464013256716,"code":"6844"},{"seq":27,"id":"4513","name":"LOS CEDROS esq. AV CIBILS","lat":-34.849136910993884,"lng":-56.271389601569616,"code":"4513"},{"seq":28,"id":"847","name":"FRANCISCO DE GOYA esq. ALFONSO X EL SABIO","lat":-34.849422161841154,"lng":-56.275114227018975,"code":"847"},{"seq":29,"id":"845","name":"FRANCISCO DE GOYA esq. LOS NOGALES","lat":-34.849718292844656,"lng":-56.2791124237255,"code":"845"},{"seq":30,"id":"843","name":"LOS NOGALES esq. LAS LILAS","lat":-34.84783481547994,"lng":-56.278045514107845,"code":"843"},{"seq":31,"id":"841","name":"LOS NOGALES esq. LAS CAMELIAS","lat":-34.84670575266177,"lng":-56.2765841204027,"code":"841"},{"seq":32,"id":"6147","name":"LOS NOGALES esq. LAS BEGONIAS","lat":-34.84576188595548,"lng":-56.27559844003126,"code":"6147"},{"seq":33,"id":"838","name":"LOS NOGALES esq. PSJE LAS ACHIRAS","lat":-34.84415617374403,"lng":-56.2739023122337,"code":"838"},{"seq":34,"id":"4837","name":"AV CIBILS esq. MIRUNGA","lat":-34.84495429680051,"lng":-56.27307675585036,"code":"4837"},{"seq":35,"id":"5619","name":"MIRUNGA esq. AV CENTRAL","lat":-34.84371194741676,"lng":-56.26863517618497,"code":"5619"},{"seq":36,"id":"6387","name":"MARTIN ARTIGAS esq. MIRUNGA","lat":-34.84259712066782,"lng":-56.267046294420766,"code":"6387"},{"seq":37,"id":"886","name":"AV LUIS BATLLE BERRES esq. CNEL SANTIAGO ARTIGAS","lat":-34.83744632330756,"lng":-56.267966604512736,"code":"886"},{"seq":38,"id":"5012","name":"AV LUIS BATLLE BERRES esq. AV ALFREDO MORENO","lat":-34.83652698513213,"lng":-56.27112251933192,"code":"5012"},{"seq":39,"id":"4137","name":"AV LUIS BATLLE BERRES esq. PEARL S BUCK","lat":-34.8351737313489,"lng":-56.27487934349352,"code":"4137"},{"seq":40,"id":"4138","name":"AV LUIS BATLLE BERRES esq. AV CIBILS","lat":-34.8341307048403,"lng":-56.27709859995176,"code":"4138"},{"seq":41,"id":"4133","name":"AV LUIS BATLLE BERRES esq. LAS ARTES","lat":-34.832277685411874,"lng":-56.28081842233647,"code":"4133"},{"seq":42,"id":"4132","name":"AV LUIS BATLLE BERRES esq. CALLE 6575","lat":-34.83084982511004,"lng":-56.28379075480857,"code":"4132"},{"seq":43,"id":"4130","name":"AV LUIS BATLLE BERRES esq. CNO SOSA","lat":-34.82932602594135,"lng":-56.28702438947964,"code":"4130"},{"seq":44,"id":"4128","name":"AV LUIS BATLLE BERRES esq. ZANJA REYUNA","lat":-34.82720533810491,"lng":-56.29106139926479,"code":"4128"},{"seq":45,"id":"4126","name":"AV LUIS BATLLE BERRES esq. PROY S/E DE PASO","lat":-34.825460202321324,"lng":-56.29447594366562,"code":"4126"},{"seq":46,"id":"4124","name":"AV LUIS BATLLE BERRES esq. CNO EDUARDO CAYOTA","lat":-34.82367330376806,"lng":-56.29860060810392,"code":"4124"},{"seq":47,"id":"4122","name":"AV LUIS BATLLE BERRES esq. NUEVO LLAMAS","lat":-34.82160311236733,"lng":-56.3027759328547,"code":"4122"},{"seq":48,"id":"4120","name":"AV LUIS BATLLE BERRES esq. CNO DE LOS ORIENTALES","lat":-34.8190531090529,"lng":-56.307613589584946,"code":"4120"},{"seq":49,"id":"4658","name":"CNO DE LOS ORIENTALES esq. SBRE DE 4 MTS (6580)","lat":-34.815847670395115,"lng":-56.305496202197546,"code":"4658"},{"seq":50,"id":"4353","name":"CNO DE LOS ORIENTALES esq. DEL TRANVIA A LA BARRA","lat":-34.81242285292556,"lng":-56.30298341340589,"code":"4353"},{"seq":51,"id":"5234","name":"CNO DE LOS ORIENTALES esq. SBRE 10 MTS TUPAMBAE","lat":-34.80901217882225,"lng":-56.30049905300221,"code":"5234"},{"seq":52,"id":"5235","name":"CNO DE LOS ORIENTALES esq. CNO LUIS EDUARDO PEREZ","lat":-34.80714568460092,"lng":-56.29913419909855,"code":"5235"},{"seq":53,"id":"4152","name":"CNO DE LOS ORIENTALES esq. CNO LUIS EDUARDO PEREZ","lat":-34.8048015101738,"lng":-56.29742626839778,"code":"4152"},{"seq":54,"id":"6248","name":"CNO LUIS EDUARDO PEREZ esq. CNO DE LOS ORIENTALES","lat":-34.80692846007731,"lng":-56.29342396350299,"code":"6248"},{"seq":55,"id":"4151","name":"CNO LUIS EDUARDO PEREZ esq. CNO LOS NARANJOS","lat":-34.80977113253129,"lng":-56.289082413172714,"code":"4151"},{"seq":56,"id":"6141","name":"CNO LUIS EDUARDO PEREZ esq. CNO CAMPAMENTOS ORIENTALES","lat":-34.81121921775379,"lng":-56.28616327663744,"code":"6141"},{"seq":57,"id":"4150","name":"CNO LUIS EDUARDO PEREZ esq. CNO HAMILTON","lat":-34.81367583683888,"lng":-56.28119392624313,"code":"4150"},{"seq":58,"id":"7028","name":"CNO LUIS EDUARDO PEREZ esq. LIGA FEDERAL","lat":-34.81525664600298,"lng":-56.27837402086137,"code":"7028"},{"seq":59,"id":"6746","name":"LA CARRETA esq. CNO LUIS EDUARDO PEREZ","lat":-34.81695839489485,"lng":-56.27596728092322,"code":"6746"},{"seq":60,"id":"4754","name":"AV IDEARIO ARTIGUISTA esq. VIOLETA AMORETTI","lat":-34.81840620560941,"lng":-56.27708716393342,"code":"4754"},{"seq":61,"id":"4506","name":"LA CARRETA esq. AV IDEARIO ARTIGUISTA","lat":-34.819960641424075,"lng":-56.27825115781643,"code":"4506"},{"seq":62,"id":"6721","name":"AV IDEARIO ARTIGUISTA esq. VIOLETA AMORETTI","lat":-34.82016352495252,"lng":-56.2768372370808,"code":"6721"},{"seq":63,"id":"6331","name":"AV IDEARIO ARTIGUISTA esq. PSJE LINCOLN PRESNO","lat":-34.81973063284428,"lng":-56.275116839095595,"code":"6331"},{"seq":64,"id":"6579","name":"AV IDEARIO ARTIGUISTA esq. CALLE E","lat":-34.819124322352884,"lng":-56.27272584192272,"code":"6579"},{"seq":65,"id":"5238","name":"CNO LUIS EDUARDO PEREZ esq. LAS PITAS","lat":-34.81801212121297,"lng":-56.26817868001982,"code":"5238"},{"seq":66,"id":"5240","name":"CNO LUIS EDUARDO PEREZ esq. AV LA TABLADA","lat":-34.81472007852173,"lng":-56.255418297877526,"code":"5240"},{"seq":67,"id":"5241","name":"CNO LUIS EDUARDO PEREZ esq. CNO MELILLA","lat":-34.813808947244326,"lng":-56.252158187354794,"code":"5241"},{"seq":68,"id":"797","name":"CNO MELILLA esq. ANTONIO RUBIO","lat":-34.810295807231384,"lng":-56.25212804368532,"code":"797"},{"seq":69,"id":"4690","name":"CNO MELILLA esq. ANTONIO RUBIO","lat":-34.8069574506275,"lng":-56.25333859290321,"code":"4690"},{"seq":70,"id":"4545","name":"CNO MELILLA esq. CNO VECINAL","lat":-34.805785347350344,"lng":-56.253372619796856,"code":"4545"},{"seq":71,"id":"794","name":"CNO MELILLA esq. PINTA","lat":-34.802226541175386,"lng":-56.255105289454754,"code":"794"},{"seq":72,"id":"793","name":"CNO MELILLA esq. VERAGUAS","lat":-34.80014681122565,"lng":-56.2559580634452,"code":"793"},{"seq":73,"id":"792","name":"CNO MELILLA esq. PEABODY","lat":-34.79851711828612,"lng":-56.25672111723303,"code":"792"},{"seq":74,"id":"5242","name":"CNO MELILLA esq. MEDIODIA","lat":-34.795032152783826,"lng":-56.25776754562842,"code":"5242"},{"seq":75,"id":"5243","name":"CNO MELILLA esq. MONROE","lat":-34.7924667792486,"lng":-56.258377144644456,"code":"5243"},{"seq":76,"id":"943","name":"AV LEZICA esq. CALLE N1","lat":-34.787312758435384,"lng":-56.26022292338303,"code":"943"},{"seq":77,"id":"940","name":"AV LEZICA esq. CNO AVIADORES CIVILES","lat":-34.78838185745206,"lng":-56.25761503394906,"code":"940"},{"seq":78,"id":"6442","name":"AV LEZICA esq. CNO AVIADORES CIVILES","lat":-34.789610496058174,"lng":-56.25592506689376,"code":"6442"},{"seq":79,"id":"939","name":"AV LEZICA esq. MEDIODIA","lat":-34.7913679320303,"lng":-56.25386460803933,"code":"939"},{"seq":80,"id":"937","name":"AV LEZICA esq. LUIS MORANDI","lat":-34.7925210152309,"lng":-56.252528203688975,"code":"937"},{"seq":81,"id":"935","name":"AV LEZICA esq. PEABODY","lat":-34.79371942567062,"lng":-56.251142474008354,"code":"935"},{"seq":82,"id":"933","name":"AV LEZICA esq. VERAGUAS","lat":-34.795037238382015,"lng":-56.24967023379967,"code":"933"},{"seq":83,"id":"931","name":"AV LEZICA esq. GUANAHANY","lat":-34.796250210239144,"lng":-56.2482607504938,"code":"931"},{"seq":84,"id":"959","name":"GUANAHANY esq. GIOIA","lat":-34.79415481958241,"lng":-56.24507945886074,"code":"959"},{"seq":85,"id":"957","name":"GUANAHANY esq. CNO FAUQUET","lat":-34.792593837034055,"lng":-56.24317676423934,"code":"957"},{"seq":86,"id":"4903","name":"CIRC INT SIN DENOM esq. CNO FAUQUET","lat":-34.78884500906482,"lng":-56.242318390814724,"code":"4903"}]}