{"0":[{"seq":1,"id":"4399","name":"AV DE LAS INSTRUCCIONES esq. CNO PETIROSSI","lat":-34.80653814094471,"lng":-56.1622919164807,"code":"4399"},{"seq":2,"id":"1943","name":"AV DE LAS INSTRUCCIONES esq. FRANCISCO EDUARDO BONILLA","lat":-34.80858255475285,"lng":-56.16429323306628,"code":"1943"},{"seq":3,"id":"1944","name":"AV DE LAS INSTRUCCIONES esq. AV GRAL SAN MARTIN","lat":-34.81053645757825,"lng":-56.16625575816486,"code":"1944"},{"seq":4,"id":"1945","name":"AV DE LAS INSTRUCCIONES esq. AV GRAL SAN MARTIN","lat":-34.81203388169265,"lng":-56.16781352791586,"code":"1945"},{"seq":5,"id":"1946","name":"AV DE LAS INSTRUCCIONES esq. GRAL AV CESAREO L. BERISSO","lat":-34.81475328391009,"lng":-56.17056179092966,"code":"1946"},{"seq":6,"id":"1947","name":"AV DE LAS INSTRUCCIONES esq. LUIS MAZZEI","lat":-34.81663402405624,"lng":-56.17260578953998,"code":"1947"},{"seq":7,"id":"1948","name":"AV DE LAS INSTRUCCIONES esq. CNO COLMAN","lat":-34.81828166518802,"lng":-56.17432506551143,"code":"1948"},{"seq":8,"id":"6862","name":"AV DE LAS INSTRUCCIONES esq. CNO JOSE DURAN","lat":-34.81972693536825,"lng":-56.17557537036327,"code":"6862"},{"seq":9,"id":"1949","name":"AV DE LAS INSTRUCCIONES esq. CNO DOMINGO ARENA","lat":-34.82125012357361,"lng":-56.17737699678433,"code":"1949"},{"seq":10,"id":"1950","name":"AV DE LAS INSTRUCCIONES esq. CHICAGO","lat":-34.82254863864459,"lng":-56.17858737789186,"code":"1950"},{"seq":11,"id":"6424","name":"QUERETARO esq. ANTILLAS","lat":-34.825179094964774,"lng":-56.179627003305846,"code":"6424"},{"seq":12,"id":"2756","name":"LOS ANGELES esq. PSJE A (7887)","lat":-34.82394405344814,"lng":-56.17642203451574,"code":"2756"},{"seq":13,"id":"2757","name":"LOS ANGELES esq. PARAHIBA","lat":-34.82359686466611,"lng":-56.174328404015796,"code":"2757"},{"seq":14,"id":"2758","name":"LOS ANGELES esq. CAMPINAS","lat":-34.82322536103617,"lng":-56.17132839071964,"code":"2758"},{"seq":15,"id":"2752","name":"AV GRAL SAN MARTIN esq. CHICAGO","lat":-34.823210462622235,"lng":-56.16923260914366,"code":"2752"},{"seq":16,"id":"2760","name":"AV GRAL SAN MARTIN esq. CNO TTE RINALDI","lat":-34.826477998863446,"lng":-56.16849229121713,"code":"2760"},{"seq":17,"id":"2761","name":"AV GRAL SAN MARTIN esq. ORSINI BERTANI","lat":-34.82983859319878,"lng":-56.16807327966625,"code":"2761"},{"seq":18,"id":"1961","name":"ORSINI BERTANI esq. DR RICARDO MACKINNON","lat":-34.83005527314297,"lng":-56.170070835269215,"code":"1961"},{"seq":19,"id":"2762","name":"ORSINI BERTANI esq. DR JOSE MARTIRENE","lat":-34.8303448152427,"lng":-56.17362099807974,"code":"2762"},{"seq":20,"id":"6554","name":"DR VICTOR ESCARDO Y ANAYA esq. DR JUSTO MONTES PAREJA","lat":-34.830052423554854,"lng":-56.17712253375712,"code":"6554"},{"seq":21,"id":"6555","name":"DR JUSTO MONTES PAREJA esq. DR BENIGNO VARELA FUENTES","lat":-34.83241938790118,"lng":-56.177379730656966,"code":"6555"},{"seq":22,"id":"6559","name":"DR ISIDRO MAS DE AYALA esq. DR JOSE MARTIRENE","lat":-34.832712215087845,"lng":-56.17443106300453,"code":"6559"},{"seq":23,"id":"1959","name":"PSJE SDA 8 esq. AV GUSTAVO A VOLPE","lat":-34.83502364401023,"lng":-56.17437075902026,"code":"1959"},{"seq":24,"id":"4832","name":"CIRC INT SIN DENOM esq. PSJE SDA 8","lat":-34.835546909302195,"lng":-56.17346438486217,"code":"4832"},{"seq":25,"id":"1971","name":"BV APARICIO SARAVIA esq. AV BURGUES","lat":-34.8357864057554,"lng":-56.170624541926664,"code":"1971"},{"seq":26,"id":"1972","name":"BV APARICIO SARAVIA esq. AV GRAL SAN MARTIN","lat":-34.83557976210522,"lng":-56.168616438666014,"code":"1972"},{"seq":27,"id":"2769","name":"AV GRAL SAN MARTIN esq. GILBERTO BELLINI","lat":-34.83863968484034,"lng":-56.168333872888184,"code":"2769"},{"seq":28,"id":"2770","name":"AV GRAL SAN MARTIN esq. JULIO E SUAREZ (PELODURO)","lat":-34.8408591787542,"lng":-56.16890782573979,"code":"2770"},{"seq":29,"id":"2662","name":"JUAN SAINT CLEMENT esq. LAURO AYESTARAN","lat":-34.84187228981299,"lng":-56.16821830727564,"code":"2662"},{"seq":30,"id":"2663","name":"ENRIQUE AMORIM esq. BERNABE MICHELENA","lat":-34.84232655470102,"lng":-56.16663618630891,"code":"2663"},{"seq":31,"id":"2664","name":"BERNABE MICHELENA esq. JUAN ACOSTA","lat":-34.84170591141444,"lng":-56.16431880571297,"code":"2664"},{"seq":32,"id":"2665","name":"GREGORIO PEREZ esq. JOSE A POSOLO","lat":-34.83987319614401,"lng":-56.16225991459211,"code":"2665"},{"seq":33,"id":"2666","name":"JOSE A POSOLO esq. TORRICELLI","lat":-34.841400539103645,"lng":-56.159861697257924,"code":"2666"},{"seq":34,"id":"6177","name":"TORRICELLI esq. CNO CORRALES","lat":-34.8437717153203,"lng":-56.16172764737366,"code":"6177"},{"seq":35,"id":"2687","name":"CNO CORRALES esq. RIO GUAYAS","lat":-34.844596620800594,"lng":-56.15951143629703,"code":"2687"},{"seq":36,"id":"4744","name":"RANCAGUA esq. AV GRAL FLORES","lat":-34.84715907171441,"lng":-56.15675075883216,"code":"4744"},{"seq":37,"id":"2330","name":"AV GRAL FLORES esq. CNO CHIMBORAZO","lat":-34.85091327074717,"lng":-56.159227116131525,"code":"2330"},{"seq":38,"id":"2331","name":"AV GRAL FLORES esq. GUENOAS","lat":-34.85278879756767,"lng":-56.160842507674786,"code":"2331"},{"seq":39,"id":"5030","name":"ING JOSE SERRATO esq. SAN PETERSBURGO","lat":-34.85458815469873,"lng":-56.160718026869795,"code":"5030"},{"seq":40,"id":"3558","name":"ING JOSE SERRATO esq. BRUSELAS","lat":-34.85516696583523,"lng":-56.1592488501352,"code":"3558"},{"seq":41,"id":"3559","name":"ING JOSE SERRATO esq. CNEL GUILLERMO MUÑOZ","lat":-34.85655295691483,"lng":-56.15580777102548,"code":"3559"},{"seq":42,"id":"3560","name":"ING JOSE SERRATO esq. JAIME ROLDOS Y PONS","lat":-34.85750318834762,"lng":-56.15344528812033,"code":"3560"},{"seq":43,"id":"3561","name":"ING JOSE SERRATO esq. SAN GABRIEL","lat":-34.85971117407158,"lng":-56.15270593209858,"code":"3561"},{"seq":44,"id":"3562","name":"ING JOSE SERRATO esq. AV DAMASO ANTONIO LARRAÑAGA","lat":-34.86155212186773,"lng":-56.15182103731703,"code":"3562"},{"seq":45,"id":"3168","name":"AV DAMASO ANTONIO LARRAÑAGA esq. ING JOSE SERRATO","lat":-34.86258198873891,"lng":-56.15191771284986,"code":"3168"},{"seq":46,"id":"3169","name":"AV DAMASO ANTONIO LARRAÑAGA esq. AV JOSE PEDRO VARELA","lat":-34.86535954122971,"lng":-56.152344280600076,"code":"3169"},{"seq":47,"id":"3170","name":"AV DAMASO ANTONIO LARRAÑAGA esq. PARMA","lat":-34.86779890170317,"lng":-56.15237425736214,"code":"3170"},{"seq":48,"id":"3171","name":"AV DAMASO ANTONIO LARRAÑAGA esq. AV REPUBLICA DE COREA","lat":-34.87101144110714,"lng":-56.15241739870847,"code":"3171"},{"seq":49,"id":"4345","name":"AV DAMASO ANTONIO LARRAÑAGA esq. EMILIO RAÑA","lat":-34.87379637150598,"lng":-56.15258928313735,"code":"4345"},{"seq":50,"id":"3173","name":"AV DAMASO ANTONIO LARRAÑAGA esq. BV JOSE BATLLE Y ORDOÑEZ","lat":-34.87535024104346,"lng":-56.15247043108002,"code":"3173"},{"seq":51,"id":"3485","name":"AV DAMASO ANTONIO LARRAÑAGA esq. TOMAS GOMENSORO","lat":-34.87694824562793,"lng":-56.15262149249546,"code":"3485"},{"seq":52,"id":"3486","name":"AV DAMASO ANTONIO LARRAÑAGA esq. FAMAILLA","lat":-34.88037409543749,"lng":-56.15261868233257,"code":"3486"},{"seq":53,"id":"3487","name":"AV CENTENARIO esq. AV DR LUIS ALBERTO DE HERRERA","lat":-34.88356083680625,"lng":-56.152723308481356,"code":"3487"},{"seq":54,"id":"3488","name":"AV CENTENARIO esq. REPUBLICA DOMINICANA","lat":-34.88694135124848,"lng":-56.15359849343149,"code":"3488"},{"seq":55,"id":"3489","name":"AV CENTENARIO esq. ESTERO BELLACO","lat":-34.890359137613835,"lng":-56.15532246543694,"code":"3489"},{"seq":56,"id":"553","name":"AV DR AMERICO RICALDONI esq. AV FEDERICO R VIDIELLA","lat":-34.89202323950206,"lng":-56.15460523033937,"code":"553"},{"seq":57,"id":"554","name":"AV DR AMERICO RICALDONI esq. CIRC INT SIN DENOM","lat":-34.89329183243344,"lng":-56.15224312714718,"code":"554"},{"seq":58,"id":"3067","name":"AV DR ALFREDO NAVARRO esq. MANUEL ALONSO","lat":-34.894800605719,"lng":-56.149309745654065,"code":"3067"},{"seq":59,"id":"3068","name":"AV DR ALFREDO NAVARRO esq. AV CATALUÑA","lat":-34.895766421434814,"lng":-56.147739519616586,"code":"3068"},{"seq":60,"id":"3431","name":"ALEJO ROSELL Y RIUS esq. 4 DE JULIO","lat":-34.89702532565938,"lng":-56.14695051586753,"code":"3431"},{"seq":61,"id":"3432","name":"ALEJO ROSELL Y RIUS esq. LIBER ARCE","lat":-34.89932319986502,"lng":-56.1466730892971,"code":"3432"},{"seq":62,"id":"3433","name":"ALEJO ROSELL Y RIUS esq. DR JOSE LUIS BADO","lat":-34.90100026765463,"lng":-56.146443777800044,"code":"3433"},{"seq":63,"id":"3434","name":"ALEJO ROSELL Y RIUS esq. AV GRAL RIVERA","lat":-34.90253733242786,"lng":-56.14621995366719,"code":"3434"},{"seq":64,"id":"2973","name":"AV GRAL RIVERA esq. DOLORES PEREIRA DE ROSELL","lat":-34.90254756708267,"lng":-56.14369692763453,"code":"2973"},{"seq":65,"id":"3887","name":"AV GRAL RIVERA esq. JULIO CESAR","lat":-34.90211145873505,"lng":-56.141572211866745,"code":"3887"},{"seq":66,"id":"2974","name":"AV GRAL RIVERA esq. AV DR LUIS ALBERTO DE HERRERA","lat":-34.90137586257185,"lng":-56.13885822537604,"code":"2974"},{"seq":67,"id":"3435","name":"AV DR LUIS ALBERTO DE HERRERA esq. PLACIDO ELLAURI","lat":-34.9033313458358,"lng":-56.137858630008886,"code":"3435"},{"seq":68,"id":"3934","name":"BV 26 DE MARZO esq. JULIO CESAR","lat":-34.9061276882192,"lng":-56.13913415091652,"code":"3934"},{"seq":69,"id":"4079","name":"26 DE MARZO esq. FELIX BUXAREO","lat":-34.907070517648066,"lng":-56.14370742160238,"code":"4079"},{"seq":70,"id":"4193","name":"26 DE MARZO esq. MANUEL V PAGOLA","lat":-34.90778190770789,"lng":-56.14631963246543,"code":"4193"},{"seq":71,"id":"4080","name":"26 DE MARZO esq. GUAYAQUI","lat":-34.9095100825354,"lng":-56.148929790955094,"code":"4080"},{"seq":72,"id":"3935","name":"26 DE MARZO esq. AV BRASIL","lat":-34.911006117135955,"lng":-56.15119358373511,"code":"3935"},{"seq":73,"id":"4078","name":"26 DE MARZO esq. JOSE ELLAURI","lat":-34.91265419203733,"lng":-56.15325715948907,"code":"4078"},{"seq":74,"id":"3936","name":"JOSE ELLAURI esq. JAIME ZUDAÑEZ","lat":-34.915809374277956,"lng":-56.15431464468658,"code":"3936"},{"seq":75,"id":"3937","name":"JOSE ELLAURI esq. 21 DE SETIEMBRE","lat":-34.91870684997951,"lng":-56.155946134274465,"code":"3937"},{"seq":76,"id":"3379","name":"JOSE ELLAURI esq. GRAL GREGORIO SUAREZ","lat":-34.920389213493635,"lng":-56.156851176646946,"code":"3379"},{"seq":77,"id":"3380","name":"JOSE ELLAURI esq. DR JOSE MARIA MONTERO","lat":-34.92168523948615,"lng":-56.158038126301314,"code":"3380"},{"seq":78,"id":"3381","name":"JOSE ELLAURI esq. FRANCISCO GARCIA CORTINAS","lat":-34.92387811688432,"lng":-56.16019851892357,"code":"3381"},{"seq":79,"id":"4967","name":"BV GRAL ARTIGAS esq. PARVA DOMUS","lat":-34.9262016016945,"lng":-56.16165928152722,"code":"4967"}],"1":[{"seq":1,"id":"2061","name":"BV GRAL ARTIGAS esq. TABARE","lat":-34.92710198515767,"lng":-56.16124203637105,"code":"2061"},{"seq":2,"id":"4850","name":"BV GRAL ARTIGAS esq. RAMON FERNANDEZ","lat":-34.9256483174246,"lng":-56.161398903939734,"code":"4850"},{"seq":3,"id":"3382","name":"JOSE ELLAURI esq. DR HECTOR MIRANDA","lat":-34.92367186286088,"lng":-56.15982123638708,"code":"3382"},{"seq":4,"id":"3383","name":"JOSE ELLAURI esq. JOAQUIN NUÑEZ","lat":-34.922252044815885,"lng":-56.15848262785312,"code":"3383"},{"seq":5,"id":"4478","name":"DR JOSE MARIA MONTERO esq. GUIPUZCOA","lat":-34.92246054026875,"lng":-56.15554895341402,"code":"4478"},{"seq":6,"id":"3372","name":"GONZALO DE ORGAZ esq. LEYENDA PATRIA","lat":-34.92249776235078,"lng":-56.15402573939292,"code":"3372"},{"seq":7,"id":"3373","name":"LEYENDA PATRIA esq. JUAN BENITO BLANCO","lat":-34.92156410384813,"lng":-56.15185553886469,"code":"3373"},{"seq":8,"id":"4489","name":"JUAN BENITO BLANCO esq. FRANCISCO SOLANO ANTUÑA","lat":-34.91919137804168,"lng":-56.15097101425492,"code":"4489"},{"seq":9,"id":"3948","name":"JUAN BENITO BLANCO esq. JAIME ZUDAÑEZ","lat":-34.916890409678714,"lng":-56.15018307915776,"code":"3948"},{"seq":10,"id":"4488","name":"JUAN BENITO BLANCO esq. BV ESPAÑA","lat":-34.91530661885991,"lng":-56.14969333998143,"code":"4488"},{"seq":11,"id":"3949","name":"JUAN BENITO BLANCO esq. JOSE MARTI","lat":-34.91331286515487,"lng":-56.1485095991571,"code":"3949"},{"seq":12,"id":"3950","name":"JUAN BENITO BLANCO esq. GUAYAQUI","lat":-34.91202883507486,"lng":-56.14711823997253,"code":"3950"},{"seq":13,"id":"3951","name":"JUAN BENITO BLANCO esq. MANUEL V PAGOLA","lat":-34.91028906890789,"lng":-56.144557142331486,"code":"3951"},{"seq":14,"id":"3952","name":"JUAN BENITO BLANCO esq. FELIX BUXAREO","lat":-34.90923060653747,"lng":-56.14297094547107,"code":"3952"},{"seq":15,"id":"3953","name":"BV 26 DE MARZO esq. MARCO BRUTO","lat":-34.906210074464134,"lng":-56.138601959933666,"code":"3953"},{"seq":16,"id":"3419","name":"AV DR LUIS ALBERTO DE HERRERA esq. CR LUIS E LECUEDER","lat":-34.90395628939104,"lng":-56.1373899322753,"code":"3419"},{"seq":17,"id":"3429","name":"TTE GRAL PABLO GALARZA esq. MAGARIÑOS CERVANTES","lat":-34.90203046018539,"lng":-56.13700773490121,"code":"3429"},{"seq":18,"id":"3048","name":"AV GRAL RIVERA esq. AV DR LUIS ALBERTO DE HERRERA","lat":-34.90103512583684,"lng":-56.13816022314074,"code":"3048"},{"seq":19,"id":"3049","name":"AV GRAL RIVERA esq. FRANCISCO JOAQUIN MUÑOZ","lat":-34.90177982682855,"lng":-56.14073752616651,"code":"3049"},{"seq":20,"id":"3888","name":"AV GRAL RIVERA esq. DOLORES PEREIRA DE ROSELL","lat":-34.90243715700076,"lng":-56.143363148462285,"code":"3888"},{"seq":21,"id":"3430","name":"DOLORES PEREIRA DE ROSELL esq. LIBER ARCE","lat":-34.89916688366538,"lng":-56.14458747533768,"code":"3430"},{"seq":22,"id":"3870","name":"DOLORES PEREIRA DE ROSELL esq. 4 DE JULIO","lat":-34.89710862963777,"lng":-56.14525720149148,"code":"3870"},{"seq":23,"id":"3145","name":"AV RAMON ANADOR esq. CDRO COE","lat":-34.89586884931386,"lng":-56.14667347704922,"code":"3145"},{"seq":24,"id":"3146","name":"AV DR ALFREDO NAVARRO esq. SANTIAGO GADEA","lat":-34.89454952406178,"lng":-56.149128153344996,"code":"3146"},{"seq":25,"id":"3147","name":"AV DR AMERICO RICALDONI esq. AV DR ALFREDO NAVARRO","lat":-34.89329712601818,"lng":-56.151488775322164,"code":"3147"},{"seq":26,"id":"3148","name":"AV DR AMERICO RICALDONI esq. AV ITALIA","lat":-34.89192769461429,"lng":-56.154171704776466,"code":"3148"},{"seq":27,"id":"3149","name":"AV CENTENARIO esq. BELGRANO","lat":-34.89042522066208,"lng":-56.15500054258601,"code":"3149"},{"seq":28,"id":"3150","name":"AV CENTENARIO esq. DR JOSE BRITO FORESTI","lat":-34.88772471043564,"lng":-56.15349509860871,"code":"3150"},{"seq":29,"id":"3151","name":"AV CENTENARIO esq. PROF DR PABLO PURRIEL","lat":-34.883989847700676,"lng":-56.15226634349493,"code":"3151"},{"seq":30,"id":"3153","name":"AV DAMASO ANTONIO LARRAÑAGA esq. JUAN JACOBO ROUSSEAU","lat":-34.87940316405573,"lng":-56.152220074095325,"code":"3153"},{"seq":31,"id":"3154","name":"AV DAMASO ANTONIO LARRAÑAGA esq. BV JOSE BATLLE Y ORDOÑEZ","lat":-34.876407960211374,"lng":-56.15213384514674,"code":"3154"},{"seq":32,"id":"3172","name":"AV DAMASO ANTONIO LARRAÑAGA esq. JUAN FRANCISCO MARTINEZ","lat":-34.873392980216266,"lng":-56.152142560141385,"code":"3172"},{"seq":33,"id":"3155","name":"AV DAMASO ANTONIO LARRAÑAGA esq. APOSTOLES","lat":-34.87193181839085,"lng":-56.15199950251431,"code":"3155"},{"seq":34,"id":"3156","name":"AV DAMASO ANTONIO LARRAÑAGA esq. TOMAS CLARAMUNT","lat":-34.868253214664286,"lng":-56.15208459695719,"code":"3156"},{"seq":35,"id":"3157","name":"AV DAMASO ANTONIO LARRAÑAGA esq. 20 DE FEBRERO","lat":-34.865770536998454,"lng":-56.152038937576606,"code":"3157"},{"seq":36,"id":"4987","name":"AV DAMASO ANTONIO LARRAÑAGA esq. ING JOSE SERRATO","lat":-34.862573805967,"lng":-56.151558072699984,"code":"4987"},{"seq":37,"id":"3158","name":"AV DAMASO ANTONIO LARRAÑAGA esq. JUAN SEBASTIAN DE ELCANO","lat":-34.85985246636631,"lng":-56.150816190852254,"code":"3158"},{"seq":38,"id":"4853","name":"ROBINSON esq. AV DAMASO ANTONIO LARRAÑAGA","lat":-34.85698559825532,"lng":-56.15169822551607,"code":"4853"},{"seq":39,"id":"3555","name":"ROBINSON esq. PABLO PEREZ","lat":-34.85589678702943,"lng":-56.154445387823955,"code":"3555"},{"seq":40,"id":"3556","name":"ROBINSON esq. BRUSELAS","lat":-34.85442864881712,"lng":-56.158052241250054,"code":"3556"},{"seq":41,"id":"3557","name":"ROBINSON esq. AV GRAL FLORES","lat":-34.85332760541557,"lng":-56.16073067589877,"code":"3557"},{"seq":42,"id":"2225","name":"AV GRAL FLORES esq. HONDURAS","lat":-34.85029263645495,"lng":-56.1585818863963,"code":"2225"},{"seq":43,"id":"2688","name":"CNO CORRALES esq. AV GRAL FLORES","lat":-34.84611804121001,"lng":-56.15625296971169,"code":"2688"},{"seq":44,"id":"2657","name":"CNO CORRALES esq. RIO GUAYAS","lat":-34.84463270750841,"lng":-56.15915109454614,"code":"2657"},{"seq":45,"id":"2658","name":"CNO CORRALES esq. TORRICELLI","lat":-34.84404764425826,"lng":-56.161442930623934,"code":"2658"},{"seq":46,"id":"6524","name":"CNO CORRALES esq. TOMAS BURGUEÑO","lat":-34.843429936592976,"lng":-56.16391817431407,"code":"6524"},{"seq":47,"id":"2659","name":"JUAN ACOSTA esq. GREGORIO PEREZ","lat":-34.84168783927947,"lng":-56.16399858876431,"code":"2659"},{"seq":48,"id":"2660","name":"BERNABE MICHELENA esq. ENRIQUE AMORIM","lat":-34.842220583932296,"lng":-56.16619631519428,"code":"2660"},{"seq":49,"id":"6025","name":"JULIO E SUAREZ (PELODURO) esq. AV GRAL SAN MARTIN","lat":-34.840730843675786,"lng":-56.16839744158267,"code":"6025"},{"seq":50,"id":"2746","name":"AV GRAL SAN MARTIN esq. GILBERTO BELLINI","lat":-34.839072444693095,"lng":-56.16826844962435,"code":"2746"},{"seq":51,"id":"2747","name":"AV GRAL SAN MARTIN esq. BV APARICIO SARAVIA","lat":-34.83561867387342,"lng":-56.16828851109417,"code":"2747"},{"seq":52,"id":"1969","name":"BV APARICIO SARAVIA esq. AV BURGUES","lat":-34.83563501259185,"lng":-56.17019058285672,"code":"1969"},{"seq":53,"id":"4752","name":"PSJE 322 esq. AV GUSTAVO A VOLPE","lat":-34.83509056961072,"lng":-56.17247188040486,"code":"4752"},{"seq":54,"id":"6616","name":"PSJE 322 esq. CNO GRAL LEANDRO GOMEZ","lat":-34.83350500504713,"lng":-56.17267624130423,"code":"6616"},{"seq":55,"id":"2764","name":"DR JOSE MARTIRENE esq. DR ISIDRO MAS DE AYALA","lat":-34.83275139991902,"lng":-56.17371882225941,"code":"2764"},{"seq":56,"id":"6556","name":"DR ISIDRO MAS DE AYALA esq. DR BENIGNO VARELA FUENTES","lat":-34.83267428240532,"lng":-56.17637627184021,"code":"6556"},{"seq":57,"id":"6557","name":"DR JUSTO MONTES PAREJA esq. DR VICTOR ESCARDO Y ANAYA","lat":-34.83057773841024,"lng":-56.1774102534187,"code":"6557"},{"seq":58,"id":"6558","name":"PROF DR ENRIQUE CLAVEAUX esq. DR JOSE MARTIRENE","lat":-34.83011589058572,"lng":-56.174235420938984,"code":"6558"},{"seq":59,"id":"1960","name":"ORSINI BERTANI esq. DR RICARDO MACKINNON","lat":-34.83016243733811,"lng":-56.17051568903037,"code":"1960"},{"seq":60,"id":"2766","name":"ORSINI BERTANI esq. AV GRAL SAN MARTIN","lat":-34.830061380007145,"lng":-56.1687614897555,"code":"2766"},{"seq":61,"id":"2750","name":"AV GRAL SAN MARTIN esq. CNO TTE RINALDI","lat":-34.82714456942707,"lng":-56.16822375003077,"code":"2750"},{"seq":62,"id":"2751","name":"AV GRAL SAN MARTIN esq. CNO CAP MATEO TULA DUFORT","lat":-34.82408024069516,"lng":-56.168725286363724,"code":"2751"},{"seq":63,"id":"2759","name":"ANTILLAS esq. CAMPINAS","lat":-34.82392689966855,"lng":-56.17060796599089,"code":"2759"},{"seq":64,"id":"2753","name":"ANTILLAS esq. PARAHIBA","lat":-34.824289735499924,"lng":-56.17309134053356,"code":"2753"},{"seq":65,"id":"2754","name":"ANTILLAS esq. CURITIBA","lat":-34.82481914067583,"lng":-56.1756800924787,"code":"2754"},{"seq":66,"id":"2755","name":"ANTILLAS esq. DR ROMAN ARANA IÑIGUEZ","lat":-34.82517506053317,"lng":-56.17895567211054,"code":"2755"},{"seq":67,"id":"4269","name":"ANTILLAS esq. PSJE 5","lat":-34.825336309891966,"lng":-56.18069023180711,"code":"4269"},{"seq":68,"id":"1851","name":"AV DE LAS INSTRUCCIONES esq. CHICAGO","lat":-34.822819819388705,"lng":-56.178526566610294,"code":"1851"},{"seq":69,"id":"1852","name":"AV DE LAS INSTRUCCIONES esq. CNO DOMINGO ARENA","lat":-34.82115831524187,"lng":-56.17694140518576,"code":"1852"},{"seq":70,"id":"6861","name":"AV DE LAS INSTRUCCIONES esq. PSJE F (8026)","lat":-34.81990306912177,"lng":-56.17557198489132,"code":"6861"},{"seq":71,"id":"1853","name":"AV DE LAS INSTRUCCIONES esq. CNO COLMAN","lat":-34.8189335691953,"lng":-56.17466863075495,"code":"1853"},{"seq":72,"id":"1854","name":"AV DE LAS INSTRUCCIONES esq. LUIS MAZZEI","lat":-34.816807974967816,"lng":-56.172558790153516,"code":"1854"},{"seq":73,"id":"1855","name":"AV DE LAS INSTRUCCIONES esq. GRAL AV CESAREO L. BERISSO","lat":-34.81482296424313,"lng":-56.170527309226635,"code":"1855"},{"seq":74,"id":"4352","name":"AV DE LAS INSTRUCCIONES esq. MARIO GARCIA CAMES","lat":-34.81266206344748,"lng":-56.16822560990642,"code":"4352"},{"seq":75,"id":"1856","name":"AV DE LAS INSTRUCCIONES esq. AV GRAL SAN MARTIN","lat":-34.810863942844655,"lng":-56.16646206741204,"code":"1856"},{"seq":76,"id":"1857","name":"AV DE LAS INSTRUCCIONES esq. CNO CARLOS A LOPEZ","lat":-34.80903813016106,"lng":-56.16462230455201,"code":"1857"},{"seq":77,"id":"1858","name":"AV DE LAS INSTRUCCIONES esq. CNO PETIROSSI","lat":-34.806752935165726,"lng":-56.162279496307896,"code":"1858"}]}