{"0":[{"seq":1,"id":"5512","name":"AV DR MARTIN IGNACIO HARRETCHE esq. CALLE FICTICIA","lat":-34.903800144113916,"lng":-56.259723771370716,"code":"5512"},{"seq":2,"id":"4960","name":"AV DR MARTIN IGNACIO HARRETCHE esq. RBLA JOSE GURVICH","lat":-34.899713043646734,"lng":-56.26076517899303,"code":"4960"},{"seq":3,"id":"1123","name":"SUIZA esq. RIO DE JANEIRO","lat":-34.89527464708369,"lng":-56.25166754713159,"code":"1123"},{"seq":4,"id":"1124","name":"SUIZA esq. PORTUGAL","lat":-34.89501273315229,"lng":-56.249669745123974,"code":"1124"},{"seq":5,"id":"1126","name":"GRECIA esq. MEJICO","lat":-34.893948529206874,"lng":-56.24725072672022,"code":"1126"},{"seq":6,"id":"1127","name":"GRECIA esq. NORTE AMERICA","lat":-34.892047569782356,"lng":-56.247681482972034,"code":"1127"},{"seq":7,"id":"1128","name":"GRECIA esq. REPUBLICA ARGENTINA","lat":-34.89037338260611,"lng":-56.248048751485804,"code":"1128"},{"seq":8,"id":"1130","name":"GRECIA esq. BARCELONA","lat":-34.88797769689636,"lng":-56.248515132059296,"code":"1130"},{"seq":9,"id":"1131","name":"GRECIA esq. PRUSIA","lat":-34.88673934179078,"lng":-56.24878731546661,"code":"1131"},{"seq":10,"id":"1132","name":"GRECIA esq. HOLANDA","lat":-34.88501549068064,"lng":-56.249125417137016,"code":"1132"},{"seq":11,"id":"1133","name":"GRECIA esq. RUSIA","lat":-34.88319370956854,"lng":-56.24950207552952,"code":"1133"},{"seq":12,"id":"1134","name":"GRECIA esq. AUSTRIA","lat":-34.88149838222476,"lng":-56.24982278603355,"code":"1134"},{"seq":13,"id":"1135","name":"GRECIA esq. BELGICA","lat":-34.879641498458426,"lng":-56.25021466548597,"code":"1135"},{"seq":14,"id":"1136","name":"GRECIA esq. BURDEOS","lat":-34.87809569383029,"lng":-56.25049481234234,"code":"1136"},{"seq":15,"id":"5325","name":"BERNA esq. CHILE","lat":-34.87693287941155,"lng":-56.2516605849504,"code":"5325"},{"seq":16,"id":"5326","name":"PORTUGAL esq. JAPON","lat":-34.8755243495566,"lng":-56.25326209305592,"code":"5326"},{"seq":17,"id":"4775","name":"AV DR SANTIN CARLOS ROSSI esq. DR PEDRO CASTELLINO","lat":-34.87366351246541,"lng":-56.25252419496949,"code":"4775"},{"seq":18,"id":"4930","name":"ROMEO BEZZOSO TABAREZ esq. AV CARLOS MARIA RAMIREZ","lat":-34.8736501719636,"lng":-56.24907895200381,"code":"4930"},{"seq":19,"id":"4776","name":"JAPON esq. VIGO","lat":-34.87467209400156,"lng":-56.24788565268965,"code":"4776"},{"seq":20,"id":"1283","name":"AV CARLOS MARIA RAMIREZ esq. CONCORDIA","lat":-34.869051415570574,"lng":-56.23959388492736,"code":"1283"},{"seq":21,"id":"1284","name":"AV CARLOS MARIA RAMIREZ esq. HUMBOLDT","lat":-34.86785620603017,"lng":-56.23813490916223,"code":"1284"},{"seq":22,"id":"1285","name":"AV CARLOS MARIA RAMIREZ esq. RIVERA INDARTE","lat":-34.86659588514902,"lng":-56.23657922146113,"code":"1285"},{"seq":23,"id":"1286","name":"AV CARLOS MARIA RAMIREZ esq. PEDRO GIRALT","lat":-34.86528020048406,"lng":-56.23496407001005,"code":"1286"},{"seq":24,"id":"1287","name":"AV CARLOS MARIA RAMIREZ esq. GRAL AGUSTIN MUÑOZ","lat":-34.86387271300031,"lng":-56.23321274879693,"code":"1287"},{"seq":25,"id":"1288","name":"AV CARLOS MARIA RAMIREZ esq. REAL","lat":-34.86260038492836,"lng":-56.23163498246714,"code":"1288"},{"seq":26,"id":"1289","name":"AV CARLOS MARIA RAMIREZ esq. VICENTE YAÑEZ PINZON","lat":-34.86136333616833,"lng":-56.23013197988875,"code":"1289"},{"seq":27,"id":"1290","name":"AV CARLOS MARIA RAMIREZ esq. GDOR DEL PINO","lat":-34.85993710754195,"lng":-56.22836858380064,"code":"1290"},{"seq":28,"id":"1291","name":"AV CARLOS MARIA RAMIREZ esq. AV LUIS BATLLE BERRES","lat":-34.85889210675736,"lng":-56.22706613324787,"code":"1291"},{"seq":29,"id":"1292","name":"AV CARLOS MARIA RAMIREZ esq. DR VICENTE BASAGOITY","lat":-34.857305698374745,"lng":-56.22512467868501,"code":"1292"},{"seq":30,"id":"1293","name":"AV CARLOS MARIA RAMIREZ esq. BELVEDERE","lat":-34.855752487211376,"lng":-56.22325673633675,"code":"1293"},{"seq":31,"id":"1568","name":"AV AGRACIADA esq. JOSE B FREIRE","lat":-34.856091460818575,"lng":-56.220543735711516,"code":"1568"},{"seq":32,"id":"1569","name":"AV AGRACIADA esq. JUAN ANTONIO ARTIGAS","lat":-34.857792380402444,"lng":-56.2184672267529,"code":"1569"},{"seq":33,"id":"4912","name":"AV AGRACIADA esq. AV ARQ JUAN P TERRA","lat":-34.862228718341576,"lng":-56.21223992378567,"code":"4912"},{"seq":34,"id":"4213","name":"AV AGRACIADA esq. VALENTIN GOMEZ","lat":-34.864243184164664,"lng":-56.21014592695116,"code":"4213"},{"seq":35,"id":"1571","name":"AV AGRACIADA esq. ENRIQUE TURINI","lat":-34.86600630462336,"lng":-56.20875481263234,"code":"1571"},{"seq":36,"id":"1572","name":"AV AGRACIADA esq. CAPURRO","lat":-34.867653589020016,"lng":-56.20690834602407,"code":"1572"},{"seq":37,"id":"1573","name":"AV AGRACIADA esq. HERMANOS GIL","lat":-34.87038931543353,"lng":-56.20401810860312,"code":"1573"},{"seq":38,"id":"1574","name":"AV AGRACIADA esq. LARROBLA","lat":-34.87140512430482,"lng":-56.20298045302651,"code":"1574"},{"seq":39,"id":"1575","name":"AV AGRACIADA esq. JOSE NASAZZI","lat":-34.87323308793604,"lng":-56.20152126751111,"code":"1575"},{"seq":40,"id":"3733","name":"AV AGRACIADA esq. CAP MANUEL ANTONIO ARTIGAS","lat":-34.87494383162382,"lng":-56.2001682498744,"code":"3733"},{"seq":41,"id":"3734","name":"AV AGRACIADA esq. DR EVARISTO CIGANDA","lat":-34.876577355578085,"lng":-56.19793249614579,"code":"3734"},{"seq":42,"id":"3735","name":"AV AGRACIADA esq. DR SALVADOR GARCIA PINTOS","lat":-34.87908312480839,"lng":-56.19619126474365,"code":"3735"},{"seq":43,"id":"3724","name":"AV AGRACIADA esq. SANTA FE","lat":-34.88297839626283,"lng":-56.19453052752813,"code":"3724"},{"seq":44,"id":"3725","name":"AV AGRACIADA esq. GRAL FAUSTO AGUILAR","lat":-34.88472589592342,"lng":-56.19337699613261,"code":"3725"},{"seq":45,"id":"3726","name":"AV AGRACIADA esq. CNEL FRANCISCO TAJES","lat":-34.88686039486761,"lng":-56.1909445118529,"code":"3726"},{"seq":46,"id":"3736","name":"AV AGRACIADA esq. GRAL MANUEL FREIRE","lat":-34.88795896874254,"lng":-56.18927661636792,"code":"3736"},{"seq":47,"id":"3663","name":"AV DE LAS LEYES esq. GUATEMALA","lat":-34.891684021777536,"lng":-56.18872660096357,"code":"3663"},{"seq":48,"id":"3877","name":"MAGALLANES esq. LIMA","lat":-34.894156165683185,"lng":-56.18510033316632,"code":"3877"},{"seq":49,"id":"3878","name":"MAGALLANES esq. NUEVA YORK","lat":-34.89588333503353,"lng":-56.184078830408026,"code":"3878"},{"seq":50,"id":"3822","name":"MIGUELETE esq. AV DANIEL FERNANDEZ CRESPO","lat":-34.89594960179222,"lng":-56.181943538129026,"code":"3822"},{"seq":51,"id":"3830","name":"ARENAL GRANDE esq. LA PAZ","lat":-34.8960236277724,"lng":-56.179785201096344,"code":"3830"},{"seq":52,"id":"3831","name":"ARENAL GRANDE esq. CERRO LARGO","lat":-34.89705316339779,"lng":-56.1783211706736,"code":"3831"},{"seq":53,"id":"3832","name":"ARENAL GRANDE esq. AV URUGUAY","lat":-34.898473686360106,"lng":-56.176467221183195,"code":"3832"},{"seq":54,"id":"4029","name":"MERCEDES esq. AV DANIEL FERNANDEZ CRESPO","lat":-34.90015872371072,"lng":-56.176676057819755,"code":"4029"},{"seq":55,"id":"3879","name":"EDUARDO VICTOR HAEDO esq. REPUBLICA","lat":-34.89893010752794,"lng":-56.17396384782657,"code":"3879"},{"seq":56,"id":"4030","name":"EDUARDO VICTOR HAEDO esq. DR JOAQUIN REQUENA","lat":-34.89749961648433,"lng":-56.17136274739866,"code":"4030"},{"seq":57,"id":"3881","name":"EDUARDO VICTOR HAEDO esq. DR MARIO CASSINONI","lat":-34.89569250660495,"lng":-56.16647623263422,"code":"3881"},{"seq":58,"id":"2121","name":"AV ITALIA esq. PTE LORENZO BATLLE","lat":-34.89375941996686,"lng":-56.16182184769232,"code":"2121"},{"seq":59,"id":"2122","name":"AV ITALIA esq. AV DR AMERICO RICALDONI","lat":-34.89252457137098,"lng":-56.15947913622053,"code":"2122"},{"seq":60,"id":"2123","name":"AV ITALIA esq. AV DR AMERICO RICALDONI","lat":-34.89167530354266,"lng":-56.156359261424704,"code":"2123"},{"seq":61,"id":"2124","name":"AV ITALIA esq. GRAL LAS HERAS","lat":-34.89029220405,"lng":-56.150767140765865,"code":"2124"},{"seq":62,"id":"2126","name":"AV ITALIA esq. D AZEGLIO","lat":-34.88857597235489,"lng":-56.146579436583785,"code":"2126"},{"seq":63,"id":"4094","name":"AV ITALIA esq. DR FRANCISCO SIMON","lat":-34.887806559289714,"lng":-56.14460440199438,"code":"4094"},{"seq":64,"id":"2127","name":"AV ITALIA esq. MAGARIÑOS CERVANTES","lat":-34.88703213095871,"lng":-56.142165652269405,"code":"2127"},{"seq":65,"id":"2128","name":"AV ITALIA esq. FRANCISCO ANZANI","lat":-34.88682354709515,"lng":-56.13918413579693,"code":"2128"},{"seq":66,"id":"2129","name":"AV ITALIA esq. ALICIA GOYENA","lat":-34.88679299945431,"lng":-56.13534598498285,"code":"2129"},{"seq":67,"id":"2130","name":"AV ITALIA esq. LUIS ALBERTO CAUSA","lat":-34.886858247846654,"lng":-56.13296705843137,"code":"2130"},{"seq":68,"id":"3766","name":"JUAN DE DIOS PEZA esq. BARROSO","lat":-34.88764965318426,"lng":-56.13148744448197,"code":"3766"},{"seq":69,"id":"3023","name":"AV MCAL FRANCISCO SOLANO LOPEZ esq. AV ITALIA","lat":-34.8872389461918,"lng":-56.1295089743289,"code":"3023"},{"seq":70,"id":"2884","name":"MINNESOTA esq. LAMBARE","lat":-34.88614140624831,"lng":-56.128807382702966,"code":"2884"},{"seq":71,"id":"2885","name":"MINNESOTA esq. ALFONSO RODRIGUEZ CASTELAO","lat":-34.8846230797659,"lng":-56.128637416004125,"code":"2885"},{"seq":72,"id":"4564","name":"MINNESOTA esq. RBLA EUSKAL ERRIA","lat":-34.882688111804285,"lng":-56.12835105151496,"code":"4564"},{"seq":73,"id":"2886","name":"ISLA DE GASPAR esq. HILARION DE LA QUINTANA","lat":-34.8804628277305,"lng":-56.12781563633038,"code":"2886"},{"seq":74,"id":"2887","name":"ISLA DE GASPAR esq. MENORCA","lat":-34.879146993586865,"lng":-56.127336221913595,"code":"2887"},{"seq":75,"id":"2888","name":"ISLA DE GASPAR esq. ESPRONCEDA","lat":-34.87751366815527,"lng":-56.126841998948116,"code":"2888"},{"seq":76,"id":"2878","name":"MALLORCA esq. MANILA","lat":-34.876277894401,"lng":-56.125504243805466,"code":"2878"},{"seq":77,"id":"5221","name":"MALLORCA esq. PIRAN","lat":-34.87688475425126,"lng":-56.12263326916458,"code":"5221"},{"seq":78,"id":"2876","name":"MALLORCA esq. PSJE 8575","lat":-34.87723802654777,"lng":-56.12064171079512,"code":"2876"},{"seq":79,"id":"2895","name":"MALLORCA esq. CIRC INT SIN DENOM","lat":-34.87741293421196,"lng":-56.11922744963879,"code":"2895"},{"seq":80,"id":"2897","name":"MATAOJO esq. CALLE 5","lat":-34.87970687084909,"lng":-56.11869104155845,"code":"2897"},{"seq":81,"id":"2899","name":"IGUA esq. CIRC INT SDA 5","lat":-34.88137789590291,"lng":-56.117585999167424,"code":"2899"},{"seq":82,"id":"2900","name":"IGUA esq. CIRC INT CALLE 124","lat":-34.88170393868986,"lng":-56.115781168103226,"code":"2900"},{"seq":83,"id":"2901","name":"IGUA esq. CIRC INT CALLE 30","lat":-34.88140163542164,"lng":-56.11341793176039,"code":"2901"},{"seq":84,"id":"2902","name":"IGUA esq. CIRC INT PSJE 23 - BLOQUE 3","lat":-34.88107043972431,"lng":-56.11185360811111,"code":"2902"},{"seq":85,"id":"2904","name":"IGUA esq. CAP LUIS DUARTE","lat":-34.87968694523215,"lng":-56.108712752343905,"code":"2904"},{"seq":86,"id":"2903","name":"IGUA esq. DR ALEJANDRO GALLINAL","lat":-34.877905543395585,"lng":-56.10543356539923,"code":"2903"},{"seq":87,"id":"2929","name":"DR ALEJANDRO GALLINAL esq. FLAMMARION","lat":-34.87622855331968,"lng":-56.10648752204187,"code":"2929"},{"seq":88,"id":"2933","name":"FLAMMARION esq. ALBERTO ZUM FELDE","lat":-34.87480430462924,"lng":-56.10445339126525,"code":"2933"},{"seq":89,"id":"2935","name":"ALBERTO ZUM FELDE esq. OFICIAL 17 MTS","lat":-34.87576052281054,"lng":-56.10298546741223,"code":"2935"},{"seq":90,"id":"2936","name":"ALBERTO ZUM FELDE esq. PITAGORAS","lat":-34.87889292776321,"lng":-56.10043115121442,"code":"2936"},{"seq":91,"id":"2937","name":"ALBERTO ZUM FELDE esq. AGUSTIN PEDROZA","lat":-34.88017115587337,"lng":-56.09940985167764,"code":"2937"},{"seq":92,"id":"2938","name":"ALBERTO ZUM FELDE esq. 1RA PARALELA A CUÑARRO","lat":-34.88242006524464,"lng":-56.097588459795226,"code":"2938"},{"seq":93,"id":"2939","name":"ALBERTO ZUM FELDE esq. AV JOSE PEDRO DURANDEAU","lat":-34.88444388427862,"lng":-56.09624307204737,"code":"2939"},{"seq":94,"id":"5276","name":"AV ITALIA esq. AV JOAQUIN TORRES GARCIA","lat":-34.883683471079486,"lng":-56.090622893531595,"code":"5276"},{"seq":95,"id":"2144","name":"AV ITALIA esq. JOSE ORDEIG","lat":-34.88341935890985,"lng":-56.08825650691034,"code":"2144"},{"seq":96,"id":"4835","name":"AV ITALIA esq. AV BOLIVIA","lat":-34.882455782801124,"lng":-56.08317891772805,"code":"4835"}],"1":[{"seq":1,"id":"4836","name":"AV DRA MA LUISA SALDUN DE RODRIGUEZ esq. AV BOLIVIA","lat":-34.88181683901149,"lng":-56.08330093239711,"code":"4836"},{"seq":2,"id":"2169","name":"AV ITALIA esq. JOSE ORDEIG","lat":-34.883221520673736,"lng":-56.087778186111414,"code":"2169"},{"seq":3,"id":"5275","name":"AV ITALIA esq. AV JOSE PEDRO DURANDEAU","lat":-34.883415463041736,"lng":-56.09060808933993,"code":"5275"},{"seq":4,"id":"2171","name":"AV ITALIA esq. ALBERTO ZUM FELDE","lat":-34.88484158660033,"lng":-56.0955265367968,"code":"2171"},{"seq":5,"id":"2940","name":"ALBERTO ZUM FELDE esq. MELCHORA CUENCA","lat":-34.88171630082268,"lng":-56.09792311045966,"code":"2940"},{"seq":6,"id":"2941","name":"ALBERTO ZUM FELDE esq. AGUSTIN PEDROZA","lat":-34.88064578376548,"lng":-56.09891610692579,"code":"2941"},{"seq":7,"id":"6780","name":"ALBERTO ZUM FELDE esq. CIRC INT 352","lat":-34.87941323020314,"lng":-56.09990822996615,"code":"6780"},{"seq":8,"id":"2942","name":"ALBERTO ZUM FELDE esq. PRUDENCIO MURGUIONDO","lat":-34.878292087612216,"lng":-56.10084832763216,"code":"2942"},{"seq":9,"id":"2943","name":"ALBERTO ZUM FELDE esq. OFICIAL 17 MTS","lat":-34.87623922529962,"lng":-56.10251542093559,"code":"2943"},{"seq":10,"id":"2944","name":"ALBERTO ZUM FELDE esq. FLAMMARION","lat":-34.874942531369754,"lng":-56.103575638593725,"code":"2944"},{"seq":11,"id":"2934","name":"FLAMMARION esq. DR ALEJANDRO GALLINAL","lat":-34.875848052962745,"lng":-56.10645503486834,"code":"2934"},{"seq":12,"id":"2924","name":"DR ALEJANDRO GALLINAL esq. IGUA","lat":-34.877563357349786,"lng":-56.10550785816907,"code":"2924"},{"seq":13,"id":"5053","name":"IGUA esq. CAP LUIS DUARTE","lat":-34.8795146467593,"lng":-56.10867816002687,"code":"5053"},{"seq":14,"id":"2905","name":"IGUA esq. HIPOLITO YRIGOYEN","lat":-34.88083967276558,"lng":-56.111245966841686,"code":"2905"},{"seq":15,"id":"2906","name":"IGUA esq. CIRC INT SIN DENOM","lat":-34.88121351007112,"lng":-56.113197602955715,"code":"2906"},{"seq":16,"id":"2907","name":"IGUA esq. CIRC INT CALLE 124","lat":-34.881600439069636,"lng":-56.115434456106335,"code":"2907"},{"seq":17,"id":"2908","name":"IGUA esq. CIRC INT SDA 5","lat":-34.88129912392139,"lng":-56.117385303960475,"code":"2908"},{"seq":18,"id":"2898","name":"MATAOJO esq. CALLE 5","lat":-34.87989082036807,"lng":-56.11868506086464,"code":"2898"},{"seq":19,"id":"2896","name":"MALLORCA esq. CIRC INT SIN DENOM","lat":-34.877381089238874,"lng":-56.11907924452451,"code":"2896"},{"seq":20,"id":"2894","name":"MALLORCA esq. PSJE 8575","lat":-34.87719370100497,"lng":-56.12046827912732,"code":"2894"},{"seq":21,"id":"2877","name":"MALLORCA esq. PSJE 8575","lat":-34.87693403892845,"lng":-56.121538739327114,"code":"2877"},{"seq":22,"id":"5998","name":"MALLORCA esq. PLAZUELA","lat":-34.876280575735564,"lng":-56.12499620720106,"code":"5998"},{"seq":23,"id":"2879","name":"ISLA DE GASPAR esq. ESPRONCEDA","lat":-34.8769163659393,"lng":-56.12675286271115,"code":"2879"},{"seq":24,"id":"2880","name":"ISLA DE GASPAR esq. MENORCA","lat":-34.878517280634064,"lng":-56.12722837078484,"code":"2880"},{"seq":25,"id":"5385","name":"ISLA DE GASPAR esq. MARGOT VERA","lat":-34.879750656205154,"lng":-56.12764054105695,"code":"5385"},{"seq":26,"id":"2881","name":"ISLA DE GASPAR esq. RBLA EUSKAL ERRIA","lat":-34.88170632965539,"lng":-56.128303710900184,"code":"2881"},{"seq":27,"id":"2882","name":"MINNESOTA esq. ALFONSO RODRIGUEZ CASTELAO","lat":-34.884222473116274,"lng":-56.128649820499085,"code":"2882"},{"seq":28,"id":"2883","name":"MINNESOTA esq. GAUNA","lat":-34.88550363302101,"lng":-56.12879785800297,"code":"2883"},{"seq":29,"id":"2184","name":"AV ITALIA esq. JUAN DE DIOS PEZA","lat":-34.886612247236286,"lng":-56.131286432195765,"code":"2184"},{"seq":30,"id":"2185","name":"AV ITALIA esq. IRLANDA","lat":-34.886497948374384,"lng":-56.13474639554748,"code":"2185"},{"seq":31,"id":"2186","name":"AV ITALIA esq. BV JOSE BATLLE Y ORDOÑEZ","lat":-34.886446123472496,"lng":-56.137008381137925,"code":"2186"},{"seq":32,"id":"3885","name":"AV ITALIA esq. MAGARIÑOS CERVANTES","lat":-34.886588049026415,"lng":-56.14189451152457,"code":"3885"},{"seq":33,"id":"2187","name":"AV ITALIA esq. DR FRANCISCO SIMON","lat":-34.887339342314,"lng":-56.14441757567315,"code":"2187"},{"seq":34,"id":"2188","name":"AV ITALIA esq. D AZEGLIO","lat":-34.88830329332302,"lng":-56.14685831081218,"code":"2188"},{"seq":35,"id":"2189","name":"AV ITALIA esq. DR JOSE BRITO FORESTI","lat":-34.89055701944952,"lng":-56.15308070601371,"code":"2189"},{"seq":36,"id":"2190","name":"AV ITALIA esq. AV GRAL GARIBALDI","lat":-34.891375984775415,"lng":-56.156400605315255,"code":"2190"},{"seq":37,"id":"2192","name":"AV ITALIA esq. PTE BERRO","lat":-34.89305511398237,"lng":-56.161115700561005,"code":"2192"},{"seq":38,"id":"2193","name":"DR SALVADOR FERRER SERRA esq. DR MARIO CASSINONI","lat":-34.89469988908137,"lng":-56.166124516204135,"code":"2193"},{"seq":39,"id":"6863","name":"JUAN PAULLIER esq. DANIEL MUÑOZ","lat":-34.89580254628916,"lng":-56.170030717292704,"code":"6863"},{"seq":40,"id":"6864","name":"JUAN PAULLIER esq. COLONIA","lat":-34.89786939201977,"lng":-56.16944847666639,"code":"6864"},{"seq":41,"id":"2195","name":"COLONIA esq. DR MARTIN C MARTINEZ","lat":-34.89891588739544,"lng":-56.17155212506326,"code":"2195"},{"seq":42,"id":"2196","name":"COLONIA esq. ARENAL GRANDE","lat":-34.8999155483483,"lng":-56.17410059981221,"code":"2196"},{"seq":43,"id":"3833","name":"AV DANIEL FERNANDEZ CRESPO esq. MERCEDES","lat":-34.9001595219286,"lng":-56.1758822099736,"code":"3833"},{"seq":44,"id":"3835","name":"AV DANIEL FERNANDEZ CRESPO esq. CERRO LARGO","lat":-34.897929834481225,"lng":-56.17866855247263,"code":"3835"},{"seq":45,"id":"3837","name":"AV DANIEL FERNANDEZ CRESPO esq. 9 DE ABRIL","lat":-34.89620202558087,"lng":-56.181072570439255,"code":"3837"},{"seq":46,"id":"3737","name":"AV DANIEL FERNANDEZ CRESPO esq. MADRID","lat":-34.89285967629195,"lng":-56.18488263071824,"code":"3737"},{"seq":47,"id":"2416","name":"AV DE LAS LEYES esq. AV GRAL FLORES","lat":-34.89033537847262,"lng":-56.18642190674068,"code":"2416"},{"seq":48,"id":"3727","name":"AV AGRACIADA esq. AV GRAL SAN MARTIN","lat":-34.888661609688796,"lng":-56.18844564283384,"code":"3727"},{"seq":49,"id":"3739","name":"AV AGRACIADA esq. GRAL FELIPE FRAGA","lat":-34.88731151317165,"lng":-56.1900833381548,"code":"3739"},{"seq":50,"id":"6426","name":"AV AGRACIADA esq. CUAREIM","lat":-34.886105744734266,"lng":-56.19180941262662,"code":"6426"},{"seq":51,"id":"3728","name":"AV AGRACIADA esq. AV GRAL RONDEAU","lat":-34.88424950782731,"lng":-56.19356482092001,"code":"3728"},{"seq":52,"id":"3729","name":"AV AGRACIADA esq. ENTRE RIOS","lat":-34.882623332363856,"lng":-56.1946583162895,"code":"3729"},{"seq":53,"id":"3730","name":"AV AGRACIADA esq. DR ALFREDO GARCIA MORALES","lat":-34.879981139842194,"lng":-56.19570891740889,"code":"3730"},{"seq":54,"id":"3742","name":"AV AGRACIADA esq. DR EVARISTO CIGANDA","lat":-34.87683511471819,"lng":-56.19744894546475,"code":"3742"},{"seq":55,"id":"3743","name":"AV AGRACIADA esq. GRITO DE ASENCIO","lat":-34.87583125336255,"lng":-56.19876564614716,"code":"3743"},{"seq":56,"id":"3745","name":"AV AGRACIADA esq. BV GRAL ARTIGAS","lat":-34.87265513115647,"lng":-56.20178849093739,"code":"3745"},{"seq":57,"id":"1576","name":"AV AGRACIADA esq. HERMANOS GIL","lat":-34.87025679763949,"lng":-56.20390121964999,"code":"1576"},{"seq":58,"id":"1577","name":"AV AGRACIADA esq. HERMANOS RUIZ","lat":-34.868515759258926,"lng":-56.20570363345551,"code":"1577"},{"seq":59,"id":"4211","name":"AV AGRACIADA esq. ENRIQUE TURINI","lat":-34.86631576339337,"lng":-56.20813824853131,"code":"4211"},{"seq":60,"id":"4255","name":"AV AGRACIADA esq. VALENTIN GOMEZ","lat":-34.86445664202587,"lng":-56.20980482290738,"code":"4255"},{"seq":61,"id":"1565","name":"AV AGRACIADA esq. INOCENCIO RAFFO ARROSA","lat":-34.86280913222565,"lng":-56.21122309756084,"code":"1565"},{"seq":62,"id":"1567","name":"AV AGRACIADA esq. JUAN ANTONIO ARTIGAS","lat":-34.85791889811781,"lng":-56.218021744301836,"code":"1567"},{"seq":63,"id":"1145","name":"AV AGRACIADA esq. JOSE B FREIRE","lat":-34.85623986691799,"lng":-56.220152389011396,"code":"1145"},{"seq":64,"id":"1211","name":"AV CARLOS MARIA RAMIREZ esq. BELVEDERE","lat":-34.85607891114537,"lng":-56.22381772616454,"code":"1211"},{"seq":65,"id":"1294","name":"AV CARLOS MARIA RAMIREZ esq. DR VICENTE BASAGOITY","lat":-34.857001151187035,"lng":-56.22503445911118,"code":"1294"},{"seq":66,"id":"1212","name":"AV CARLOS MARIA RAMIREZ esq. AV LUIS BATLLE BERRES","lat":-34.85857228213729,"lng":-56.22688201966486,"code":"1212"},{"seq":67,"id":"1296","name":"AV CARLOS MARIA RAMIREZ esq. GDOR DEL PINO","lat":-34.859608816976866,"lng":-56.22817992242334,"code":"1296"},{"seq":68,"id":"1297","name":"AV CARLOS MARIA RAMIREZ esq. VICENTE YAÑEZ PINZON","lat":-34.860952969129926,"lng":-56.22983384061402,"code":"1297"},{"seq":69,"id":"1298","name":"AV CARLOS MARIA RAMIREZ esq. REAL","lat":-34.8622567957358,"lng":-56.23143436639801,"code":"1298"},{"seq":70,"id":"1299","name":"AV CARLOS MARIA RAMIREZ esq. CARLOS TELLIER","lat":-34.863317620833946,"lng":-56.23275808452,"code":"1299"},{"seq":71,"id":"1300","name":"AV CARLOS MARIA RAMIREZ esq. PEDRO GIRALT","lat":-34.86473645088528,"lng":-56.234474969170115,"code":"1300"},{"seq":72,"id":"1301","name":"AV CARLOS MARIA RAMIREZ esq. RIVERA INDARTE","lat":-34.86616417237776,"lng":-56.236238305673275,"code":"1301"},{"seq":73,"id":"1302","name":"AV CARLOS MARIA RAMIREZ esq. HUMBOLDT","lat":-34.867442409823596,"lng":-56.23789195503056,"code":"1302"},{"seq":74,"id":"1303","name":"AV CARLOS MARIA RAMIREZ esq. CONCORDIA","lat":-34.86905451535009,"lng":-56.23988630121367,"code":"1303"},{"seq":75,"id":"4815","name":"AV CARLOS MARIA RAMIREZ esq. VIGO","lat":-34.873577827708786,"lng":-56.247690116750995,"code":"4815"},{"seq":76,"id":"4925","name":"DR PEDRO CASTELLINO esq. DR RAUL MORETTI","lat":-34.87323947810137,"lng":-56.249403424783246,"code":"4925"},{"seq":77,"id":"4777","name":"HAITI esq. AV DR SANTIN CARLOS ROSSI","lat":-34.872259159795625,"lng":-56.25249953361408,"code":"4777"},{"seq":78,"id":"1109","name":"AV DR SANTIN CARLOS ROSSI esq. AV CARLOS MARIA RAMIREZ","lat":-34.87411525166118,"lng":-56.252674904759814,"code":"1109"},{"seq":79,"id":"1142","name":"BOGOTA esq. JAPON","lat":-34.87533184293842,"lng":-56.25446933792364,"code":"1142"},{"seq":80,"id":"1141","name":"BOGOTA esq. BERNA","lat":-34.877144766714025,"lng":-56.25408193082731,"code":"1141"},{"seq":81,"id":"3898","name":"BOGOTA esq. PERU","lat":-34.87884827799077,"lng":-56.25373904966049,"code":"3898"},{"seq":82,"id":"1222","name":"BOGOTA esq. CHINA","lat":-34.88059498528243,"lng":-56.2533899149423,"code":"1222"},{"seq":83,"id":"1223","name":"BOGOTA esq. SUECIA","lat":-34.88244196931878,"lng":-56.253000789620515,"code":"1223"},{"seq":84,"id":"1224","name":"BOGOTA esq. CHARCAS","lat":-34.884264395695276,"lng":-56.252649920866524,"code":"1224"},{"seq":85,"id":"1225","name":"BOGOTA esq. ECUADOR","lat":-34.88606416252092,"lng":-56.25230898903259,"code":"1225"},{"seq":86,"id":"1226","name":"BOGOTA esq. JUAN B VIACABA","lat":-34.88785094017187,"lng":-56.25197038544019,"code":"1226"},{"seq":87,"id":"1227","name":"BOGOTA esq. CENTRO AMERICA","lat":-34.88948527254472,"lng":-56.25158386663608,"code":"1227"},{"seq":88,"id":"1228","name":"BOGOTA esq. FRANCIA","lat":-34.89133739097636,"lng":-56.25121653326162,"code":"1228"},{"seq":89,"id":"6841","name":"CHILE esq. INGLATERRA","lat":-34.89283873825861,"lng":-56.24871940823409,"code":"6841"},{"seq":90,"id":"1120","name":"INGLATERRA esq. BOGOTA","lat":-34.89321395647309,"lng":-56.25063461839363,"code":"1120"},{"seq":91,"id":"1121","name":"INGLATERRA esq. RIO DE JANEIRO","lat":-34.89341842607811,"lng":-56.25221088838629,"code":"1121"},{"seq":92,"id":"1122","name":"VIZCAYA esq. SUIZA","lat":-34.895162815043676,"lng":-56.252660048617244,"code":"1122"},{"seq":93,"id":"5510","name":"AV DR MARTIN IGNACIO HARRETCHE esq. RBLA JOSE GURVICH","lat":-34.90110123159019,"lng":-56.26117509355766,"code":"5510"},{"seq":94,"id":"5511","name":"AV DR MARTIN IGNACIO HARRETCHE esq. CALLE FICTICIA","lat":-34.903895761997674,"lng":-56.259823822920254,"code":"5511"}]}