{"0":[{"seq":1,"id":"4399","name":"AV DE LAS INSTRUCCIONES esq. CNO PETIROSSI","lat":-34.80653814094471,"lng":-56.1622919164807,"code":"4399"},{"seq":2,"id":"1943","name":"AV DE LAS INSTRUCCIONES esq. FRANCISCO EDUARDO BONILLA","lat":-34.80858255475285,"lng":-56.16429323306628,"code":"1943"},{"seq":3,"id":"1944","name":"AV DE LAS INSTRUCCIONES esq. AV GRAL SAN MARTIN","lat":-34.81053645757825,"lng":-56.16625575816486,"code":"1944"},{"seq":4,"id":"1945","name":"AV DE LAS INSTRUCCIONES esq. AV GRAL SAN MARTIN","lat":-34.81203388169265,"lng":-56.16781352791586,"code":"1945"},{"seq":5,"id":"1946","name":"AV DE LAS INSTRUCCIONES esq. GRAL AV CESAREO L. BERISSO","lat":-34.81475328391009,"lng":-56.17056179092966,"code":"1946"},{"seq":6,"id":"1947","name":"AV DE LAS INSTRUCCIONES esq. LUIS MAZZEI","lat":-34.81663402405624,"lng":-56.17260578953998,"code":"1947"},{"seq":7,"id":"1948","name":"AV DE LAS INSTRUCCIONES esq. CNO COLMAN","lat":-34.81828166518802,"lng":-56.17432506551143,"code":"1948"},{"seq":8,"id":"6862","name":"AV DE LAS INSTRUCCIONES esq. CNO JOSE DURAN","lat":-34.81972693536825,"lng":-56.17557537036327,"code":"6862"},{"seq":9,"id":"1949","name":"AV DE LAS INSTRUCCIONES esq. CNO DOMINGO ARENA","lat":-34.82125012357361,"lng":-56.17737699678433,"code":"1949"},{"seq":10,"id":"1950","name":"AV DE LAS INSTRUCCIONES esq. CHICAGO","lat":-34.82254863864459,"lng":-56.17858737789186,"code":"1950"},{"seq":11,"id":"6424","name":"QUERETARO esq. ANTILLAS","lat":-34.825179094964774,"lng":-56.179627003305846,"code":"6424"},{"seq":12,"id":"2756","name":"LOS ANGELES esq. PSJE A (7887)","lat":-34.82394405344814,"lng":-56.17642203451574,"code":"2756"},{"seq":13,"id":"2757","name":"LOS ANGELES esq. PARAHIBA","lat":-34.82359686466611,"lng":-56.174328404015796,"code":"2757"},{"seq":14,"id":"2758","name":"LOS ANGELES esq. CAMPINAS","lat":-34.82322536103617,"lng":-56.17132839071964,"code":"2758"},{"seq":15,"id":"2752","name":"AV GRAL SAN MARTIN esq. CHICAGO","lat":-34.823210462622235,"lng":-56.16923260914366,"code":"2752"},{"seq":16,"id":"2760","name":"AV GRAL SAN MARTIN esq. CNO TTE RINALDI","lat":-34.826477998863446,"lng":-56.16849229121713,"code":"2760"},{"seq":17,"id":"2761","name":"AV GRAL SAN MARTIN esq. ORSINI BERTANI","lat":-34.82983859319878,"lng":-56.16807327966625,"code":"2761"},{"seq":18,"id":"1961","name":"ORSINI BERTANI esq. DR RICARDO MACKINNON","lat":-34.83005527314297,"lng":-56.170070835269215,"code":"1961"},{"seq":19,"id":"2762","name":"ORSINI BERTANI esq. DR JOSE MARTIRENE","lat":-34.8303448152427,"lng":-56.17362099807974,"code":"2762"},{"seq":20,"id":"6554","name":"DR VICTOR ESCARDO Y ANAYA esq. DR JUSTO MONTES PAREJA","lat":-34.830052423554854,"lng":-56.17712253375712,"code":"6554"},{"seq":21,"id":"6555","name":"DR JUSTO MONTES PAREJA esq. DR BENIGNO VARELA FUENTES","lat":-34.83241938790118,"lng":-56.177379730656966,"code":"6555"},{"seq":22,"id":"6559","name":"DR ISIDRO MAS DE AYALA esq. DR JOSE MARTIRENE","lat":-34.832712215087845,"lng":-56.17443106300453,"code":"6559"},{"seq":23,"id":"1959","name":"PSJE SDA 8 esq. AV GUSTAVO A VOLPE","lat":-34.83502364401023,"lng":-56.17437075902026,"code":"1959"},{"seq":24,"id":"4832","name":"CIRC INT SIN DENOM esq. PSJE SDA 8","lat":-34.835546909302195,"lng":-56.17346438486217,"code":"4832"},{"seq":25,"id":"1971","name":"BV APARICIO SARAVIA esq. AV BURGUES","lat":-34.8357864057554,"lng":-56.170624541926664,"code":"1971"},{"seq":26,"id":"1972","name":"BV APARICIO SARAVIA esq. AV GRAL SAN MARTIN","lat":-34.83557976210522,"lng":-56.168616438666014,"code":"1972"},{"seq":27,"id":"2769","name":"AV GRAL SAN MARTIN esq. GILBERTO BELLINI","lat":-34.83863968484034,"lng":-56.168333872888184,"code":"2769"},{"seq":28,"id":"2770","name":"AV GRAL SAN MARTIN esq. JULIO E SUAREZ (PELODURO)","lat":-34.8408591787542,"lng":-56.16890782573979,"code":"2770"},{"seq":29,"id":"5388","name":"AV GRAL SAN MARTIN esq. PURACE","lat":-34.842797514781346,"lng":-56.169454239333525,"code":"5388"},{"seq":30,"id":"6150","name":"RANCAGUA esq. SANTIAGO FIGUEREDO","lat":-34.843076201281946,"lng":-56.170452110746226,"code":"6150"},{"seq":31,"id":"2772","name":"RANCAGUA esq. AV BURGUES","lat":-34.84267611971618,"lng":-56.17247242480216,"code":"2772"},{"seq":32,"id":"3716","name":"AV BURGUES esq. CAYAMBE","lat":-34.844947788834446,"lng":-56.17433823952763,"code":"3716"},{"seq":33,"id":"3717","name":"AV BURGUES esq. CNO CHIMBORAZO","lat":-34.84608254981438,"lng":-56.17524702976443,"code":"3717"},{"seq":34,"id":"3718","name":"AV BURGUES esq. HUM","lat":-34.847469033658065,"lng":-56.17611860819099,"code":"3718"},{"seq":35,"id":"2744","name":"HUM esq. SANTIAGO FIGUEREDO","lat":-34.848585870330496,"lng":-56.172561138337876,"code":"2744"},{"seq":36,"id":"2745","name":"HUM esq. AV GRAL SAN MARTIN","lat":-34.84897506832358,"lng":-56.170781468681476,"code":"2745"},{"seq":37,"id":"2773","name":"AV GRAL SAN MARTIN esq. GUENOAS","lat":-34.850614767912795,"lng":-56.17083631421283,"code":"2773"},{"seq":38,"id":"2774","name":"AV GRAL SAN MARTIN esq. LEON PEREZ","lat":-34.853114787092096,"lng":-56.1721423772102,"code":"2774"},{"seq":39,"id":"2775","name":"AV GRAL SAN MARTIN esq. REPUBLICA DE CHIPRE","lat":-34.8558776160845,"lng":-56.17417513755955,"code":"2775"},{"seq":40,"id":"2776","name":"AV GRAL SAN MARTIN esq. JOSE REVUELTA","lat":-34.857383902865635,"lng":-56.17576692493725,"code":"2776"},{"seq":41,"id":"2777","name":"AV GRAL SAN MARTIN esq. JUAN JOSE QUESADA","lat":-34.860331362903814,"lng":-56.17766466086055,"code":"2777"},{"seq":42,"id":"2778","name":"AV GRAL SAN MARTIN esq. PESTALOZZI","lat":-34.86224756361521,"lng":-56.17875790681797,"code":"2778"},{"seq":43,"id":"2451","name":"AV GRAL SAN MARTIN esq. DR MAGESTED","lat":-34.86579957743972,"lng":-56.18029124461454,"code":"2451"},{"seq":44,"id":"2419","name":"AV GRAL SAN MARTIN esq. PBRO LORENZO FERNANDEZ","lat":-34.86820168874612,"lng":-56.18129424949264,"code":"2419"},{"seq":45,"id":"2420","name":"AV GRAL SAN MARTIN esq. CNEL ENRIQUE BRITO","lat":-34.87017483632989,"lng":-56.18210887980896,"code":"2420"},{"seq":46,"id":"2421","name":"AV GRAL SAN MARTIN esq. GRAL ENRIQUE MARTINEZ","lat":-34.87264886025465,"lng":-56.18303009834058,"code":"2421"},{"seq":47,"id":"2422","name":"AV GRAL SAN MARTIN esq. AV GRAL GARIBALDI","lat":-34.87388805737823,"lng":-56.184023307351204,"code":"2422"},{"seq":48,"id":"2423","name":"AV GRAL SAN MARTIN esq. VILARDEBO","lat":-34.87619115789834,"lng":-56.18563663573321,"code":"2423"},{"seq":49,"id":"2424","name":"AV GRAL SAN MARTIN esq. RIVADAVIA","lat":-34.87807747905353,"lng":-56.186377956275365,"code":"2424"},{"seq":50,"id":"2455","name":"AV GRAL SAN MARTIN esq. DR DOMINGO ARAMBURU","lat":-34.88063731085275,"lng":-56.186383507521576,"code":"2455"},{"seq":51,"id":"2456","name":"AV GRAL SAN MARTIN esq. CLEMENTE CESAR","lat":-34.883780719224504,"lng":-56.18686561578479,"code":"2456"},{"seq":52,"id":"4434","name":"AV GRAL SAN MARTIN esq. MARTIN GARCIA","lat":-34.88581418706864,"lng":-56.18766859856454,"code":"4434"},{"seq":53,"id":"3746","name":"AV AGRACIADA esq. GRAL CESAR DIAZ","lat":-34.88901705487735,"lng":-56.18829439130915,"code":"3746"},{"seq":54,"id":"3663","name":"AV DE LAS LEYES esq. GUATEMALA","lat":-34.891684021777536,"lng":-56.18872660096357,"code":"3663"},{"seq":55,"id":"3877","name":"MAGALLANES esq. LIMA","lat":-34.894156165683185,"lng":-56.18510033316632,"code":"3877"},{"seq":56,"id":"3878","name":"MAGALLANES esq. NUEVA YORK","lat":-34.89588333503353,"lng":-56.184078830408026,"code":"3878"},{"seq":57,"id":"3822","name":"MIGUELETE esq. AV DANIEL FERNANDEZ CRESPO","lat":-34.89594960179222,"lng":-56.181943538129026,"code":"3822"},{"seq":58,"id":"3830","name":"ARENAL GRANDE esq. LA PAZ","lat":-34.8960236277724,"lng":-56.179785201096344,"code":"3830"},{"seq":59,"id":"3831","name":"ARENAL GRANDE esq. CERRO LARGO","lat":-34.89705316339779,"lng":-56.1783211706736,"code":"3831"},{"seq":60,"id":"3832","name":"ARENAL GRANDE esq. AV URUGUAY","lat":-34.898473686360106,"lng":-56.176467221183195,"code":"3832"},{"seq":61,"id":"3847","name":"EDUARDO ACEVEDO esq. COLONIA","lat":-34.90073098721247,"lng":-56.177112820221765,"code":"3847"},{"seq":62,"id":"2198","name":"COLONIA esq. MAGALLANES","lat":-34.902260522284045,"lng":-56.17987378245108,"code":"2198"},{"seq":63,"id":"2200","name":"COLONIA esq. TACUAREMBO","lat":-34.90342874611128,"lng":-56.18282371771181,"code":"2200"},{"seq":64,"id":"2202","name":"COLONIA esq. AGRIM GERMAN BARBATO","lat":-34.904498609065925,"lng":-56.18594365239509,"code":"2202"},{"seq":65,"id":"2204","name":"COLONIA esq. CUAREIM","lat":-34.904771811609585,"lng":-56.189906518182035,"code":"2204"},{"seq":66,"id":"2206","name":"COLONIA esq. PARAGUAY","lat":-34.90496300643218,"lng":-56.19240399562715,"code":"2206"},{"seq":67,"id":"4001","name":"COLONIA esq. RIO BRANCO","lat":-34.90521035744197,"lng":-56.19576601395743,"code":"4001"},{"seq":68,"id":"4909","name":"AV URUGUAY esq. CONVENCION","lat":-34.90341932776122,"lng":-56.19707970448174,"code":"4909"},{"seq":69,"id":"4040","name":"AV URUGUAY esq. FLORIDA","lat":-34.90356323442288,"lng":-56.199201708016666,"code":"4040"},{"seq":70,"id":"4041","name":"JUNCAL esq. CERRITO","lat":-34.90405713088382,"lng":-56.20172418575614,"code":"4041"}],"1":[{"seq":1,"id":"4020","name":"JUNCAL esq. PIEDRAS","lat":-34.90259324845392,"lng":-56.202462812387665,"code":"4020"},{"seq":2,"id":"6884","name":"CERRO LARGO esq. FLORIDA","lat":-34.90220102147156,"lng":-56.200205541630595,"code":"6884"},{"seq":3,"id":"573","name":"FLORIDA esq. AV URUGUAY","lat":-34.90337911943784,"lng":-56.19962201898019,"code":"573"},{"seq":4,"id":"4549","name":"MERCEDES esq. RIO BRANCO","lat":-34.90439719259269,"lng":-56.196358022256135,"code":"4549"},{"seq":5,"id":"4023","name":"MERCEDES esq. PARAGUAY","lat":-34.904162748218404,"lng":-56.19293791477653,"code":"4023"},{"seq":6,"id":"4552","name":"MERCEDES esq. YI","lat":-34.903900820161134,"lng":-56.18955373699588,"code":"4552"},{"seq":7,"id":"4043","name":"MERCEDES esq. EJIDO","lat":-34.903756881307345,"lng":-56.18728509392396,"code":"4043"},{"seq":8,"id":"4550","name":"MERCEDES esq. VAZQUEZ","lat":-34.90320961240496,"lng":-56.18445196523541,"code":"4550"},{"seq":9,"id":"4027","name":"MERCEDES esq. CARLOS ROXLO","lat":-34.90248164510963,"lng":-56.182602541920396,"code":"4027"},{"seq":10,"id":"4547","name":"MERCEDES esq. GABOTO","lat":-34.90130205860922,"lng":-56.17968728139629,"code":"4547"},{"seq":11,"id":"4546","name":"MERCEDES esq. EDUARDO ACEVEDO","lat":-34.900517866007554,"lng":-56.17759738809082,"code":"4546"},{"seq":12,"id":"3834","name":"AV DANIEL FERNANDEZ CRESPO esq. AV URUGUAY","lat":-34.89929880015499,"lng":-56.17680259324791,"code":"3834"},{"seq":13,"id":"3836","name":"AV DANIEL FERNANDEZ CRESPO esq. LA PAZ","lat":-34.89691510862053,"lng":-56.18008238388338,"code":"3836"},{"seq":14,"id":"3838","name":"AV DANIEL FERNANDEZ CRESPO esq. LIMA","lat":-34.894232603971,"lng":-56.18373846355934,"code":"3838"},{"seq":15,"id":"3738","name":"AV DANIEL FERNANDEZ CRESPO esq. AV DE LAS LEYES","lat":-34.891868152767245,"lng":-56.18571213056046,"code":"3738"},{"seq":16,"id":"3666","name":"AV DE LAS LEYES esq. BATOVI","lat":-34.89010771130561,"lng":-56.18533826927376,"code":"3666"},{"seq":17,"id":"3667","name":"YATAY esq. MARCELINO SOSA","lat":-34.888660223354194,"lng":-56.18672574558212,"code":"3667"},{"seq":18,"id":"4433","name":"AV GRAL SAN MARTIN esq. MARTIN GARCIA","lat":-34.88634692195809,"lng":-56.18773340951671,"code":"4433"},{"seq":19,"id":"3988","name":"AV GRAL SAN MARTIN esq. DR JUAN J DE AMEZAGA","lat":-34.88462972069693,"lng":-56.186924835125126,"code":"3988"},{"seq":20,"id":"3989","name":"AV GRAL SAN MARTIN esq. DR DOMINGO ARAMBURU","lat":-34.88131757584907,"lng":-56.18621116533369,"code":"3989"},{"seq":21,"id":"3990","name":"AV GRAL SAN MARTIN esq. RIVADAVIA","lat":-34.87855803224238,"lng":-56.18621179849872,"code":"3990"},{"seq":22,"id":"3991","name":"AV GRAL SAN MARTIN esq. VILARDEBO","lat":-34.87658381666349,"lng":-56.185696008898205,"code":"3991"},{"seq":23,"id":"3992","name":"AV GRAL SAN MARTIN esq. AV GRAL GARIBALDI","lat":-34.874608200547506,"lng":-56.1843900596695,"code":"3992"},{"seq":24,"id":"3993","name":"AV GRAL SAN MARTIN esq. GRAL ENRIQUE MARTINEZ","lat":-34.87297853767634,"lng":-56.183066145121664,"code":"3993"},{"seq":25,"id":"3994","name":"AV GRAL SAN MARTIN esq. BV GRAL ARTIGAS","lat":-34.87123326228433,"lng":-56.18232730679974,"code":"3994"},{"seq":26,"id":"3995","name":"AV GRAL SAN MARTIN esq. PBRO LORENZO FERNANDEZ","lat":-34.86818769514059,"lng":-56.181148649991904,"code":"3995"},{"seq":27,"id":"3996","name":"AV GRAL SAN MARTIN esq. DR MAGESTED","lat":-34.86623188929206,"lng":-56.180354792029206,"code":"3996"},{"seq":28,"id":"2717","name":"AV GRAL SAN MARTIN esq. AV DR LUIS ALBERTO DE HERRERA","lat":-34.8632044603349,"lng":-56.17912676967871,"code":"2717"},{"seq":29,"id":"3909","name":"AV GRAL SAN MARTIN esq. JUAN JOSE QUESADA","lat":-34.86089336570418,"lng":-56.17784141147369,"code":"3909"},{"seq":30,"id":"3910","name":"AV GRAL SAN MARTIN esq. BV JOSE BATLLE Y ORDOÑEZ","lat":-34.85820846057214,"lng":-56.17628976049908,"code":"3910"},{"seq":31,"id":"2718","name":"AV GRAL SAN MARTIN esq. TOMAS GARCIA DE ZUÑIGA","lat":-34.85582167108123,"lng":-56.173910910454694,"code":"2718"},{"seq":32,"id":"2729","name":"AV GRAL SAN MARTIN esq. LEON PEREZ","lat":-34.853446397141504,"lng":-56.17228081271892,"code":"2729"},{"seq":33,"id":"2730","name":"AV GRAL SAN MARTIN esq. GUENOAS","lat":-34.85093470670508,"lng":-56.17085714951776,"code":"2730"},{"seq":34,"id":"2741","name":"CNO CHIMBORAZO esq. JUAN ARTEAGA","lat":-34.8482118461361,"lng":-56.16935896203241,"code":"2741"},{"seq":35,"id":"2742","name":"CNO CHIMBORAZO esq. SANTIAGO FIGUEREDO","lat":-34.847620335000414,"lng":-56.17168325842712,"code":"2742"},{"seq":36,"id":"2743","name":"CNO CHIMBORAZO esq. AV BURGUES","lat":-34.8466924133417,"lng":-56.17492243843516,"code":"2743"},{"seq":37,"id":"3715","name":"RANCAGUA esq. LANCASTER","lat":-34.84291594070351,"lng":-56.1719715012444,"code":"3715"},{"seq":38,"id":"4595","name":"RANCAGUA esq. AV GRAL SAN MARTIN","lat":-34.84336654297966,"lng":-56.16966991828937,"code":"4595"},{"seq":39,"id":"2746","name":"AV GRAL SAN MARTIN esq. GILBERTO BELLINI","lat":-34.839072444693095,"lng":-56.16826844962435,"code":"2746"},{"seq":40,"id":"2747","name":"AV GRAL SAN MARTIN esq. BV APARICIO SARAVIA","lat":-34.83561867387342,"lng":-56.16828851109417,"code":"2747"},{"seq":41,"id":"1969","name":"BV APARICIO SARAVIA esq. AV BURGUES","lat":-34.83563501259185,"lng":-56.17019058285672,"code":"1969"},{"seq":42,"id":"4752","name":"PSJE 322 esq. AV GUSTAVO A VOLPE","lat":-34.83509056961072,"lng":-56.17247188040486,"code":"4752"},{"seq":43,"id":"6616","name":"PSJE 322 esq. CNO GRAL LEANDRO GOMEZ","lat":-34.83350500504713,"lng":-56.17267624130423,"code":"6616"},{"seq":44,"id":"2764","name":"DR JOSE MARTIRENE esq. DR ISIDRO MAS DE AYALA","lat":-34.83275139991902,"lng":-56.17371882225941,"code":"2764"},{"seq":45,"id":"6556","name":"DR ISIDRO MAS DE AYALA esq. DR BENIGNO VARELA FUENTES","lat":-34.83267428240532,"lng":-56.17637627184021,"code":"6556"},{"seq":46,"id":"6557","name":"DR JUSTO MONTES PAREJA esq. DR VICTOR ESCARDO Y ANAYA","lat":-34.83057773841024,"lng":-56.1774102534187,"code":"6557"},{"seq":47,"id":"6558","name":"PROF DR ENRIQUE CLAVEAUX esq. DR JOSE MARTIRENE","lat":-34.83011589058572,"lng":-56.174235420938984,"code":"6558"},{"seq":48,"id":"1960","name":"ORSINI BERTANI esq. DR RICARDO MACKINNON","lat":-34.83016243733811,"lng":-56.17051568903037,"code":"1960"},{"seq":49,"id":"2766","name":"ORSINI BERTANI esq. AV GRAL SAN MARTIN","lat":-34.830061380007145,"lng":-56.1687614897555,"code":"2766"},{"seq":50,"id":"2750","name":"AV GRAL SAN MARTIN esq. CNO TTE RINALDI","lat":-34.82714456942707,"lng":-56.16822375003077,"code":"2750"},{"seq":51,"id":"2751","name":"AV GRAL SAN MARTIN esq. CNO CAP MATEO TULA DUFORT","lat":-34.82408024069516,"lng":-56.168725286363724,"code":"2751"},{"seq":52,"id":"2759","name":"ANTILLAS esq. CAMPINAS","lat":-34.82392689966855,"lng":-56.17060796599089,"code":"2759"},{"seq":53,"id":"2753","name":"ANTILLAS esq. PARAHIBA","lat":-34.824289735499924,"lng":-56.17309134053356,"code":"2753"},{"seq":54,"id":"2754","name":"ANTILLAS esq. CURITIBA","lat":-34.82481914067583,"lng":-56.1756800924787,"code":"2754"},{"seq":55,"id":"4269","name":"ANTILLAS esq. PSJE 5","lat":-34.825336309891966,"lng":-56.18069023180711,"code":"4269"},{"seq":56,"id":"1851","name":"AV DE LAS INSTRUCCIONES esq. CHICAGO","lat":-34.822819819388705,"lng":-56.178526566610294,"code":"1851"},{"seq":57,"id":"1852","name":"AV DE LAS INSTRUCCIONES esq. CNO DOMINGO ARENA","lat":-34.82115831524187,"lng":-56.17694140518576,"code":"1852"},{"seq":58,"id":"6861","name":"AV DE LAS INSTRUCCIONES esq. PSJE F (8026)","lat":-34.81990306912177,"lng":-56.17557198489132,"code":"6861"},{"seq":59,"id":"1853","name":"AV DE LAS INSTRUCCIONES esq. CNO COLMAN","lat":-34.8189335691953,"lng":-56.17466863075495,"code":"1853"},{"seq":60,"id":"1854","name":"AV DE LAS INSTRUCCIONES esq. LUIS MAZZEI","lat":-34.816807974967816,"lng":-56.172558790153516,"code":"1854"},{"seq":61,"id":"1855","name":"AV DE LAS INSTRUCCIONES esq. GRAL AV CESAREO L. BERISSO","lat":-34.81482296424313,"lng":-56.170527309226635,"code":"1855"},{"seq":62,"id":"4352","name":"AV DE LAS INSTRUCCIONES esq. MARIO GARCIA CAMES","lat":-34.81266206344748,"lng":-56.16822560990642,"code":"4352"},{"seq":63,"id":"1856","name":"AV DE LAS INSTRUCCIONES esq. AV GRAL SAN MARTIN","lat":-34.810863942844655,"lng":-56.16646206741204,"code":"1856"},{"seq":64,"id":"1857","name":"AV DE LAS INSTRUCCIONES esq. CNO CARLOS A LOPEZ","lat":-34.80903813016106,"lng":-56.16462230455201,"code":"1857"},{"seq":65,"id":"1858","name":"AV DE LAS INSTRUCCIONES esq. CNO PETIROSSI","lat":-34.806752935165726,"lng":-56.162279496307896,"code":"1858"}]}