{"0":[{"seq":1,"id":"3530","name":"COMERCIO esq. AV 8 DE OCTUBRE","lat":-34.876247853851666,"lng":-56.14306830451114,"code":"3530"},{"seq":2,"id":"3193","name":"AV 8 DE OCTUBRE esq. GDOR VIANA","lat":-34.875793881794834,"lng":-56.1417195784628,"code":"3193"},{"seq":3,"id":"3195","name":"AV 8 DE OCTUBRE esq. CIPRIANO MIRO","lat":-34.87473276988258,"lng":-56.1398673156561,"code":"3195"},{"seq":4,"id":"6866","name":"LARRAVIDE esq. JOSE ANTONIO CABRERA","lat":-34.87503620455127,"lng":-56.13791618339342,"code":"6866"},{"seq":5,"id":"6868","name":"LARRAVIDE esq. DR JUAN B MORELLI","lat":-34.876230722673924,"lng":-56.13646130032825,"code":"6868"},{"seq":6,"id":"6869","name":"LARRAVIDE esq. VICTOR ARREGUINE","lat":-34.877681247453786,"lng":-56.13470345723941,"code":"6869"},{"seq":7,"id":"6870","name":"LARRAVIDE esq. MATEO CABRAL","lat":-34.879731420996485,"lng":-56.132560687141684,"code":"6870"},{"seq":8,"id":"6871","name":"LARRAVIDE esq. MIGUEL ANGEL","lat":-34.88173344526526,"lng":-56.12962453930533,"code":"6871"},{"seq":9,"id":"2882","name":"MINNESOTA esq. ALFONSO RODRIGUEZ CASTELAO","lat":-34.884222473116274,"lng":-56.128649820499085,"code":"2882"},{"seq":10,"id":"2883","name":"MINNESOTA esq. GAUNA","lat":-34.88550363302101,"lng":-56.12879785800297,"code":"2883"},{"seq":11,"id":"6423","name":"AV MCAL FRANCISCO SOLANO LOPEZ esq. BARROSO","lat":-34.88749110827124,"lng":-56.12930868183322,"code":"6423"},{"seq":12,"id":"3037","name":"AV MCAL FRANCISCO SOLANO LOPEZ esq. SOLFERINO","lat":-34.888261962774834,"lng":-56.12834013650585,"code":"3037"},{"seq":13,"id":"4860","name":"AV MCAL FRANCISCO SOLANO LOPEZ esq. HUMBERTO 1RO","lat":-34.889977563191174,"lng":-56.126929797521946,"code":"4860"},{"seq":14,"id":"3038","name":"AV MCAL FRANCISCO SOLANO LOPEZ esq. NANCY","lat":-34.89217377801673,"lng":-56.12512949439678,"code":"3038"},{"seq":15,"id":"3039","name":"AV MCAL FRANCISCO SOLANO LOPEZ esq. PEREZ GOMAR","lat":-34.893441109646126,"lng":-56.12396617914972,"code":"3039"},{"seq":16,"id":"3041","name":"AV MCAL FRANCISCO SOLANO LOPEZ esq. AV GRAL RIVERA","lat":-34.89568278093814,"lng":-56.12196245207587,"code":"3041"},{"seq":17,"id":"6860","name":"AV MCAL FRANCISCO SOLANO LOPEZ esq. MAHOMA","lat":-34.89732030457803,"lng":-56.12036372007921,"code":"6860"}],"1":[{"seq":1,"id":"3079","name":"JUAN M ESPINOSA esq. SDA SEND CONT DONIZETTI","lat":-34.89793195622614,"lng":-56.1207145143314,"code":"3079"},{"seq":2,"id":"3017","name":"AV MCAL FRANCISCO SOLANO LOPEZ esq. AV GRAL RIVERA","lat":-34.89603200384979,"lng":-56.12144730538142,"code":"3017"},{"seq":3,"id":"3019","name":"AV MCAL FRANCISCO SOLANO LOPEZ esq. PEREZ GOMAR","lat":-34.89379358484845,"lng":-56.123511073952436,"code":"3019"},{"seq":4,"id":"3020","name":"AV MCAL FRANCISCO SOLANO LOPEZ esq. NANCY","lat":-34.89242095307666,"lng":-56.12477326215911,"code":"3020"},{"seq":5,"id":"3021","name":"AV MCAL FRANCISCO SOLANO LOPEZ esq. MARCO AURELIO","lat":-34.89031950060884,"lng":-56.126546659345124,"code":"3021"},{"seq":6,"id":"3022","name":"AV MCAL FRANCISCO SOLANO LOPEZ esq. SOLFERINO","lat":-34.88850624791254,"lng":-56.12802734447884,"code":"3022"},{"seq":7,"id":"3023","name":"AV MCAL FRANCISCO SOLANO LOPEZ esq. AV ITALIA","lat":-34.8872389461918,"lng":-56.1295089743289,"code":"3023"},{"seq":8,"id":"2884","name":"MINNESOTA esq. LAMBARE","lat":-34.88614140624831,"lng":-56.128807382702966,"code":"2884"},{"seq":9,"id":"2885","name":"MINNESOTA esq. ALFONSO RODRIGUEZ CASTELAO","lat":-34.8846230797659,"lng":-56.128637416004125,"code":"2885"},{"seq":10,"id":"4564","name":"MINNESOTA esq. RBLA EUSKAL ERRIA","lat":-34.882688111804285,"lng":-56.12835105151496,"code":"4564"},{"seq":11,"id":"6879","name":"LARRAVIDE esq. PEDRO RICALDONI","lat":-34.8813966164177,"lng":-56.1298980608904,"code":"6879"},{"seq":12,"id":"6880","name":"LARRAVIDE esq. MATEO CABRAL","lat":-34.879939192279025,"lng":-56.13180952621053,"code":"6880"},{"seq":13,"id":"6877","name":"LARRAVIDE esq. MOLINOS DE LA UNION","lat":-34.87722413758054,"lng":-56.1348216513343,"code":"6877"},{"seq":14,"id":"6875","name":"LARRAVIDE esq. GRAL TIMOTEO APARICIO","lat":-34.87578337926905,"lng":-56.13661772478194,"code":"6875"},{"seq":15,"id":"6873","name":"LARRAVIDE esq. ASILO","lat":-34.87457883170129,"lng":-56.13812817854071,"code":"6873"},{"seq":16,"id":"3529","name":"JOANICO esq. ING JOSE SERRATO","lat":-34.87425680274534,"lng":-56.14121398644047,"code":"3529"},{"seq":17,"id":"3530","name":"COMERCIO esq. AV 8 DE OCTUBRE","lat":-34.876247853851666,"lng":-56.14306830451114,"code":"3530"}]}