{"0":[{"seq":1,"id":"6908","name":"LAS ACHIRAS esq. CLAVELES","lat":-34.89097672067817,"lng":-56.29426000981831,"code":"6908"},{"seq":2,"id":"1045","name":"LAS ACHIRAS esq. CNO SANTA CATALINA","lat":-34.890387283952386,"lng":-56.29259423108805,"code":"1045"},{"seq":3,"id":"1046","name":"CNO SANTA CATALINA esq. TAMBERA","lat":-34.88821091721396,"lng":-56.29283325451117,"code":"1046"},{"seq":4,"id":"4819","name":"CNO SANTA CATALINA esq. BURDEOS","lat":-34.886283637362915,"lng":-56.29317019587841,"code":"4819"},{"seq":5,"id":"1047","name":"BURDEOS esq. CNO DELLAZOPPA","lat":-34.885489677383,"lng":-56.289867192441,"code":"1047"},{"seq":6,"id":"1048","name":"BURDEOS esq. CARLOS PEDRELL","lat":-34.883569709861014,"lng":-56.28086229464672,"code":"1048"},{"seq":7,"id":"6831","name":"COSTANERA CASABO esq. JOSE CAÑA","lat":-34.884557603186636,"lng":-56.279497817176804,"code":"6831"},{"seq":8,"id":"6832","name":"COSTANERA CASABO esq. Nº 18 (CERVANTES)","lat":-34.88623924875077,"lng":-56.27868192758723,"code":"6832"},{"seq":9,"id":"6833","name":"COSTANERA CASABO esq. Nº 18 (CERVANTES)","lat":-34.888054953548384,"lng":-56.27898336346268,"code":"6833"},{"seq":10,"id":"4973","name":"ETIOPIA esq. UGANDA","lat":-34.88876107569125,"lng":-56.27692720871696,"code":"4973"},{"seq":11,"id":"4381","name":"ETIOPIA esq. MARRUECOS","lat":-34.888339406354866,"lng":-56.274218950820334,"code":"4381"},{"seq":12,"id":"4975","name":"ETIOPIA esq. CAMERUN","lat":-34.88786533370743,"lng":-56.270713016481444,"code":"4975"},{"seq":13,"id":"4972","name":"ETIOPIA esq. GUINEA","lat":-34.88752506720263,"lng":-56.26829777067404,"code":"4972"},{"seq":14,"id":"1245","name":"ETIOPIA esq. UCRANIA","lat":-34.887257092667696,"lng":-56.266691211514974,"code":"1245"},{"seq":15,"id":"1246","name":"UCRANIA esq. CONT RUSIA","lat":-34.88559066816778,"lng":-56.26668258898755,"code":"1246"},{"seq":16,"id":"1248","name":"BULGARIA esq. SUECIA","lat":-34.88437161831973,"lng":-56.263763137596676,"code":"1248"},{"seq":17,"id":"1257","name":"SUECIA esq. DINAMARCA","lat":-34.88383891799506,"lng":-56.261818925090544,"code":"1257"},{"seq":18,"id":"1259","name":"SUECIA esq. CUBA","lat":-34.88339306004938,"lng":-56.25855903831652,"code":"1259"},{"seq":19,"id":"7016","name":"CUBA esq. AV JOSE BATLLE Y ORDOÑEZ","lat":-34.8865702613958,"lng":-56.257844873393076,"code":"7016"},{"seq":20,"id":"7015","name":"AV JOSE BATLLE Y ORDOÑEZ esq. JUAN B VIACABA","lat":-34.88828702831226,"lng":-56.255577355806246,"code":"7015"},{"seq":21,"id":"7010","name":"JUAN B VIACABA esq. BOGOTA","lat":-34.88803346140277,"lng":-56.252030179370784,"code":"7010"},{"seq":22,"id":"7009","name":"JUAN B VIACABA esq. CHILE","lat":-34.88773761887852,"lng":-56.24987381566445,"code":"7009"},{"seq":23,"id":"1131","name":"GRECIA esq. PRUSIA","lat":-34.88673934179078,"lng":-56.24878731546661,"code":"1131"},{"seq":24,"id":"1132","name":"GRECIA esq. HOLANDA","lat":-34.88501549068064,"lng":-56.249125417137016,"code":"1132"},{"seq":25,"id":"1133","name":"GRECIA esq. RUSIA","lat":-34.88319370956854,"lng":-56.24950207552952,"code":"1133"},{"seq":26,"id":"7000","name":"SUECIA esq. EGIPTO","lat":-34.88201535592438,"lng":-56.247716333376694,"code":"7000"},{"seq":27,"id":"7017","name":"EGIPTO esq. BELGICA","lat":-34.87943476293891,"lng":-56.2479160784887,"code":"7017"},{"seq":28,"id":"1136","name":"GRECIA esq. BURDEOS","lat":-34.87809569383029,"lng":-56.25049481234234,"code":"1136"},{"seq":29,"id":"1137","name":"GRECIA esq. ESTADOS UNIDOS","lat":-34.87609633790197,"lng":-56.250919573998736,"code":"1137"},{"seq":30,"id":"4775","name":"AV DR SANTIN CARLOS ROSSI esq. DR PEDRO CASTELLINO","lat":-34.87366351246541,"lng":-56.25252419496949,"code":"4775"},{"seq":31,"id":"4925","name":"DR PEDRO CASTELLINO esq. DR RAUL MORETTI","lat":-34.87323947810137,"lng":-56.249403424783246,"code":"4925"}],"1":[{"seq":1,"id":"4925","name":"DR PEDRO CASTELLINO esq. DR RAUL MORETTI","lat":-34.87323947810137,"lng":-56.249403424783246,"code":"4925"},{"seq":2,"id":"4793","name":"ESTADOS UNIDOS esq. GRECIA","lat":-34.87589452871279,"lng":-56.25078330965029,"code":"4793"},{"seq":3,"id":"1110","name":"GRECIA esq. BURDEOS","lat":-34.87759619862936,"lng":-56.250690368506156,"code":"1110"},{"seq":4,"id":"7019","name":"EGIPTO esq. BELGICA","lat":-34.87959203150482,"lng":-56.248123512385284,"code":"7019"},{"seq":5,"id":"6999","name":"SUECIA esq. TURQUIA","lat":-34.88188734072246,"lng":-56.24843386668372,"code":"6999"},{"seq":6,"id":"1113","name":"GRECIA esq. RUSIA","lat":-34.882925716647286,"lng":-56.249613647241446,"code":"1113"},{"seq":7,"id":"1114","name":"GRECIA esq. HOLANDA","lat":-34.88466392354854,"lng":-56.24926896155259,"code":"1114"},{"seq":8,"id":"1115","name":"GRECIA esq. PRUSIA","lat":-34.8864768658185,"lng":-56.24889356099294,"code":"1115"},{"seq":9,"id":"7008","name":"JUAN B VIACABA esq. CHILE","lat":-34.88751320999832,"lng":-56.24957231685404,"code":"7008"},{"seq":10,"id":"7011","name":"JUAN B VIACABA esq. RIO DE JANEIRO","lat":-34.88796868174219,"lng":-56.252675381047375,"code":"7011"},{"seq":11,"id":"7014","name":"JUAN B VIACABA esq. POLONIA","lat":-34.8882420002932,"lng":-56.25481238135876,"code":"7014"},{"seq":12,"id":"7018","name":"AV JOSE BATLLE Y ORDOÑEZ esq. CUBA","lat":-34.8868528221469,"lng":-56.257628551975934,"code":"7018"},{"seq":13,"id":"7013","name":"CUBA esq. RUSIA","lat":-34.88444449296455,"lng":-56.258098974832414,"code":"7013"},{"seq":14,"id":"1232","name":"SUECIA esq. FILIPINAS","lat":-34.88343475591942,"lng":-56.259284369580485,"code":"1232"},{"seq":15,"id":"1233","name":"SUECIA esq. DINAMARCA","lat":-34.88374536583415,"lng":-56.26139512550669,"code":"1233"},{"seq":16,"id":"1235","name":"BULGARIA esq. RUSIA","lat":-34.88477210578384,"lng":-56.26371014901911,"code":"1235"},{"seq":17,"id":"5029","name":"CONT RUSIA esq. PSJE OMBU","lat":-34.88530579913672,"lng":-56.266231568445185,"code":"5029"},{"seq":18,"id":"1236","name":"UCRANIA esq. ETIOPIA","lat":-34.88700699042952,"lng":-56.266526283496724,"code":"1236"},{"seq":19,"id":"1237","name":"ETIOPIA esq. GUINEA","lat":-34.887424196144835,"lng":-56.26824969293666,"code":"1237"},{"seq":20,"id":"1243","name":"ETIOPIA esq. COSTA DE MARFIL","lat":-34.8878236107627,"lng":-56.270998020319055,"code":"1243"},{"seq":21,"id":"4976","name":"ETIOPIA esq. MARRUECOS","lat":-34.88821482456118,"lng":-56.273702058987276,"code":"4976"},{"seq":22,"id":"4660","name":"ETIOPIA esq. TANZANIA","lat":-34.88845546192972,"lng":-56.27565425219892,"code":"4660"},{"seq":23,"id":"6829","name":"COSTANERA CASABO esq. Nº 18 (CERVANTES)","lat":-34.88763318779921,"lng":-56.27875302874665,"code":"6829"},{"seq":24,"id":"6830","name":"COSTANERA CASABO esq. Nº 18 (CERVANTES)","lat":-34.88665698017149,"lng":-56.278496699535296,"code":"6830"},{"seq":25,"id":"6827","name":"COSTANERA CASABO esq. CONT RUSIA","lat":-34.88504925098799,"lng":-56.279411061424895,"code":"6827"},{"seq":26,"id":"1040","name":"BURDEOS esq. CARLOS PEDRELL","lat":-34.88336166531667,"lng":-56.280545883362734,"code":"1040"},{"seq":27,"id":"1041","name":"BURDEOS esq. CNO DELLAZOPPA","lat":-34.88538664827864,"lng":-56.28974101389543,"code":"1041"},{"seq":28,"id":"4277","name":"BURDEOS esq. CNO SANTA CATALINA","lat":-34.885819234488956,"lng":-56.293171042211505,"code":"4277"},{"seq":29,"id":"1042","name":"CNO SANTA CATALINA esq. TAMBERA","lat":-34.88822897980023,"lng":-56.292861916926164,"code":"1042"},{"seq":30,"id":"1043","name":"CNO SANTA CATALINA esq. LAS ACHIRAS","lat":-34.890167930085255,"lng":-56.292484848622436,"code":"1043"},{"seq":31,"id":"1044","name":"LAS ACHIRAS esq. LAS ROSAS","lat":-34.89106813395031,"lng":-56.29423236653821,"code":"1044"}]}