{"0":[{"seq":1,"id":"4217","name":"CNO PASO DE LA ESPAÑOLA esq. CNO AL PASO DEL ANDALUZ","lat":-34.794800852908445,"lng":-56.11801064030957,"code":"4217"},{"seq":2,"id":"2385","name":"CNO PASO DE LA ESPAÑOLA esq. CNO AL PASO DEL ANDALUZ","lat":-34.795719252894116,"lng":-56.11864866281996,"code":"2385"},{"seq":3,"id":"5133","name":"CNO PASO DE LA ESPAÑOLA esq. CNO EL AGUILA","lat":-34.79771182546135,"lng":-56.11960899488873,"code":"5133"},{"seq":4,"id":"2386","name":"CNO PASO DE LA ESPAÑOLA esq. WENCESLAO VARELA","lat":-34.800281717762154,"lng":-56.12280977144289,"code":"2386"},{"seq":5,"id":"2387","name":"CNO PASO DE LA ESPAÑOLA esq. TOLON","lat":-34.801271733685496,"lng":-56.12484651011175,"code":"2387"},{"seq":6,"id":"2388","name":"CNO PASO DE LA ESPAÑOLA esq. CNO CARLOS A LOPEZ","lat":-34.80367139411344,"lng":-56.127176708495,"code":"2388"},{"seq":7,"id":"4216","name":"CNO PASO DE LA ESPAÑOLA esq. AV DE LA ALJABA","lat":-34.80598301687422,"lng":-56.12873512577884,"code":"4216"},{"seq":8,"id":"6003","name":"AV DE LA ALJABA esq. LAS PETUNIAS","lat":-34.80630971892557,"lng":-56.13053604048417,"code":"6003"},{"seq":9,"id":"2379","name":"AV DE LA ALJABA esq. CAOBA","lat":-34.806572536824625,"lng":-56.13253131751892,"code":"2379"},{"seq":10,"id":"2390","name":"AV DE LA ALJABA esq. ANACAHUITA","lat":-34.806912564995,"lng":-56.13449789553642,"code":"2390"},{"seq":11,"id":"2392","name":"AV DE LA ALJABA esq. AV JOSE BELLONI","lat":-34.807238338132535,"lng":-56.13679470217105,"code":"2392"},{"seq":12,"id":"2296","name":"AV JOSE BELLONI esq. CNO CAP CORALIO C LACOSTA","lat":-34.81043570944888,"lng":-56.13799561385473,"code":"2296"},{"seq":13,"id":"2298","name":"AV JOSE BELLONI esq. PREVISION","lat":-34.81360079559512,"lng":-56.13862390534617,"code":"2298"},{"seq":14,"id":"2299","name":"AV JOSE BELLONI esq. CNO DOMINGO ARENA","lat":-34.81669095217433,"lng":-56.13926673681812,"code":"2299"},{"seq":15,"id":"2300","name":"AV JOSE BELLONI esq. DR BARTOLOME VIGNALE","lat":-34.81897527767823,"lng":-56.13975065937572,"code":"2300"},{"seq":16,"id":"2302","name":"AV JOSE BELLONI esq. CNO CAP MATEO TULA DUFORT","lat":-34.82195054575625,"lng":-56.14039884521282,"code":"2302"},{"seq":17,"id":"2303","name":"AV JOSE BELLONI esq. CNO TTE RINALDI","lat":-34.82405407790142,"lng":-56.14076938181179,"code":"2303"},{"seq":18,"id":"2304","name":"AV JOSE BELLONI esq. DUNANT","lat":-34.82604282280419,"lng":-56.141106619289744,"code":"2304"},{"seq":19,"id":"2305","name":"AV JOSE BELLONI esq. JORGE PACHECO","lat":-34.827962434293404,"lng":-56.14118075736272,"code":"2305"},{"seq":20,"id":"2400","name":"AV GRAL FLORES esq. MARATON","lat":-34.83102880275164,"lng":-56.14302858248595,"code":"2400"},{"seq":21,"id":"2401","name":"AV GRAL FLORES esq. BV APARICIO SARAVIA","lat":-34.83279618031779,"lng":-56.14445513369204,"code":"2401"},{"seq":22,"id":"2402","name":"AV GRAL FLORES esq. JORGE ISAAC","lat":-34.83555254215023,"lng":-56.14672200185287,"code":"2402"},{"seq":23,"id":"2324","name":"AV GRAL FLORES esq. JOSE MARIA GUERRA","lat":-34.8395360322977,"lng":-56.14985294111701,"code":"2324"},{"seq":24,"id":"2326","name":"AV GRAL FLORES esq. SALUSTIO","lat":-34.84232481264851,"lng":-56.15210060370406,"code":"2326"},{"seq":25,"id":"2327","name":"AV GRAL FLORES esq. CARRERAS NACIONALES","lat":-34.84469690053838,"lng":-56.154088741821305,"code":"2327"},{"seq":26,"id":"2328","name":"AV GRAL FLORES esq. CNO CORRALES","lat":-34.846696516791106,"lng":-56.1558156171599,"code":"2328"},{"seq":27,"id":"2330","name":"AV GRAL FLORES esq. CNO CHIMBORAZO","lat":-34.85091327074717,"lng":-56.159227116131525,"code":"2330"},{"seq":28,"id":"2332","name":"AV GRAL FLORES esq. SANTA ANA","lat":-34.85431974415767,"lng":-56.162014711556516,"code":"2332"},{"seq":29,"id":"2333","name":"AV GRAL FLORES esq. SANTIAGO SIERRA","lat":-34.85637258614798,"lng":-56.16367909092264,"code":"2333"},{"seq":30,"id":"2334","name":"AV GRAL FLORES esq. BRUNO MENDEZ","lat":-34.85879688746252,"lng":-56.165669490504065,"code":"2334"},{"seq":31,"id":"2336","name":"AV GRAL FLORES esq. TTE CNEL EUCLIDES A SALARI","lat":-34.86159149400642,"lng":-56.16805566645044,"code":"2336"},{"seq":32,"id":"2337","name":"AV GRAL FLORES esq. JUAN JOSE QUESADA","lat":-34.8642964411804,"lng":-56.17000264425073,"code":"2337"},{"seq":33,"id":"2338","name":"AV GRAL FLORES esq. AV DR LUIS ALBERTO DE HERRERA","lat":-34.86642144328571,"lng":-56.17156424399839,"code":"2338"},{"seq":34,"id":"2339","name":"AV GRAL FLORES esq. BV GRAL ARTIGAS","lat":-34.86989164186756,"lng":-56.174290193732794,"code":"2339"},{"seq":35,"id":"2405","name":"AV GRAL FLORES esq. DR GUSTAVO GALLINAL","lat":-34.87323609426791,"lng":-56.17702572474213,"code":"2405"},{"seq":36,"id":"2406","name":"AV GRAL FLORES esq. AV GRAL GARIBALDI","lat":-34.8762621300722,"lng":-56.17952875533382,"code":"2406"},{"seq":37,"id":"2407","name":"AV GRAL FLORES esq. RIVADAVIA","lat":-34.879741223771596,"lng":-56.18132467928347,"code":"2407"},{"seq":38,"id":"2409","name":"AV GRAL FLORES esq. DR DOMINGO ARAMBURU","lat":-34.882097445944304,"lng":-56.182527043617185,"code":"2409"},{"seq":39,"id":"2410","name":"AV GRAL FLORES esq. LIBRES","lat":-34.88487244289756,"lng":-56.184053436627096,"code":"2410"},{"seq":40,"id":"2411","name":"AV GRAL FLORES esq. ISIDORO DE MARIA","lat":-34.88761844528185,"lng":-56.18559381557445,"code":"2411"},{"seq":41,"id":"2412","name":"AV GRAL FLORES esq. YATAY","lat":-34.88947043064534,"lng":-56.186654173070266,"code":"2412"},{"seq":42,"id":"3663","name":"AV DE LAS LEYES esq. GUATEMALA","lat":-34.891684021777536,"lng":-56.18872660096357,"code":"3663"},{"seq":43,"id":"3877","name":"MAGALLANES esq. LIMA","lat":-34.894156165683185,"lng":-56.18510033316632,"code":"3877"},{"seq":44,"id":"3878","name":"MAGALLANES esq. NUEVA YORK","lat":-34.89588333503353,"lng":-56.184078830408026,"code":"3878"},{"seq":45,"id":"3822","name":"MIGUELETE esq. AV DANIEL FERNANDEZ CRESPO","lat":-34.89594960179222,"lng":-56.181943538129026,"code":"3822"},{"seq":46,"id":"3830","name":"ARENAL GRANDE esq. LA PAZ","lat":-34.8960236277724,"lng":-56.179785201096344,"code":"3830"},{"seq":47,"id":"3831","name":"ARENAL GRANDE esq. CERRO LARGO","lat":-34.89705316339779,"lng":-56.1783211706736,"code":"3831"},{"seq":48,"id":"3832","name":"ARENAL GRANDE esq. AV URUGUAY","lat":-34.898473686360106,"lng":-56.176467221183195,"code":"3832"},{"seq":49,"id":"3847","name":"EDUARDO ACEVEDO esq. COLONIA","lat":-34.90073098721247,"lng":-56.177112820221765,"code":"3847"},{"seq":50,"id":"4331","name":"COLONIA esq. GABOTO","lat":-34.90189014599346,"lng":-56.178897052897796,"code":"4331"},{"seq":51,"id":"2199","name":"COLONIA esq. CARLOS ROXLO","lat":-34.90303117758773,"lng":-56.18177537001245,"code":"2199"},{"seq":52,"id":"2201","name":"COLONIA esq. DR JAVIER BARRIOS AMORIN","lat":-34.904423418127905,"lng":-56.185117734472904,"code":"2201"},{"seq":53,"id":"2203","name":"COLONIA esq. YAGUARON","lat":-34.90462703626883,"lng":-56.18782166357053,"code":"2203"},{"seq":54,"id":"2205","name":"COLONIA esq. AV GRAL RONDEAU","lat":-34.904869339492606,"lng":-56.191211346558916,"code":"2205"},{"seq":55,"id":"4332","name":"COLONIA esq. JULIO HERRERA Y OBES","lat":-34.9051166197906,"lng":-56.19465980640173,"code":"4332"},{"seq":56,"id":"4599","name":"RIO BRANCO esq. MERCEDES","lat":-34.90455484035101,"lng":-56.19594030745891,"code":"4599"},{"seq":57,"id":"4040","name":"AV URUGUAY esq. FLORIDA","lat":-34.90356323442288,"lng":-56.199201708016666,"code":"4040"},{"seq":58,"id":"6987","name":"25 DE MAYO esq. JUNCAL","lat":-34.904319303555496,"lng":-56.20136421430059,"code":"6987"},{"seq":59,"id":"4763","name":"CERRITO esq. BARTOLOME MITRE","lat":-34.90400477623158,"lng":-56.203070088466596,"code":"4763"},{"seq":60,"id":"4764","name":"CERRITO esq. TREINTA Y TRES","lat":-34.904920052752594,"lng":-56.20578257890794,"code":"4764"},{"seq":61,"id":"4765","name":"CERRITO esq. ZABALA","lat":-34.90561830689571,"lng":-56.207879137519804,"code":"4765"},{"seq":62,"id":"4773","name":"CERRITO esq. PEREZ CASTELLANO","lat":-34.906624007542774,"lng":-56.21085086685308,"code":"4773"},{"seq":63,"id":"4774","name":"CERRITO esq. JUAN LINDOLFO CUESTAS","lat":-34.90753583985315,"lng":-56.2136045742601,"code":"4774"}],"1":[{"seq":1,"id":"2221","name":"AV GRAL FLORES esq. TTE CNEL EUCLIDES A SALARI","lat":-34.861692115040086,"lng":-56.16775801273909,"code":"2221"},{"seq":2,"id":"2222","name":"AV GRAL FLORES esq. BRUNO MENDEZ","lat":-34.85822597809504,"lng":-56.1651067248271,"code":"2222"},{"seq":3,"id":"4833","name":"AV GRAL FLORES esq. NICOLAS HERRERA","lat":-34.85573865147361,"lng":-56.163042082231016,"code":"4833"},{"seq":4,"id":"2223","name":"AV GRAL FLORES esq. FRANCISCO DE LEMOS","lat":-34.85371947159624,"lng":-56.16134995682018,"code":"2223"},{"seq":5,"id":"2225","name":"AV GRAL FLORES esq. HONDURAS","lat":-34.85029263645495,"lng":-56.1585818863963,"code":"2225"},{"seq":6,"id":"2227","name":"AV GRAL FLORES esq. CNO CORRALES","lat":-34.84640663564851,"lng":-56.15539901497671,"code":"2227"},{"seq":7,"id":"2228","name":"AV GRAL FLORES esq. CARRERAS NACIONALES","lat":-34.84415356888751,"lng":-56.153474101732996,"code":"2228"},{"seq":8,"id":"2229","name":"AV GRAL FLORES esq. IBERIA","lat":-34.84167251540689,"lng":-56.151524901834286,"code":"2229"},{"seq":9,"id":"2231","name":"AV GRAL FLORES esq. JOSE MARIA GUERRA","lat":-34.83920795237964,"lng":-56.14952509288669,"code":"2231"},{"seq":10,"id":"5716","name":"AV GRAL FLORES esq. HUNGRIA","lat":-34.835002653350486,"lng":-56.14606064558329,"code":"5716"},{"seq":11,"id":"2234","name":"AV GRAL FLORES esq. BV APARICIO SARAVIA","lat":-34.83328513810791,"lng":-56.144541975661674,"code":"2234"},{"seq":12,"id":"2235","name":"AV GRAL FLORES esq. MARATON","lat":-34.83129540303491,"lng":-56.14290877327877,"code":"2235"},{"seq":13,"id":"2236","name":"AV GRAL FLORES esq. CABARI","lat":-34.82929762965644,"lng":-56.14127536968385,"code":"2236"},{"seq":14,"id":"2237","name":"AV JOSE BELLONI esq. CNO TTE GALEANO","lat":-34.82736102101628,"lng":-56.140813076098475,"code":"2237"},{"seq":15,"id":"2238","name":"AV JOSE BELLONI esq. CNO TTE RINALDI","lat":-34.82460829783531,"lng":-56.140641724765445,"code":"2238"},{"seq":16,"id":"2240","name":"AV JOSE BELLONI esq. MATILDE PACHECO DE BATLLE Y ORDOÑEZ","lat":-34.82208131983169,"lng":-56.14002806736636,"code":"2240"},{"seq":17,"id":"2241","name":"AV JOSE BELLONI esq. CLEMENTE RUGGIA","lat":-34.819614786499876,"lng":-56.13954950923659,"code":"2241"},{"seq":18,"id":"2242","name":"AV JOSE BELLONI esq. CNO REPETTO","lat":-34.81708321571878,"lng":-56.139128339588154,"code":"2242"},{"seq":19,"id":"2243","name":"AV JOSE BELLONI esq. PREVISION","lat":-34.81408072606001,"lng":-56.13850155983632,"code":"2243"},{"seq":20,"id":"2245","name":"AV JOSE BELLONI esq. CNO CAP CORALIO C LACOSTA","lat":-34.811493796175256,"lng":-56.13787644124638,"code":"2245"},{"seq":21,"id":"6075","name":"AV DE LA ALJABA esq. AV JOSE BELLONI","lat":-34.80730633418879,"lng":-56.136569598174894,"code":"6075"},{"seq":22,"id":"2391","name":"AV DE LA ALJABA esq. ANACAHUITA","lat":-34.807090923965305,"lng":-56.13526570776754,"code":"2391"},{"seq":23,"id":"2389","name":"AV DE LA ALJABA esq. ARAZA","lat":-34.8068084507062,"lng":-56.132828741106565,"code":"2389"},{"seq":24,"id":"2378","name":"AV DE LA ALJABA esq. CIPO","lat":-34.8065851550902,"lng":-56.130658537978306,"code":"2378"},{"seq":25,"id":"4350","name":"AV DE LA ALJABA esq. CNO PASO DE LA ESPAÑOLA","lat":-34.80631243879638,"lng":-56.12928066141133,"code":"4350"},{"seq":26,"id":"2380","name":"CNO PASO DE LA ESPAÑOLA esq. CNO CARLOS A LOPEZ","lat":-34.80434544038169,"lng":-56.127387389558656,"code":"2380"},{"seq":27,"id":"2381","name":"CNO PASO DE LA ESPAÑOLA esq. TOLON","lat":-34.801651579780994,"lng":-56.12522623743042,"code":"2381"},{"seq":28,"id":"2382","name":"CNO PASO DE LA ESPAÑOLA esq. ARGOS","lat":-34.80062020488519,"lng":-56.12312382458109,"code":"2382"},{"seq":29,"id":"2383","name":"CNO PASO DE LA ESPAÑOLA esq. CNO EL AGUILA","lat":-34.798103476850486,"lng":-56.11969690203945,"code":"2383"},{"seq":30,"id":"2384","name":"CNO PASO DE LA ESPAÑOLA esq. CNO AL PASO DEL ANDALUZ","lat":-34.79597599753547,"lng":-56.118604380686854,"code":"2384"},{"seq":31,"id":"4217","name":"CNO PASO DE LA ESPAÑOLA esq. CNO AL PASO DEL ANDALUZ","lat":-34.794800852908445,"lng":-56.11801064030957,"code":"4217"}]}