{"0":[{"seq":1,"id":"5697","name":"DR MARIO RINALDI GUERRA esq. CNO ARIEL","lat":-34.827375092915986,"lng":-56.22740418081917,"code":"5697"},{"seq":2,"id":"1399","name":"CNO ARIEL esq. CARAFI","lat":-34.82804031635562,"lng":-56.22610853692531,"code":"1399"},{"seq":3,"id":"1400","name":"CNO ARIEL esq. AV GRAL EUGENIO GARZON","lat":-34.83071049809981,"lng":-56.221553765323996,"code":"1400"},{"seq":4,"id":"1432","name":"CNO ARIEL esq. QUICUYO","lat":-34.8321962480248,"lng":-56.21902518500401,"code":"1432"},{"seq":5,"id":"1433","name":"CNO ARIEL esq. IGNACIO RIVAS","lat":-34.83327759443875,"lng":-56.217166408650776,"code":"1433"},{"seq":6,"id":"1446","name":"AV SAYAGO esq. ELIAS REGULES","lat":-34.83168982338018,"lng":-56.21459094743339,"code":"1446"},{"seq":7,"id":"1681","name":"BV JOSE BATLLE Y ORDOÑEZ esq. BELL","lat":-34.83311194473031,"lng":-56.2107493560619,"code":"1681"},{"seq":8,"id":"1682","name":"BV JOSE BATLLE Y ORDOÑEZ esq. LAFAYETTE","lat":-34.8344190576479,"lng":-56.208555916339435,"code":"1682"},{"seq":9,"id":"1683","name":"BV JOSE BATLLE Y ORDOÑEZ esq. PASTOR","lat":-34.83548197071989,"lng":-56.20670683112458,"code":"1683"},{"seq":10,"id":"1684","name":"BV JOSE BATLLE Y ORDOÑEZ esq. EDUARDO PONDAL","lat":-34.83784965941108,"lng":-56.202761987719306,"code":"1684"},{"seq":11,"id":"1685","name":"BV JOSE BATLLE Y ORDOÑEZ esq. CNO CORONEL RAIZ","lat":-34.83868089189675,"lng":-56.201297838139766,"code":"1685"},{"seq":12,"id":"1686","name":"BV JOSE BATLLE Y ORDOÑEZ esq. AV DE LAS INSTRUCCIONES","lat":-34.84085188821296,"lng":-56.19768629170636,"code":"1686"},{"seq":13,"id":"3110","name":"BV JOSE BATLLE Y ORDOÑEZ esq. GAMBETTA","lat":-34.84228099725202,"lng":-56.195319386982796,"code":"3110"},{"seq":14,"id":"3111","name":"BV JOSE BATLLE Y ORDOÑEZ esq. DR ALBERTO ZUBIRIA","lat":-34.84357564266939,"lng":-56.19315694874627,"code":"3111"},{"seq":15,"id":"3112","name":"BV JOSE BATLLE Y ORDOÑEZ esq. TEODORO ALVAREZ","lat":-34.8459649082963,"lng":-56.19023165516402,"code":"3112"},{"seq":16,"id":"3113","name":"BV JOSE BATLLE Y ORDOÑEZ esq. ARECHAVALETA","lat":-34.848212057243856,"lng":-56.18795210077627,"code":"3113"},{"seq":17,"id":"4240","name":"ATAHONA esq. BV JOSE BATLLE Y ORDOÑEZ","lat":-34.85008105080076,"lng":-56.186927421515286,"code":"4240"},{"seq":18,"id":"3617","name":"ATAHONA esq. VAIMACA","lat":-34.8516551685085,"lng":-56.18885157116563,"code":"3617"},{"seq":19,"id":"3610","name":"ATAHONA esq. REYES","lat":-34.85212118552872,"lng":-56.19101659837552,"code":"3610"},{"seq":20,"id":"3608","name":"REYES esq. AV COSTANERA FELIPE CARAPE","lat":-34.8548241585341,"lng":-56.19098279237025,"code":"3608"},{"seq":21,"id":"3603","name":"AV COSTANERA FELIPE CARAPE esq. JOSE MARIA PLATERO","lat":-34.85394162354918,"lng":-56.19379689128335,"code":"3603"},{"seq":22,"id":"3604","name":"AV COSTANERA FELIPE CARAPE esq. GRAL JOSE R USERA","lat":-34.85305430421565,"lng":-56.19446895997579,"code":"3604"},{"seq":23,"id":"1472","name":"AV MILLAN esq. RBLA COSTANERA FRANCISCO LAVALLEJA","lat":-34.852799940255515,"lng":-56.197406791977606,"code":"1472"},{"seq":24,"id":"1605","name":"AV MILLAN esq. PANTALEON SOTELO","lat":-34.85627291884577,"lng":-56.19667688347167,"code":"1605"},{"seq":25,"id":"1474","name":"AV MILLAN esq. REYES","lat":-34.859679290311306,"lng":-56.195414109978415,"code":"1474"},{"seq":26,"id":"1620","name":"AV 19 DE ABRIL esq. AV PROF CORNELIUS OSTEN","lat":-34.86138896602534,"lng":-56.19922509435891,"code":"1620"},{"seq":27,"id":"1621","name":"AV 19 DE ABRIL esq. LUCAS J OBES","lat":-34.863807054288316,"lng":-56.20269466133189,"code":"1621"},{"seq":28,"id":"1582","name":"AV 19 DE ABRIL esq. ADOLFO BERRO","lat":-34.86691952837641,"lng":-56.203987160782575,"code":"1582"},{"seq":29,"id":"1573","name":"AV AGRACIADA esq. HERMANOS GIL","lat":-34.87038931543353,"lng":-56.20401810860312,"code":"1573"},{"seq":30,"id":"1574","name":"AV AGRACIADA esq. LARROBLA","lat":-34.87140512430482,"lng":-56.20298045302651,"code":"1574"},{"seq":31,"id":"1575","name":"AV AGRACIADA esq. JOSE NASAZZI","lat":-34.87323308793604,"lng":-56.20152126751111,"code":"1575"},{"seq":32,"id":"3733","name":"AV AGRACIADA esq. CAP MANUEL ANTONIO ARTIGAS","lat":-34.87494383162382,"lng":-56.2001682498744,"code":"3733"},{"seq":33,"id":"3734","name":"AV AGRACIADA esq. DR EVARISTO CIGANDA","lat":-34.876577355578085,"lng":-56.19793249614579,"code":"3734"},{"seq":34,"id":"3735","name":"AV AGRACIADA esq. DR SALVADOR GARCIA PINTOS","lat":-34.87908312480839,"lng":-56.19619126474365,"code":"3735"},{"seq":35,"id":"3724","name":"AV AGRACIADA esq. SANTA FE","lat":-34.88297839626283,"lng":-56.19453052752813,"code":"3724"},{"seq":36,"id":"3725","name":"AV AGRACIADA esq. GRAL FAUSTO AGUILAR","lat":-34.88472589592342,"lng":-56.19337699613261,"code":"3725"},{"seq":37,"id":"3726","name":"AV AGRACIADA esq. CNEL FRANCISCO TAJES","lat":-34.88686039486761,"lng":-56.1909445118529,"code":"3726"},{"seq":38,"id":"3736","name":"AV AGRACIADA esq. GRAL MANUEL FREIRE","lat":-34.88795896874254,"lng":-56.18927661636792,"code":"3736"},{"seq":39,"id":"3663","name":"AV DE LAS LEYES esq. GUATEMALA","lat":-34.891684021777536,"lng":-56.18872660096357,"code":"3663"},{"seq":40,"id":"2413","name":"YAGUARON esq. NICARAGUA","lat":-34.89485514243784,"lng":-56.18759227383275,"code":"2413"},{"seq":41,"id":"2414","name":"YAGUARON esq. ASUNCION","lat":-34.89633877600723,"lng":-56.18772329441239,"code":"2414"},{"seq":42,"id":"2415","name":"YAGUARON esq. POZOS DEL REY","lat":-34.8979423434897,"lng":-56.18839870774742,"code":"2415"},{"seq":43,"id":"4049","name":"YAGUARON esq. GALICIA","lat":-34.89977332093383,"lng":-56.188649607461294,"code":"4049"},{"seq":44,"id":"4050","name":"YAGUARON esq. PAYSANDU","lat":-34.90169194449447,"lng":-56.1884710364688,"code":"4050"},{"seq":45,"id":"4624","name":"YAGUARON esq. MERCEDES","lat":-34.90358862630304,"lng":-56.188280467941944,"code":"4624"},{"seq":46,"id":"4051","name":"YAGUARON esq. AV 18 DE JULIO","lat":-34.90538942072414,"lng":-56.18809599591806,"code":"4051"},{"seq":47,"id":"4261","name":"DR AQUILES R LANZA esq. PSJE JULIO CASTRO","lat":-34.907032069671935,"lng":-56.187930021127606,"code":"4261"},{"seq":48,"id":"4993","name":"DR AQUILES R LANZA esq. DURAZNO","lat":-34.91009663448479,"lng":-56.18759946736007,"code":"4993"},{"seq":49,"id":"4052","name":"AV GONZALO RAMIREZ esq. DOMINGO PETRARCA","lat":-34.9121810645046,"lng":-56.18658219031829,"code":"4052"},{"seq":50,"id":"4072","name":"AV GONZALO RAMIREZ esq. SALTO","lat":-34.91254571256567,"lng":-56.182008998335,"code":"4072"},{"seq":51,"id":"4073","name":"AV GONZALO RAMIREZ esq. MINAS","lat":-34.912386365439446,"lng":-56.17944805559082,"code":"4073"},{"seq":52,"id":"4418","name":"AV GONZALO RAMIREZ esq. YARO","lat":-34.91213086189508,"lng":-56.17621818510668,"code":"4418"},{"seq":53,"id":"4074","name":"AV GONZALO RAMIREZ esq. JUAN D JACKSON","lat":-34.911926583619874,"lng":-56.17307615063786,"code":"4074"},{"seq":54,"id":"4085","name":"AV GONZALO RAMIREZ esq. DR JOAQUIN REQUENA","lat":-34.91155892393931,"lng":-56.168038274030934,"code":"4085"},{"seq":55,"id":"3944","name":"21 DE SETIEMBRE esq. PSJE 18","lat":-34.91237986360148,"lng":-56.16399636406399,"code":"3944"},{"seq":56,"id":"3945","name":"21 DE SETIEMBRE esq. PRUDENCIO VAZQUEZ Y VEGA","lat":-34.913904966428944,"lng":-56.16157061768659,"code":"3945"},{"seq":57,"id":"3946","name":"21 DE SETIEMBRE esq. LUIS FRANZINI","lat":-34.91613548273239,"lng":-56.158975028262724,"code":"3946"},{"seq":58,"id":"4986","name":"21 DE SETIEMBRE esq. CORONEL MORA","lat":-34.918364601584365,"lng":-56.15667670056614,"code":"4986"},{"seq":59,"id":"3377","name":"21 DE SETIEMBRE esq. TOMAS DIAGO","lat":-34.91958272783454,"lng":-56.153437365785685,"code":"3377"},{"seq":60,"id":"4489","name":"JUAN BENITO BLANCO esq. FRANCISCO SOLANO ANTUÑA","lat":-34.91919137804168,"lng":-56.15097101425492,"code":"4489"},{"seq":61,"id":"3948","name":"JUAN BENITO BLANCO esq. JAIME ZUDAÑEZ","lat":-34.916890409678714,"lng":-56.15018307915776,"code":"3948"},{"seq":62,"id":"4488","name":"JUAN BENITO BLANCO esq. BV ESPAÑA","lat":-34.91530661885991,"lng":-56.14969333998143,"code":"4488"},{"seq":63,"id":"3949","name":"JUAN BENITO BLANCO esq. JOSE MARTI","lat":-34.91331286515487,"lng":-56.1485095991571,"code":"3949"},{"seq":64,"id":"3950","name":"JUAN BENITO BLANCO esq. GUAYAQUI","lat":-34.91202883507486,"lng":-56.14711823997253,"code":"3950"},{"seq":65,"id":"3951","name":"JUAN BENITO BLANCO esq. MANUEL V PAGOLA","lat":-34.91028906890789,"lng":-56.144557142331486,"code":"3951"},{"seq":66,"id":"3952","name":"JUAN BENITO BLANCO esq. FELIX BUXAREO","lat":-34.90923060653747,"lng":-56.14297094547107,"code":"3952"},{"seq":67,"id":"3953","name":"BV 26 DE MARZO esq. MARCO BRUTO","lat":-34.906210074464134,"lng":-56.138601959933666,"code":"3953"},{"seq":68,"id":"3436","name":"AV DR LUIS ALBERTO DE HERRERA esq. JOSE A ITURRIAGA","lat":-34.906570673645255,"lng":-56.13667705704264,"code":"3436"},{"seq":69,"id":"3437","name":"AV DR LUIS ALBERTO DE HERRERA esq. ECHEVARRIARZA","lat":-34.90850881888396,"lng":-56.13597006392714,"code":"3437"},{"seq":70,"id":"3389","name":"AV DR LUIS ALBERTO DE HERRERA esq. RBLA PTE CHARLES DE GAULLE","lat":-34.910613202965706,"lng":-56.135251368567566,"code":"3389"}],"1":[{"seq":1,"id":"3386","name":"RBLA PTE CHARLES DE GAULLE esq. AV DR LUIS ALBERTO DE HERRERA","lat":-34.911134416242994,"lng":-56.13692892058207,"code":"3386"},{"seq":2,"id":"3387","name":"AV DR LUIS ALBERTO DE HERRERA esq. RBLA PTE CHARLES DE GAULLE","lat":-34.91030434139146,"lng":-56.13512017644431,"code":"3387"},{"seq":3,"id":"3418","name":"AV DR LUIS ALBERTO DE HERRERA esq. JOSE A ITURRIAGA","lat":-34.906838377189764,"lng":-56.136342748360796,"code":"3418"},{"seq":4,"id":"3419","name":"AV DR LUIS ALBERTO DE HERRERA esq. CR LUIS E LECUEDER","lat":-34.90395628939104,"lng":-56.1373899322753,"code":"3419"},{"seq":5,"id":"3429","name":"TTE GRAL PABLO GALARZA esq. MAGARIÑOS CERVANTES","lat":-34.90203046018539,"lng":-56.13700773490121,"code":"3429"},{"seq":6,"id":"6175","name":"DR LUIS BONAVITA esq. BV 26 DE MARZO","lat":-34.90470786036571,"lng":-56.13567798293991,"code":"6175"},{"seq":7,"id":"3933","name":"BV 26 DE MARZO esq. AV DR LUIS ALBERTO DE HERRERA","lat":-34.90553260989128,"lng":-56.13633787994625,"code":"3933"},{"seq":8,"id":"3934","name":"BV 26 DE MARZO esq. JULIO CESAR","lat":-34.9061276882192,"lng":-56.13913415091652,"code":"3934"},{"seq":9,"id":"4079","name":"26 DE MARZO esq. FELIX BUXAREO","lat":-34.907070517648066,"lng":-56.14370742160238,"code":"4079"},{"seq":10,"id":"4193","name":"26 DE MARZO esq. MANUEL V PAGOLA","lat":-34.90778190770789,"lng":-56.14631963246543,"code":"4193"},{"seq":11,"id":"4553","name":"MIGUEL BARREIRO esq. ALEJANDRO CHUCARRO","lat":-34.909855826959415,"lng":-56.146055831680634,"code":"4553"},{"seq":12,"id":"3359","name":"RBLA REPUBLICA DEL PERU esq. GABRIEL A PEREIRA","lat":-34.91140690495815,"lng":-56.14539350490502,"code":"3359"},{"seq":13,"id":"3360","name":"RBLA REPUBLICA DEL PERU esq. JOSE MARTI","lat":-34.91360442523561,"lng":-56.14769478661135,"code":"3360"},{"seq":14,"id":"3361","name":"RBLA REPUBLICA DEL PERU esq. DR JOSE SCOSERIA","lat":-34.91597732373593,"lng":-56.14902750508732,"code":"3361"},{"seq":15,"id":"3362","name":"RBLA REPUBLICA DEL PERU esq. JUAN MARIA PEREZ","lat":-34.91817199988998,"lng":-56.14886181743045,"code":"3362"},{"seq":16,"id":"3363","name":"RBLA MAHATMA GANDHI esq. 21 DE SETIEMBRE","lat":-34.92008671406991,"lng":-56.14925137502541,"code":"3363"},{"seq":17,"id":"4192","name":"21 DE SETIEMBRE esq. ROQUE GRASERAS","lat":-34.91979913023452,"lng":-56.15180175190571,"code":"4192"},{"seq":18,"id":"3378","name":"21 DE SETIEMBRE esq. JOSE ELLAURI","lat":-34.91894296723498,"lng":-56.155787909147406,"code":"3378"},{"seq":19,"id":"4081","name":"21 DE SETIEMBRE esq. WILLIMAN","lat":-34.91672310146814,"lng":-56.158165048222855,"code":"4081"},{"seq":20,"id":"3938","name":"21 DE SETIEMBRE esq. OBLIGADO","lat":-34.91506042084917,"lng":-56.159780318068776,"code":"3938"},{"seq":21,"id":"4082","name":"21 DE SETIEMBRE esq. LIBERTAD","lat":-34.91349593540432,"lng":-56.16200780743526,"code":"4082"},{"seq":22,"id":"3939","name":"21 DE SETIEMBRE esq. PSJE FEDERICO RENOM","lat":-34.91172174875615,"lng":-56.16486400459112,"code":"3939"},{"seq":23,"id":"4084","name":"AV GONZALO RAMIREZ esq. DR JOAQUIN REQUENA","lat":-34.91139035127486,"lng":-56.16766707588453,"code":"4084"},{"seq":24,"id":"4066","name":"AV GONZALO RAMIREZ esq. JUAN D JACKSON","lat":-34.91171783315171,"lng":-56.172143591523714,"code":"4066"},{"seq":25,"id":"4067","name":"AV GONZALO RAMIREZ esq. GABOTO","lat":-34.911996245100674,"lng":-56.17645608264408,"code":"4067"},{"seq":26,"id":"4068","name":"AV GONZALO RAMIREZ esq. MINAS","lat":-34.91216787853987,"lng":-56.178682852035884,"code":"4068"},{"seq":27,"id":"4069","name":"AV GONZALO RAMIREZ esq. Q F ANDRES MARTINEZ TRUEBA","lat":-34.912441954898156,"lng":-56.18224165717714,"code":"4069"},{"seq":28,"id":"4070","name":"AV GONZALO RAMIREZ esq. FRANCISCO REDUELLO","lat":-34.91218397886069,"lng":-56.18572288140847,"code":"4070"},{"seq":29,"id":"3840","name":"EJIDO esq. DURAZNO","lat":-34.91046730947064,"lng":-56.186298959314044,"code":"3840"},{"seq":30,"id":"4372","name":"EJIDO esq. CANELONES","lat":-34.90858124158572,"lng":-56.18645769475238,"code":"4372"},{"seq":31,"id":"4375","name":"EJIDO esq. SAN JOSE","lat":-34.906923646789394,"lng":-56.186662288423705,"code":"4375"},{"seq":32,"id":"4373","name":"EJIDO esq. COLONIA","lat":-34.90484066149225,"lng":-56.18688651264211,"code":"4373"},{"seq":33,"id":"4376","name":"EJIDO esq. MERCEDES","lat":-34.90322491957582,"lng":-56.18705614414609,"code":"4376"},{"seq":34,"id":"4047","name":"EJIDO esq. CERRO LARGO","lat":-34.901091447655595,"lng":-56.18729863795921,"code":"4047"},{"seq":35,"id":"4374","name":"EJIDO esq. LA PAZ","lat":-34.89947151269745,"lng":-56.187450499707026,"code":"4374"},{"seq":36,"id":"4441","name":"HERMANO DAMASCENO esq. NUEVA YORK","lat":-34.89726204351799,"lng":-56.18674602991645,"code":"4441"},{"seq":37,"id":"4625","name":"YAGUARON esq. NICARAGUA","lat":-34.89492684358511,"lng":-56.18746976437763,"code":"4625"},{"seq":38,"id":"4048","name":"YAGUARON esq. AV DE LAS LEYES","lat":-34.89262408363012,"lng":-56.18741788126941,"code":"4048"},{"seq":39,"id":"3665","name":"AV DE LAS LEYES esq. HOCQUART","lat":-34.89194263997822,"lng":-56.18624608205628,"code":"3665"},{"seq":40,"id":"2416","name":"AV DE LAS LEYES esq. AV GRAL FLORES","lat":-34.89033537847262,"lng":-56.18642190674068,"code":"2416"},{"seq":41,"id":"3727","name":"AV AGRACIADA esq. AV GRAL SAN MARTIN","lat":-34.888661609688796,"lng":-56.18844564283384,"code":"3727"},{"seq":42,"id":"3739","name":"AV AGRACIADA esq. GRAL FELIPE FRAGA","lat":-34.88731151317165,"lng":-56.1900833381548,"code":"3739"},{"seq":43,"id":"6426","name":"AV AGRACIADA esq. CUAREIM","lat":-34.886105744734266,"lng":-56.19180941262662,"code":"6426"},{"seq":44,"id":"3728","name":"AV AGRACIADA esq. AV GRAL RONDEAU","lat":-34.88424950782731,"lng":-56.19356482092001,"code":"3728"},{"seq":45,"id":"3729","name":"AV AGRACIADA esq. ENTRE RIOS","lat":-34.882623332363856,"lng":-56.1946583162895,"code":"3729"},{"seq":46,"id":"3730","name":"AV AGRACIADA esq. DR ALFREDO GARCIA MORALES","lat":-34.879981139842194,"lng":-56.19570891740889,"code":"3730"},{"seq":47,"id":"3742","name":"AV AGRACIADA esq. DR EVARISTO CIGANDA","lat":-34.87683511471819,"lng":-56.19744894546475,"code":"3742"},{"seq":48,"id":"3743","name":"AV AGRACIADA esq. GRITO DE ASENCIO","lat":-34.87583125336255,"lng":-56.19876564614716,"code":"3743"},{"seq":49,"id":"3745","name":"AV AGRACIADA esq. BV GRAL ARTIGAS","lat":-34.87265513115647,"lng":-56.20178849093739,"code":"3745"},{"seq":50,"id":"1576","name":"AV AGRACIADA esq. HERMANOS GIL","lat":-34.87025679763949,"lng":-56.20390121964999,"code":"1576"},{"seq":51,"id":"1583","name":"AV 19 DE ABRIL esq. ADOLFO BERRO","lat":-34.866911303135424,"lng":-56.20379572791869,"code":"1583"},{"seq":52,"id":"1584","name":"AV 19 DE ABRIL esq. LUCAS J OBES","lat":-34.86405818155106,"lng":-56.202694656143805,"code":"1584"},{"seq":53,"id":"1622","name":"AV 19 DE ABRIL esq. LUGANO","lat":-34.861683671967896,"lng":-56.19947976277128,"code":"1622"},{"seq":54,"id":"1623","name":"AV 19 DE ABRIL esq. AV JOAQUIN SUAREZ","lat":-34.86103687336775,"lng":-56.19674453476678,"code":"1623"},{"seq":55,"id":"3601","name":"AV MILLAN esq. AV 19 DE ABRIL","lat":-34.860304992174946,"lng":-56.19486979589008,"code":"3601"},{"seq":56,"id":"3602","name":"AV MILLAN esq. AV DR LUIS ALBERTO DE HERRERA","lat":-34.858523313653556,"lng":-56.195861624387554,"code":"3602"},{"seq":57,"id":"1624","name":"AV MILLAN esq. PSJE PNAL CABALLEROS ORIENTALES","lat":-34.85514241740107,"lng":-56.19677174690119,"code":"1624"},{"seq":58,"id":"1625","name":"AV MILLAN esq. RBLA COSTANERA FRANCISCO LAVALLEJA","lat":-34.85277483246349,"lng":-56.197233000964694,"code":"1625"},{"seq":59,"id":"3605","name":"AV COSTANERA FELIPE CARAPE esq. GRAL JOSE R USERA","lat":-34.85269329278923,"lng":-56.194947452401145,"code":"3605"},{"seq":60,"id":"3606","name":"AV COSTANERA FELIPE CARAPE esq. PASCUAL COSTA","lat":-34.85416442501502,"lng":-56.19379798989163,"code":"3606"},{"seq":61,"id":"3607","name":"AV COSTANERA FELIPE CARAPE esq. REYES","lat":-34.855385012824804,"lng":-56.19140579236485,"code":"3607"},{"seq":62,"id":"3609","name":"REYES esq. IGUALDAD","lat":-34.85257439936252,"lng":-56.191424809058724,"code":"3609"},{"seq":63,"id":"3611","name":"ATAHONA esq. VAIMACA","lat":-34.85181816908008,"lng":-56.18922336660571,"code":"3611"},{"seq":64,"id":"5959","name":"VAIMACA esq. BAYONA","lat":-34.85313906995268,"lng":-56.188380133177596,"code":"5959"},{"seq":65,"id":"6013","name":"ANDRES SPIKERMAN esq. CELEDONIO ROJAS","lat":-34.85179841015975,"lng":-56.18721517748837,"code":"6013"},{"seq":66,"id":"3616","name":"ANDRES SPIKERMAN esq. BV JOSE BATLLE Y ORDOÑEZ","lat":-34.85043783935396,"lng":-56.185812012758184,"code":"3616"},{"seq":67,"id":"4940","name":"BV JOSE BATLLE Y ORDOÑEZ esq. ARECHAVALETA","lat":-34.84855841303355,"lng":-56.18728676797135,"code":"4940"},{"seq":68,"id":"4941","name":"BV JOSE BATLLE Y ORDOÑEZ esq. RBLA DR JOSE PEDRO CARDOSO","lat":-34.84594797876763,"lng":-56.18982971636757,"code":"4941"},{"seq":69,"id":"4942","name":"BV JOSE BATLLE Y ORDOÑEZ esq. DR ALBERTO ZUBIRIA","lat":-34.8436454046678,"lng":-56.19253244202069,"code":"4942"},{"seq":70,"id":"4943","name":"BV JOSE BATLLE Y ORDOÑEZ esq. GAMBETTA","lat":-34.84247627413973,"lng":-56.19458756035078,"code":"4943"},{"seq":71,"id":"4944","name":"BV JOSE BATLLE Y ORDOÑEZ esq. VICTOR HUGO","lat":-34.84133505505212,"lng":-56.19648528531737,"code":"4944"},{"seq":72,"id":"4453","name":"BV JOSE BATLLE Y ORDOÑEZ esq. SORIA","lat":-34.839206543785366,"lng":-56.19991893312002,"code":"4453"},{"seq":73,"id":"4454","name":"BV JOSE BATLLE Y ORDOÑEZ esq. EDUARDO PONDAL","lat":-34.83763681937241,"lng":-56.202689269097,"code":"4454"},{"seq":74,"id":"1691","name":"BV JOSE BATLLE Y ORDOÑEZ esq. PASTOR","lat":-34.83599094363137,"lng":-56.20552726127143,"code":"1691"},{"seq":75,"id":"1692","name":"BV JOSE BATLLE Y ORDOÑEZ esq. LAFAYETTE","lat":-34.83414100763868,"lng":-56.20869784661091,"code":"1692"},{"seq":76,"id":"4452","name":"BV JOSE BATLLE Y ORDOÑEZ esq. VEDIA","lat":-34.83229816077722,"lng":-56.2118462376147,"code":"4452"},{"seq":77,"id":"1459","name":"AV SAYAGO esq. CERRO","lat":-34.83151490155613,"lng":-56.21462526060557,"code":"1459"},{"seq":78,"id":"1460","name":"AV SAYAGO esq. CNO ARIEL","lat":-34.8334321612766,"lng":-56.21584621502984,"code":"1460"},{"seq":79,"id":"1441","name":"CNO ARIEL esq. 28 DE FEBRERO","lat":-34.83275733676736,"lng":-56.21783912636787,"code":"1441"},{"seq":80,"id":"1443","name":"CNO ARIEL esq. AV GRAL EUGENIO GARZON","lat":-34.83139709060848,"lng":-56.220167031509476,"code":"1443"},{"seq":81,"id":"4543","name":"MARTIN XIMENO esq. PIRIBEBUY","lat":-34.831063424577046,"lng":-56.22331772041675,"code":"4543"},{"seq":82,"id":"1397","name":"GABITO esq. PIRIBEBUY","lat":-34.8304497408741,"lng":-56.22572507055162,"code":"1397"},{"seq":83,"id":"4555","name":"AV MILLAN esq. CARAFI","lat":-34.83105890100307,"lng":-56.22742778051056,"code":"4555"},{"seq":84,"id":"1398","name":"AV MILLAN esq. JUAN BAUTISTA SAA","lat":-34.82958457360596,"lng":-56.22987629312158,"code":"1398"},{"seq":85,"id":"4171","name":"AV MILLAN esq. ALBERTO GOMEZ RUANO","lat":-34.82628124759616,"lng":-56.23550046082321,"code":"4171"},{"seq":86,"id":"1350","name":"AV MILLAN esq. CIRC INT CALLE 3","lat":-34.82421014444222,"lng":-56.23903849012008,"code":"1350"},{"seq":87,"id":"1351","name":"AV MILLAN esq. CIRC INT CALLE 1","lat":-34.823347767621804,"lng":-56.24046460262782,"code":"1351"},{"seq":88,"id":"1387","name":"CNO LECOCQ esq. ROMULO F ROSSI","lat":-34.821054399390256,"lng":-56.23883693234665,"code":"1387"},{"seq":89,"id":"4721","name":"CNO ARIEL esq. ALBERTO GOMEZ RUANO","lat":-34.82213970811073,"lng":-56.23603917264526,"code":"4721"},{"seq":90,"id":"4723","name":"CNO ARIEL esq. CALLE 7 DE 12 MTS","lat":-34.823577005952984,"lng":-56.23361341504098,"code":"4723"},{"seq":91,"id":"4725","name":"CNO ARIEL esq. CONFEDERADA","lat":-34.824716630455555,"lng":-56.231702634750114,"code":"4725"},{"seq":92,"id":"4748","name":"HECTOR SUPPICI SEDES esq. CNO ARIEL","lat":-34.82782095498603,"lng":-56.228659482360214,"code":"4748"}]}