{"0":[{"seq":1,"id":"5036","name":"RBLA PUERTO SOLEDAD DE MALVINAS esq. AV CAP LEAL DE IBARRA","lat":-34.87066609924659,"lng":-56.33905839344281,"code":"5036"},{"seq":2,"id":"652","name":"AV CAP LEAL DE IBARRA esq. RAMON FERNANDEZ VILLEGAS","lat":-34.868889015999905,"lng":-56.33716214102294,"code":"652"},{"seq":3,"id":"5085","name":"AV CAP LEAL DE IBARRA esq. CAP PEDRO DE MESA Y CASTRO","lat":-34.8674158041593,"lng":-56.33589392212182,"code":"5085"},{"seq":4,"id":"647","name":"CAP PEDRO DE MESA Y CASTRO esq. JUAN JOSE ELIZALDE","lat":-34.8679849333079,"lng":-56.33418581560574,"code":"647"},{"seq":5,"id":"648","name":"CAP PEDRO DE MESA Y CASTRO esq. RAMÓN CLAIRAC","lat":-34.86968932922117,"lng":-56.331027639784494,"code":"648"},{"seq":6,"id":"649","name":"CAP PEDRO DE MESA Y CASTRO esq. FRANCISCO GIL LEMOS","lat":-34.86833464035788,"lng":-56.33251261579379,"code":"649"},{"seq":7,"id":"650","name":"CAP PEDRO DE MESA Y CASTRO esq. AV CAP LEAL DE IBARRA","lat":-34.86727297660405,"lng":-56.335276804310304,"code":"650"},{"seq":8,"id":"645","name":"AV CAP LEAL DE IBARRA esq. CAP PEDRO DE MESA Y CASTRO","lat":-34.865877526713305,"lng":-56.33461931792216,"code":"645"},{"seq":9,"id":"643","name":"AV CAP LEAL DE IBARRA esq. JACINTO ALTOLAGUIRRE","lat":-34.86350408087208,"lng":-56.33303767112891,"code":"643"},{"seq":10,"id":"640","name":"AV CAP LEAL DE IBARRA esq. CNO PAJAS BLANCAS","lat":-34.8612427140335,"lng":-56.33089752913898,"code":"640"},{"seq":11,"id":"653","name":"CNO PAJAS BLANCAS esq. JUAN JOSE ELIZALDE","lat":-34.86174810823279,"lng":-56.32950095044942,"code":"653"},{"seq":12,"id":"5819","name":"CNO PAJAS BLANCAS esq. RAMÓN CLAIRAC","lat":-34.86310802573529,"lng":-56.32683019097735,"code":"5819"},{"seq":13,"id":"655","name":"CNO PAJAS BLANCAS esq. DR HUGO EDUARDO GATTI","lat":-34.86408747678791,"lng":-56.324943946079436,"code":"655"},{"seq":14,"id":"4704","name":"CNO PAJAS BLANCAS esq. PSJE OSCAR NICASTRO","lat":-34.865279526703354,"lng":-56.32269581673845,"code":"4704"},{"seq":15,"id":"657","name":"CNO PAJAS BLANCAS esq. CNO PEDRO P SANGUINETTO","lat":-34.86671579102266,"lng":-56.319824643766125,"code":"657"},{"seq":16,"id":"659","name":"CNO PAJAS BLANCAS esq. CNO TOMKINSON","lat":-34.867921467839004,"lng":-56.3174943371497,"code":"659"},{"seq":17,"id":"667","name":"LUIS DE MEDINA TORRES esq. CNO PAJAS BLANCAS","lat":-34.86885057874578,"lng":-56.31721202455301,"code":"667"},{"seq":18,"id":"660","name":"LUIS DE MEDINA TORRES esq. CAP DOMINGO CHAURRI","lat":-34.87157406628682,"lng":-56.31719017084288,"code":"660"},{"seq":19,"id":"664","name":"LUIS DE MEDINA TORRES esq. CAP DOMINGO CHAURRI","lat":-34.87335517168026,"lng":-56.31666367155301,"code":"664"},{"seq":20,"id":"662","name":"CNO SANFUENTES esq. CNO ANTARTIDA URUGUAYA","lat":-34.875828869419394,"lng":-56.31702661236358,"code":"662"},{"seq":21,"id":"5756","name":"CNO SANFUENTES esq. CNO ANTARTIDA URUGUAYA","lat":-34.87655200903984,"lng":-56.31451625561834,"code":"5756"},{"seq":22,"id":"6247","name":"CNO SANFUENTES esq. CNO ANTARTIDA URUGUAYA","lat":-34.877346905930516,"lng":-56.311468782103105,"code":"6247"},{"seq":23,"id":"1019","name":"CNO SANFUENTES esq. CNO SALABERRY","lat":-34.87772304040219,"lng":-56.30686987931565,"code":"1019"},{"seq":24,"id":"1020","name":"CNO SANFUENTES esq. CNO SALABERRY","lat":-34.87744978649203,"lng":-56.30450662378557,"code":"1020"},{"seq":25,"id":"1021","name":"CNO SANFUENTES esq. CNO FERRES","lat":-34.87710111823245,"lng":-56.302073106266484,"code":"1021"},{"seq":26,"id":"1022","name":"CNO SANFUENTES esq. CNO FERRES","lat":-34.87670651130909,"lng":-56.29888856868277,"code":"1022"},{"seq":27,"id":"1023","name":"CNO SANFUENTES esq. CNO DELLAZOPPA","lat":-34.87614808245951,"lng":-56.29472057035813,"code":"1023"},{"seq":28,"id":"1024","name":"CNO SANFUENTES esq. CNO DELLAZOPPA","lat":-34.875585633461434,"lng":-56.29082593997164,"code":"1024"},{"seq":29,"id":"6186","name":"CNO SANFUENTES esq. VECINAL","lat":-34.87515842359244,"lng":-56.287708687066434,"code":"6186"},{"seq":30,"id":"1025","name":"CNO SANFUENTES esq. CNO BAJO DE LA PETIZA","lat":-34.874909343483026,"lng":-56.286044985481,"code":"1025"},{"seq":31,"id":"1026","name":"CNO SANFUENTES esq. ADOLFO PASTOR","lat":-34.87455016186331,"lng":-56.2832253059969,"code":"1026"},{"seq":32,"id":"1027","name":"CNO SANFUENTES esq. LOS HELECHOS","lat":-34.87420399055005,"lng":-56.280735930600116,"code":"1027"},{"seq":33,"id":"1028","name":"CNO SANFUENTES esq. SBRE DE PASO","lat":-34.87390509567269,"lng":-56.278511679918104,"code":"1028"},{"seq":34,"id":"1029","name":"CNO SANFUENTES esq. LOS TEROS","lat":-34.873357759254496,"lng":-56.27469882399254,"code":"1029"},{"seq":35,"id":"1030","name":"CNO SANFUENTES esq. PILAR BASTIDA","lat":-34.873158628812746,"lng":-56.27304860879834,"code":"1030"},{"seq":36,"id":"6119","name":"CNO SANFUENTES esq. LA VIA","lat":-34.87280927386619,"lng":-56.270424108787445,"code":"6119"},{"seq":37,"id":"1032","name":"CNO SANFUENTES esq. AV CIBILS","lat":-34.87239739418034,"lng":-56.267505179586536,"code":"1032"},{"seq":38,"id":"1034","name":"AV CIBILS esq. AUSTRALIA","lat":-34.87394134350834,"lng":-56.26679809561375,"code":"1034"},{"seq":39,"id":"1059","name":"AV CARLOS MARIA RAMIREZ esq. BULGARIA","lat":-34.876148834692884,"lng":-56.265802464977895,"code":"1059"},{"seq":40,"id":"1060","name":"AV CARLOS MARIA RAMIREZ esq. DINAMARCA","lat":-34.87580957574045,"lng":-56.26343999545671,"code":"1060"},{"seq":41,"id":"1061","name":"AV CARLOS MARIA RAMIREZ esq. FILIPINAS","lat":-34.87553424979873,"lng":-56.2612750347582,"code":"1061"},{"seq":42,"id":"1062","name":"AV CARLOS MARIA RAMIREZ esq. PUERTO RICO","lat":-34.87524622337117,"lng":-56.25914896228572,"code":"1062"},{"seq":43,"id":"1063","name":"AV CARLOS MARIA RAMIREZ esq. VIZCAYA","lat":-34.874999773262616,"lng":-56.25717543648007,"code":"1063"},{"seq":44,"id":"1064","name":"AV CARLOS MARIA RAMIREZ esq. BOGOTA","lat":-34.874694071295146,"lng":-56.25494367903302,"code":"1064"},{"seq":45,"id":"4775","name":"AV DR SANTIN CARLOS ROSSI esq. DR PEDRO CASTELLINO","lat":-34.87366351246541,"lng":-56.25252419496949,"code":"4775"},{"seq":46,"id":"4925","name":"DR PEDRO CASTELLINO esq. DR RAUL MORETTI","lat":-34.87323947810137,"lng":-56.249403424783246,"code":"4925"}],"1":[{"seq":1,"id":"4925","name":"DR PEDRO CASTELLINO esq. DR RAUL MORETTI","lat":-34.87323947810137,"lng":-56.249403424783246,"code":"4925"},{"seq":2,"id":"4816","name":"AV CARLOS MARIA RAMIREZ esq. TURQUIA","lat":-34.87400931094092,"lng":-56.250790573274884,"code":"4816"},{"seq":3,"id":"1069","name":"AV CARLOS MARIA RAMIREZ esq. BOGOTA","lat":-34.87448886666334,"lng":-56.25426770949178,"code":"1069"},{"seq":4,"id":"1070","name":"AV CARLOS MARIA RAMIREZ esq. VIZCAYA","lat":-34.87477629905185,"lng":-56.25640314183071,"code":"1070"},{"seq":5,"id":"1071","name":"AV CARLOS MARIA RAMIREZ esq. PUERTO RICO","lat":-34.875146457511654,"lng":-56.25879999150518,"code":"1071"},{"seq":6,"id":"1072","name":"AV CARLOS MARIA RAMIREZ esq. FILIPINAS","lat":-34.87543730279701,"lng":-56.260973324849196,"code":"1072"},{"seq":7,"id":"1073","name":"AV CARLOS MARIA RAMIREZ esq. DINAMARCA","lat":-34.875720619083616,"lng":-56.26314915066202,"code":"1073"},{"seq":8,"id":"1074","name":"AV CARLOS MARIA RAMIREZ esq. BULGARIA","lat":-34.87593173417382,"lng":-56.265296686126106,"code":"1074"},{"seq":9,"id":"1035","name":"AV CIBILS esq. AUSTRALIA","lat":-34.873754095579244,"lng":-56.266694666068794,"code":"1035"},{"seq":10,"id":"1033","name":"AV CIBILS esq. OCEANIA","lat":-34.87266655755696,"lng":-56.26690839578399,"code":"1033"},{"seq":11,"id":"6114","name":"CNO SANFUENTES esq. PSJE SERVIDUMBRE 2","lat":-34.87273649364219,"lng":-56.270437681421015,"code":"6114"},{"seq":12,"id":"1006","name":"CNO SANFUENTES esq. CIRC INT SIN DENOM","lat":-34.87301896569657,"lng":-56.27249378228481,"code":"1006"},{"seq":13,"id":"1007","name":"CNO SANFUENTES esq. PSJE LA TORTUGA","lat":-34.87337439177309,"lng":-56.27497786757207,"code":"1007"},{"seq":14,"id":"1008","name":"CNO SANFUENTES esq. SBRE DE PASO","lat":-34.87380413995763,"lng":-56.278289803428294,"code":"1008"},{"seq":15,"id":"1009","name":"CNO SANFUENTES esq. LOS HELECHOS","lat":-34.87409836958267,"lng":-56.2804298168484,"code":"1009"},{"seq":16,"id":"1010","name":"CNO SANFUENTES esq. BOLDO","lat":-34.874353863459504,"lng":-56.282660811205716,"code":"1010"},{"seq":17,"id":"1011","name":"CNO SANFUENTES esq. CNO BAJO DE LA PETIZA","lat":-34.874829351163385,"lng":-56.285658464843394,"code":"1011"},{"seq":18,"id":"6185","name":"CNO SANFUENTES esq. VECINAL","lat":-34.87515901209205,"lng":-56.28825310307306,"code":"6185"},{"seq":19,"id":"1012","name":"CNO SANFUENTES esq. CNO DELLAZOPPA","lat":-34.87550408786668,"lng":-56.29089448946384,"code":"1012"},{"seq":20,"id":"1013","name":"CNO SANFUENTES esq. CNO DELLAZOPPA","lat":-34.87615942122136,"lng":-56.295575923901175,"code":"1013"},{"seq":21,"id":"1014","name":"CNO SANFUENTES esq. CNO FERRES","lat":-34.87652831329149,"lng":-56.29841203368144,"code":"1014"},{"seq":22,"id":"1015","name":"CNO SANFUENTES esq. CNO FERRES","lat":-34.87704834750039,"lng":-56.30191596634338,"code":"1015"},{"seq":23,"id":"1016","name":"CNO SANFUENTES esq. CNO SALABERRY","lat":-34.877392308281216,"lng":-56.304355690013054,"code":"1016"},{"seq":24,"id":"1017","name":"CNO SANFUENTES esq. CNO SALABERRY","lat":-34.87765949507756,"lng":-56.30731674942474,"code":"1017"},{"seq":25,"id":"6245","name":"CNO SANFUENTES esq. CNO ANTARTIDA URUGUAYA","lat":-34.8773061910749,"lng":-56.31139617663199,"code":"6245"},{"seq":26,"id":"5733","name":"CNO SANFUENTES esq. CNO ANTARTIDA URUGUAYA","lat":-34.87651093075186,"lng":-56.31427171154205,"code":"5733"},{"seq":27,"id":"1018","name":"CNO SANFUENTES esq. CNO ANTARTIDA URUGUAYA","lat":-34.875866307711604,"lng":-56.31681399956043,"code":"1018"},{"seq":28,"id":"663","name":"LUIS DE MEDINA TORRES esq. CAP DOMINGO CHAURRI","lat":-34.87347756324181,"lng":-56.31659820063823,"code":"663"},{"seq":29,"id":"665","name":"LUIS DE MEDINA TORRES esq. CAP DOMINGO CHAURRI","lat":-34.87158803561365,"lng":-56.317121128778155,"code":"665"},{"seq":30,"id":"666","name":"LUIS DE MEDINA TORRES esq. CNO PAJAS BLANCAS","lat":-34.86936862853638,"lng":-56.31711367378592,"code":"666"},{"seq":31,"id":"669","name":"LUIS DE MEDINA TORRES esq. CNO TOMKINSON","lat":-34.86811090060621,"lng":-56.31713339022264,"code":"669"},{"seq":32,"id":"658","name":"CNO PAJAS BLANCAS esq. CNO PEDRO P SANGUINETTO","lat":-34.86693268040522,"lng":-56.31923983247338,"code":"658"},{"seq":33,"id":"4703","name":"CNO PAJAS BLANCAS esq. PSJE OSCAR NICASTRO","lat":-34.8653345991164,"lng":-56.32238964082102,"code":"4703"},{"seq":34,"id":"656","name":"CNO PAJAS BLANCAS esq. DR HUGO EDUARDO GATTI","lat":-34.86416112125827,"lng":-56.324616663539686,"code":"656"},{"seq":35,"id":"5818","name":"CNO PAJAS BLANCAS esq. RAMÓN CLAIRAC","lat":-34.86321146715021,"lng":-56.326436367811674,"code":"5818"},{"seq":36,"id":"654","name":"CNO PAJAS BLANCAS esq. SBRE DE PASO DE 10 MTS (8134)","lat":-34.861875670796024,"lng":-56.32906273305954,"code":"654"},{"seq":37,"id":"639","name":"CNO PAJAS BLANCAS esq. AV CAP LEAL DE IBARRA","lat":-34.861087990559135,"lng":-56.33056720803298,"code":"639"},{"seq":38,"id":"642","name":"AV CAP LEAL DE IBARRA esq. CAP NAV ESTANISLAO COURAD","lat":-34.86301235367398,"lng":-56.332706298309546,"code":"642"},{"seq":39,"id":"644","name":"AV CAP LEAL DE IBARRA esq. CAP PEDRO DE MESA Y CASTRO","lat":-34.865884968061884,"lng":-56.33470927284967,"code":"644"},{"seq":40,"id":"646","name":"AV CAP LEAL DE IBARRA esq. CAP PEDRO DE MESA Y CASTRO","lat":-34.86668723603006,"lng":-56.335545308079176,"code":"646"},{"seq":41,"id":"647","name":"CAP PEDRO DE MESA Y CASTRO esq. JUAN JOSE ELIZALDE","lat":-34.8679849333079,"lng":-56.33418581560574,"code":"647"},{"seq":42,"id":"648","name":"CAP PEDRO DE MESA Y CASTRO esq. RAMÓN CLAIRAC","lat":-34.86968932922117,"lng":-56.331027639784494,"code":"648"},{"seq":43,"id":"649","name":"CAP PEDRO DE MESA Y CASTRO esq. FRANCISCO GIL LEMOS","lat":-34.86833464035788,"lng":-56.33251261579379,"code":"649"},{"seq":44,"id":"650","name":"CAP PEDRO DE MESA Y CASTRO esq. AV CAP LEAL DE IBARRA","lat":-34.86727297660405,"lng":-56.335276804310304,"code":"650"},{"seq":45,"id":"651","name":"AV CAP LEAL DE IBARRA esq. BERNARDO BONAVIA","lat":-34.86833557282511,"lng":-56.3367928046357,"code":"651"},{"seq":46,"id":"5035","name":"RBLA PUERTO SOLEDAD DE MALVINAS esq. AV CAP LEAL DE IBARRA","lat":-34.87071765570399,"lng":-56.33929442401716,"code":"5035"}]}