{"0":[{"seq":1,"id":"4843","name":"DR PEDRO CASTELLINO esq. TURQUIA","lat":-34.87331449578367,"lng":-56.24994058065089,"code":"4843"},{"seq":2,"id":"4776","name":"JAPON esq. VIGO","lat":-34.87467209400156,"lng":-56.24788565268965,"code":"4776"},{"seq":3,"id":"1562","name":"RUTA NAL DR HUGO BATALLA esq. LEONARDO OLIVERA","lat":-34.87246487178433,"lng":-56.2397000645094,"code":"1562"},{"seq":4,"id":"1563","name":"LEONARDO OLIVERA esq. DR MARTIN BERINDUAGUE","lat":-34.8741053752645,"lng":-56.23814465039943,"code":"1563"},{"seq":5,"id":"4379","name":"EMILIO ROMERO esq. CAMAMBU","lat":-34.873786878163536,"lng":-56.23572614418827,"code":"4379"},{"seq":6,"id":"1564","name":"RBLA DR BALTASAR BRUM esq. HUMBOLDT","lat":-34.87230559774284,"lng":-56.232554911747336,"code":"1564"},{"seq":7,"id":"1502","name":"EMILIO ROMERO esq. HUMBOLDT","lat":-34.87142520191784,"lng":-56.232772281707646,"code":"1502"},{"seq":8,"id":"1503","name":"EMILIO ROMERO esq. JOSE CASTRO","lat":-34.869858267938596,"lng":-56.230927469158985,"code":"1503"},{"seq":9,"id":"1504","name":"EMILIO ROMERO esq. HILARIO ASCASUBI","lat":-34.86849261389847,"lng":-56.22927109280198,"code":"1504"},{"seq":10,"id":"1505","name":"EMILIO ROMERO esq. CARLOS TELLIER","lat":-34.86716925539146,"lng":-56.227653108923796,"code":"1505"},{"seq":11,"id":"1506","name":"EMILIO ROMERO esq. FLORENTINO AMEGHINO","lat":-34.86599362850947,"lng":-56.22617778437249,"code":"1506"},{"seq":12,"id":"1507","name":"EMILIO ROMERO esq. PEDRO CELESTINO BAUZA","lat":-34.86467361682303,"lng":-56.22451996685236,"code":"1507"},{"seq":13,"id":"1508","name":"EMILIO ROMERO esq. CONCILIACION","lat":-34.86325429332383,"lng":-56.22286019721557,"code":"1508"},{"seq":14,"id":"1509","name":"EMILIO ROMERO esq. CAYETANO RIVAS","lat":-34.86200692007929,"lng":-56.22130192817827,"code":"1509"},{"seq":15,"id":"1510","name":"CAYETANO RIVAS esq. LUIS DE LA PEÑA","lat":-34.86305028197714,"lng":-56.21969691235389,"code":"1510"},{"seq":16,"id":"1488","name":"CAYETANO RIVAS esq. ANGEL SALVO","lat":-34.86420287201531,"lng":-56.21832627330626,"code":"1488"},{"seq":17,"id":"1489","name":"ANGEL SALVO esq. BV MANUEL HERRERA Y OBES","lat":-34.863694765797305,"lng":-56.2173089430749,"code":"1489"},{"seq":18,"id":"1490","name":"ANGEL SALVO esq. CARLOS DE LA VEGA","lat":-34.861864570131,"lng":-56.215206538019814,"code":"1490"},{"seq":19,"id":"6379","name":"ANGEL SALVO esq. AV AGRACIADA","lat":-34.861195664249095,"lng":-56.21423587208796,"code":"6379"},{"seq":20,"id":"1566","name":"AV AGRACIADA esq. SAN MIGUEL","lat":-34.860110573974154,"lng":-56.21512618792531,"code":"1566"},{"seq":21,"id":"1567","name":"AV AGRACIADA esq. JUAN ANTONIO ARTIGAS","lat":-34.85791889811781,"lng":-56.218021744301836,"code":"1567"},{"seq":22,"id":"1145","name":"AV AGRACIADA esq. JOSE B FREIRE","lat":-34.85623986691799,"lng":-56.220152389011396,"code":"1145"}],"1":[{"seq":1,"id":"1568","name":"AV AGRACIADA esq. JOSE B FREIRE","lat":-34.856091460818575,"lng":-56.220543735711516,"code":"1568"},{"seq":2,"id":"1569","name":"AV AGRACIADA esq. JUAN ANTONIO ARTIGAS","lat":-34.857792380402444,"lng":-56.2184672267529,"code":"1569"},{"seq":3,"id":"4212","name":"AV AGRACIADA esq. SAN MIGUEL","lat":-34.86072842458384,"lng":-56.214697548667516,"code":"4212"},{"seq":4,"id":"1484","name":"ANGEL SALVO esq. CARLOS DE LA VEGA","lat":-34.86194822735899,"lng":-56.21550605576169,"code":"1484"},{"seq":5,"id":"1485","name":"ANGEL SALVO esq. BV MANUEL HERRERA Y OBES","lat":-34.86302982464595,"lng":-56.21679348658432,"code":"1485"},{"seq":6,"id":"1487","name":"ANGEL SALVO esq. CAYETANO RIVAS","lat":-34.86450377444457,"lng":-56.218561792258676,"code":"1487"},{"seq":7,"id":"1491","name":"FRATERNIDAD esq. LUIS DE LA PEÑA","lat":-34.86384139115046,"lng":-56.2202356057651,"code":"1491"},{"seq":8,"id":"1492","name":"FRATERNIDAD esq. EMILIO ROMERO","lat":-34.86254345163654,"lng":-56.22178839693891,"code":"1492"},{"seq":9,"id":"1494","name":"DR MARTIN BERINDUAGUE esq. CONCILIACION","lat":-34.862344649317784,"lng":-56.22342710326306,"code":"1494"},{"seq":10,"id":"1495","name":"DR MARTIN BERINDUAGUE esq. PEDRO CELESTINO BAUZA","lat":-34.86356075207296,"lng":-56.224941566518424,"code":"1495"},{"seq":11,"id":"1496","name":"DR MARTIN BERINDUAGUE esq. FLORENTINO AMEGHINO","lat":-34.86481444600308,"lng":-56.22648798995912,"code":"1496"},{"seq":12,"id":"1497","name":"DR MARTIN BERINDUAGUE esq. CARLOS TELLIER","lat":-34.866173526158924,"lng":-56.22817764056701,"code":"1497"},{"seq":13,"id":"1498","name":"DR MARTIN BERINDUAGUE esq. HILARIO ASCASUBI","lat":-34.86743170187089,"lng":-56.22971821524776,"code":"1498"},{"seq":14,"id":"1499","name":"DR MARTIN BERINDUAGUE esq. JOSE CASTRO","lat":-34.868766915292234,"lng":-56.23131436328087,"code":"1499"},{"seq":15,"id":"1500","name":"DR MARTIN BERINDUAGUE esq. HEREDIA","lat":-34.86996788712904,"lng":-56.23282777962494,"code":"1500"},{"seq":16,"id":"1501","name":"HUMBOLDT esq. EMILIO ROMERO","lat":-34.87139695773306,"lng":-56.23351221838868,"code":"1501"},{"seq":17,"id":"4717","name":"RUTA NAL DR HUGO BATALLA esq. HUMBOLDT","lat":-34.87216753245609,"lng":-56.23276758779265,"code":"4717"},{"seq":18,"id":"1559","name":"EMILIO ROMERO esq. CAMAMBU","lat":-34.87342435080979,"lng":-56.23544105840437,"code":"1559"},{"seq":19,"id":"1560","name":"LEONARDO OLIVERA esq. DR MARTIN BERINDUAGUE","lat":-34.87427386837491,"lng":-56.23782965852692,"code":"1560"},{"seq":20,"id":"6344","name":"LEONARDO OLIVERA esq. BENITO RIQUE","lat":-34.87299156683263,"lng":-56.23923563226449,"code":"6344"},{"seq":21,"id":"4815","name":"AV CARLOS MARIA RAMIREZ esq. VIGO","lat":-34.873577827708786,"lng":-56.247690116750995,"code":"4815"},{"seq":22,"id":"4925","name":"DR PEDRO CASTELLINO esq. DR RAUL MORETTI","lat":-34.87323947810137,"lng":-56.249403424783246,"code":"4925"}]}