{"0":[{"seq":1,"id":"5289","name":"LOS AROMOS esq. CALLE FICTICIA","lat":-34.77038101453676,"lng":-56.025256204595635,"code":"5289"},{"seq":2,"id":"5290","name":"T BERRETA esq. C","lat":-34.77155949600397,"lng":-56.02646249740673,"code":"5290"},{"seq":3,"id":"5291","name":"E REGULES esq. VIEJO PANCHO","lat":-34.77262964839679,"lng":-56.029219107843225,"code":"5291"},{"seq":4,"id":"5292","name":"RUTA NAL 8 BRIG GRAL J A LAVALLEJA esq. CNO DEL ORIENTE","lat":-34.774984461738256,"lng":-56.03713682362965,"code":"5292"},{"seq":5,"id":"5293","name":"RUTA NAL 8 BRIG GRAL J A LAVALLEJA esq. CNO CARLOS DENIS MOLINA","lat":-34.775816239860994,"lng":-56.039921549973315,"code":"5293"},{"seq":6,"id":"2510","name":"RUTA NAL 8 BRIG GRAL J A LAVALLEJA esq. BOYERO","lat":-34.7761884130473,"lng":-56.04463819013954,"code":"2510"},{"seq":7,"id":"2511","name":"RUTA NAL 8 BRIG GRAL J A LAVALLEJA esq. HERCULES","lat":-34.775929317656555,"lng":-56.048354635271004,"code":"2511"},{"seq":8,"id":"2512","name":"RUTA NAL 8 BRIG GRAL J A LAVALLEJA esq. CNO MELCHOR DE VIANA","lat":-34.77600569764192,"lng":-56.0523387824875,"code":"2512"},{"seq":9,"id":"2513","name":"RUTA NAL 8 BRIG GRAL J A LAVALLEJA esq. SELENE","lat":-34.77815999354353,"lng":-56.055994270464886,"code":"2513"},{"seq":10,"id":"2514","name":"RUTA NAL 8 BRIG GRAL J A LAVALLEJA esq. CNO LAS PLEYADES","lat":-34.781255657549636,"lng":-56.060131898192836,"code":"2514"},{"seq":11,"id":"2515","name":"RUTA NAL 8 BRIG GRAL J A LAVALLEJA esq. CNO DR LAUDELINO VAZQUEZ","lat":-34.78586867341354,"lng":-56.0624761200422,"code":"2515"},{"seq":12,"id":"2516","name":"RUTA NAL 8 BRIG GRAL J A LAVALLEJA esq. PSJE 9","lat":-34.79008635337467,"lng":-56.06686551989216,"code":"2516"},{"seq":13,"id":"2518","name":"RUTA NAL 8 BRIG GRAL J A LAVALLEJA esq. CNO DE LAS PALMERAS","lat":-34.792176565069354,"lng":-56.07025753686713,"code":"2518"},{"seq":14,"id":"5199","name":"RUTA NAL 8 BRIG GRAL J A LAVALLEJA esq. RUTA NAL 102 WILSON F ALDUNATE","lat":-34.79524701842289,"lng":-56.07604510231562,"code":"5199"},{"seq":15,"id":"2519","name":"RUTA NAL 8 BRIG GRAL J A LAVALLEJA esq. ANGEL ZANELLI","lat":-34.79755472205898,"lng":-56.08007630835244,"code":"2519"},{"seq":16,"id":"2520","name":"RUTA NAL 8 BRIG GRAL J A LAVALLEJA esq. GIANINO CASTIGLIONI","lat":-34.79950181880136,"lng":-56.083743252102295,"code":"2520"},{"seq":17,"id":"2521","name":"RUTA NAL 8 BRIG GRAL J A LAVALLEJA esq. CNO SANTOS DUMONT","lat":-34.80131461392627,"lng":-56.08680741216741,"code":"2521"},{"seq":18,"id":"6153","name":"RUTA NAL 8 BRIG GRAL J A LAVALLEJA esq. PSJE P","lat":-34.80342984127239,"lng":-56.08854887201836,"code":"6153"},{"seq":19,"id":"2522","name":"RUTA NAL 8 BRIG GRAL J A LAVALLEJA esq. MIGUEL ESTEVEZ","lat":-34.807543272055604,"lng":-56.09135917283711,"code":"2522"},{"seq":20,"id":"2523","name":"RUTA NAL 8 BRIG GRAL J A LAVALLEJA esq. FRANCISCO RODRIGUEZ","lat":-34.809800589478385,"lng":-56.093515957400136,"code":"2523"},{"seq":21,"id":"2524","name":"RUTA NAL 8 BRIG GRAL J A LAVALLEJA esq. CNO GRAL LEANDRO GOMEZ","lat":-34.812985672338215,"lng":-56.095807591073424,"code":"2524"},{"seq":22,"id":"2022","name":"RUTA NAL 8 BRIG GRAL J A LAVALLEJA esq. PLUTON","lat":-34.816423245382694,"lng":-56.09764057494689,"code":"2022"},{"seq":23,"id":"2023","name":"RUTA NAL 8 BRIG GRAL J A LAVALLEJA esq. ALBERT EINSTEIN","lat":-34.820059438181815,"lng":-56.09959753166687,"code":"2023"},{"seq":24,"id":"2525","name":"RUTA NAL 8 BRIG GRAL J A LAVALLEJA esq. CNO GUERRA","lat":-34.824050968927466,"lng":-56.10173410997161,"code":"2525"},{"seq":25,"id":"2526","name":"CNO MALDONADO esq. ESTEPONA","lat":-34.82594736433224,"lng":-56.10447769835574,"code":"2526"},{"seq":26,"id":"2527","name":"CNO MALDONADO esq. MARBELLA","lat":-34.827447353791676,"lng":-56.107178506169326,"code":"2527"},{"seq":27,"id":"2528","name":"CNO MALDONADO esq. RBLA COSTANERA (8363)","lat":-34.82834833086289,"lng":-56.10869158217995,"code":"2528"},{"seq":28,"id":"2529","name":"CNO MALDONADO esq. ROSARIO","lat":-34.830744778251436,"lng":-56.11020230491621,"code":"2529"},{"seq":29,"id":"2530","name":"CNO MALDONADO esq. ABIPONES","lat":-34.832562802611825,"lng":-56.111153102046586,"code":"2530"},{"seq":30,"id":"2531","name":"CNO MALDONADO esq. FLORENCIA","lat":-34.83474732333149,"lng":-56.11284261714277,"code":"2531"},{"seq":31,"id":"2532","name":"CNO MALDONADO esq. GENOVA","lat":-34.83616913953484,"lng":-56.11530637400816,"code":"2532"},{"seq":32,"id":"2533","name":"CNO MALDONADO esq. CARLOMAGNO","lat":-34.83688550516868,"lng":-56.116548141473096,"code":"2533"},{"seq":33,"id":"2534","name":"CNO MALDONADO esq. TURIN","lat":-34.83764173621002,"lng":-56.11785390880649,"code":"2534"},{"seq":34,"id":"2535","name":"CNO MALDONADO esq. VENECIA","lat":-34.83919448752373,"lng":-56.12048784311556,"code":"2535"},{"seq":35,"id":"2536","name":"CNO MALDONADO esq. RAFAEL","lat":-34.840219048023876,"lng":-56.122177346053604,"code":"2536"},{"seq":36,"id":"2537","name":"CNO MALDONADO esq. PROY 5188","lat":-34.84099359838511,"lng":-56.12344561738065,"code":"2537"},{"seq":37,"id":"2538","name":"CNO MALDONADO esq. AV DR JUSTINO JIMENEZ DE ARECHAGA","lat":-34.84318155545664,"lng":-56.12503365363455,"code":"2538"},{"seq":38,"id":"2540","name":"CNO MALDONADO esq. OSVALDO CRUZ","lat":-34.84559938424141,"lng":-56.125791609817966,"code":"2540"},{"seq":39,"id":"2541","name":"CNO MALDONADO esq. COCHABAMBA","lat":-34.847391593517834,"lng":-56.12643023347854,"code":"2541"},{"seq":40,"id":"2542","name":"CNO MALDONADO esq. NUEVA ESPERANZA","lat":-34.849361919154525,"lng":-56.12723900656077,"code":"2542"},{"seq":41,"id":"2543","name":"CNO MALDONADO esq. EDUARDO DEPAULI","lat":-34.851206089971555,"lng":-56.12853510530297,"code":"2543"},{"seq":42,"id":"2544","name":"CNO MALDONADO esq. OYARVIDE","lat":-34.852716742203064,"lng":-56.12968908731979,"code":"2544"},{"seq":43,"id":"3209","name":"CNO MALDONADO esq. PIRINEOS","lat":-34.85581462545093,"lng":-56.132222441254804,"code":"3209"},{"seq":44,"id":"2546","name":"AV 8 DE OCTUBRE esq. GDOR VIGODET","lat":-34.85978401582915,"lng":-56.133781062451284,"code":"2546"},{"seq":45,"id":"2547","name":"AV 8 DE OCTUBRE esq. GUEMES","lat":-34.861232812228124,"lng":-56.133862355304956,"code":"2547"},{"seq":46,"id":"2548","name":"AV 8 DE OCTUBRE esq. BELEN","lat":-34.86484952382106,"lng":-56.134119129335,"code":"2548"},{"seq":47,"id":"3215","name":"AV 8 DE OCTUBRE esq. 20 DE FEBRERO","lat":-34.86666295424658,"lng":-56.13432856107471,"code":"3215"},{"seq":48,"id":"3216","name":"AV 8 DE OCTUBRE esq. GRAL JOSE VILLAGRAN","lat":-34.86838630828098,"lng":-56.134676268514994,"code":"3216"},{"seq":49,"id":"2549","name":"AV 8 DE OCTUBRE esq. PASCUAL PALADINO","lat":-34.87029102848811,"lng":-56.135077676173644,"code":"2549"},{"seq":50,"id":"3217","name":"AV 8 DE OCTUBRE esq. DR SILVESTRE PEREZ","lat":-34.87191531382955,"lng":-56.13574628751355,"code":"3217"},{"seq":51,"id":"3219","name":"AV 8 DE OCTUBRE esq. LARRAVIDE","lat":-34.87395367363964,"lng":-56.13876159834367,"code":"3219"},{"seq":52,"id":"3221","name":"AV 8 DE OCTUBRE esq. ING JOSE SERRATO","lat":-34.874990655653676,"lng":-56.140572617741604,"code":"3221"},{"seq":53,"id":"3223","name":"AV 8 DE OCTUBRE esq. COMERCIO","lat":-34.87627522778565,"lng":-56.14278599084306,"code":"3223"},{"seq":54,"id":"3225","name":"AV 8 DE OCTUBRE esq. MARIA STAGNERO DE MUNAR","lat":-34.87745571536765,"lng":-56.14489930041462,"code":"3225"},{"seq":55,"id":"3227","name":"AV 8 DE OCTUBRE esq. BV JOSE BATLLE Y ORDOÑEZ","lat":-34.879068802905614,"lng":-56.14764013374304,"code":"3227"},{"seq":56,"id":"3228","name":"AV 8 DE OCTUBRE esq. AGUSTIN ABREU","lat":-34.88029138219354,"lng":-56.149720706157645,"code":"3228"},{"seq":57,"id":"3230","name":"AV 8 DE OCTUBRE esq. MARIANO MORENO","lat":-34.882479135755474,"lng":-56.153401305888806,"code":"3230"},{"seq":58,"id":"3231","name":"AV 8 DE OCTUBRE esq. PEDRO OLMIDA","lat":-34.88343983930426,"lng":-56.155028201356515,"code":"3231"},{"seq":59,"id":"3232","name":"AV 8 DE OCTUBRE esq. JAIME CIBILS","lat":-34.88480579537606,"lng":-56.15644040525935,"code":"3232"},{"seq":60,"id":"3233","name":"AV 8 DE OCTUBRE esq. JOAQUIN SECCO ILLA","lat":-34.88701094642693,"lng":-56.15826463748792,"code":"3233"},{"seq":61,"id":"4207","name":"AV 8 DE OCTUBRE esq. AV DR MANUEL ALBO","lat":-34.889267971340026,"lng":-56.160165085818605,"code":"4207"},{"seq":62,"id":"3241","name":"AV 8 DE OCTUBRE esq. PTE BERRO","lat":-34.89173301579835,"lng":-56.162234145612594,"code":"3241"},{"seq":63,"id":"4908","name":"AV 18 DE JULIO esq. ALEJANDRO BEISSO","lat":-34.89847619111933,"lng":-56.16745621249768,"code":"4908"},{"seq":64,"id":"4010","name":"AV 18 DE JULIO esq. DR MARTIN C MARTINEZ","lat":-34.90017443034758,"lng":-56.17170930098536,"code":"4010"},{"seq":65,"id":"4012","name":"AV 18 DE JULIO esq. EDUARDO ACEVEDO","lat":-34.90182013897968,"lng":-56.17602714823594,"code":"4012"},{"seq":66,"id":"3912","name":"AV 18 DE JULIO esq. MAGALLANES","lat":-34.90339658352213,"lng":-56.18002063749689,"code":"3912"},{"seq":67,"id":"4015","name":"AV 18 DE JULIO esq. DR JAVIER BARRIOS AMORIN","lat":-34.905051889404696,"lng":-56.18436776996085,"code":"4015"},{"seq":68,"id":"4201","name":"AV 18 DE JULIO esq. YI","lat":-34.90564378026104,"lng":-56.1886779238124,"code":"4201"},{"seq":69,"id":"4017","name":"AV 18 DE JULIO esq. RIO NEGRO","lat":-34.905971092116374,"lng":-56.193131232307,"code":"4017"},{"seq":70,"id":"3914","name":"AV 18 DE JULIO esq. ANDES","lat":-34.90630671174167,"lng":-56.19758515780223,"code":"3914"},{"seq":71,"id":"4756","name":"PLAZA INDEPENDENCIA esq. JUNCAL","lat":-34.90600276437154,"lng":-56.20068911492873,"code":"4756"},{"seq":72,"id":"4757","name":"SANTIAGO DE LINIERS esq. SAN JOSE","lat":-34.90794095397858,"lng":-56.20040761890069,"code":"4757"}],"1":[{"seq":1,"id":"4760","name":"CAMACUA esq. BRECHA","lat":-34.909131171640766,"lng":-56.202805750907814,"code":"4760"},{"seq":2,"id":"4042","name":"BUENOS AIRES esq. BARTOLOME MITRE","lat":-34.9075728222732,"lng":-56.20186348609805,"code":"4042"},{"seq":3,"id":"4019","name":"AV 18 DE JULIO esq. CONVENCION","lat":-34.9064376810355,"lng":-56.19744642487812,"code":"4019"},{"seq":4,"id":"4200","name":"AV 18 DE JULIO esq. RIO NEGRO","lat":-34.90610656083908,"lng":-56.19307162551216,"code":"4200"},{"seq":5,"id":"3178","name":"AV 18 DE JULIO esq. DR AQUILES R LANZA","lat":-34.905770992696844,"lng":-56.18837478493806,"code":"3178"},{"seq":6,"id":"4244","name":"AV 18 DE JULIO esq. VAZQUEZ","lat":-34.905068035280934,"lng":-56.18402959441602,"code":"4244"},{"seq":7,"id":"4203","name":"AV 18 DE JULIO esq. MAGALLANES","lat":-34.90350846594114,"lng":-56.17983622469081,"code":"4203"},{"seq":8,"id":"4245","name":"AV 18 DE JULIO esq. EDUARDO ACEVEDO","lat":-34.9022122562658,"lng":-56.176571787906454,"code":"4245"},{"seq":9,"id":"4004","name":"AV 18 DE JULIO esq. DR PABLO DE MARIA","lat":-34.9003837956575,"lng":-56.17185312915691,"code":"4004"},{"seq":10,"id":"4006","name":"AV 18 DE JULIO esq. ALEJANDRO BEISSO","lat":-34.89885314891614,"lng":-56.16782877465745,"code":"4006"},{"seq":11,"id":"3182","name":"AV 8 DE OCTUBRE esq. PTE BERRO","lat":-34.89145336029218,"lng":-56.1617681298747,"code":"3182"},{"seq":12,"id":"4729","name":"AV 8 DE OCTUBRE esq. AV DR MANUEL ALBO","lat":-34.88997370532067,"lng":-56.16057957245059,"code":"4729"},{"seq":13,"id":"3183","name":"AV 8 DE OCTUBRE esq. JOAQUIN SECCO ILLA","lat":-34.88739153431955,"lng":-56.15839593233466,"code":"3183"},{"seq":14,"id":"3184","name":"AV 8 DE OCTUBRE esq. JAIME CIBILS","lat":-34.88536732469098,"lng":-56.156700248302236,"code":"3184"},{"seq":15,"id":"3185","name":"AV 8 DE OCTUBRE esq. MARIANO MORENO","lat":-34.88343695521986,"lng":-56.15474553472915,"code":"3185"},{"seq":16,"id":"3186","name":"AV 8 DE OCTUBRE esq. MARIANO MORENO","lat":-34.88254548493429,"lng":-56.15325661788515,"code":"3186"},{"seq":17,"id":"4865","name":"AV 8 DE OCTUBRE esq. AGUSTIN ABREU","lat":-34.880096563761015,"lng":-56.14903749622189,"code":"4865"},{"seq":18,"id":"3190","name":"AV 8 DE OCTUBRE esq. MARIA STAGNERO DE MUNAR","lat":-34.87777810434094,"lng":-56.14517249376586,"code":"3190"},{"seq":19,"id":"3192","name":"AV 8 DE OCTUBRE esq. COMERCIO","lat":-34.87657278325702,"lng":-56.14307724477279,"code":"3192"},{"seq":20,"id":"3194","name":"AV 8 DE OCTUBRE esq. ING JOSE SERRATO","lat":-34.87528459898744,"lng":-56.140831799090186,"code":"3194"},{"seq":21,"id":"3196","name":"AV 8 DE OCTUBRE esq. LARRAVIDE","lat":-34.87428930816415,"lng":-56.139077465410594,"code":"3196"},{"seq":22,"id":"3198","name":"AV 8 DE OCTUBRE esq. GRAL FELIX LABORDE","lat":-34.87297634050066,"lng":-56.136798916341505,"code":"3198"},{"seq":23,"id":"3200","name":"AV 8 DE OCTUBRE esq. PAN DE AZUCAR","lat":-34.87163116398456,"lng":-56.13530725344563,"code":"3200"},{"seq":24,"id":"3202","name":"AV 8 DE OCTUBRE esq. GRAL JOSE VILLAGRAN","lat":-34.868925636209205,"lng":-56.13462796274027,"code":"3202"},{"seq":25,"id":"3204","name":"AV 8 DE OCTUBRE esq. RAMON CASTRIZ","lat":-34.86638176561672,"lng":-56.134120110569306,"code":"3204"},{"seq":26,"id":"4890","name":"AV 8 DE OCTUBRE esq. VERA","lat":-34.86436863632206,"lng":-56.133865009495004,"code":"4890"},{"seq":27,"id":"3206","name":"AV 8 DE OCTUBRE esq. LA HABANA","lat":-34.86179113284179,"lng":-56.13374959301082,"code":"3206"},{"seq":28,"id":"3207","name":"AV 8 DE OCTUBRE esq. GDOR VIGODET","lat":-34.8598551625619,"lng":-56.13355965433095,"code":"3207"},{"seq":29,"id":"6091","name":"PROY 6567 esq. PROY 9566","lat":-34.85559570063541,"lng":-56.132703768873974,"code":"6091"},{"seq":30,"id":"2468","name":"CNO MALDONADO esq. OYARVIDE","lat":-34.85311256736188,"lng":-56.12983315032467,"code":"2468"},{"seq":31,"id":"2469","name":"CNO MALDONADO esq. EDUARDO DEPAULI","lat":-34.851468321198425,"lng":-56.12852846132287,"code":"2469"},{"seq":32,"id":"2470","name":"CNO MALDONADO esq. RUBEN DARIO","lat":-34.84992394402093,"lng":-56.127213861299744,"code":"2470"},{"seq":33,"id":"2471","name":"CNO MALDONADO esq. COCHABAMBA","lat":-34.84779875996265,"lng":-56.12642757590408,"code":"2471"},{"seq":34,"id":"2472","name":"CNO MALDONADO esq. CELIAR","lat":-34.84627710910376,"lng":-56.12588455596949,"code":"2472"},{"seq":35,"id":"2473","name":"CNO MALDONADO esq. BARROS ARANA","lat":-34.84447780135814,"lng":-56.125247179958826,"code":"2473"},{"seq":36,"id":"2474","name":"CNO MALDONADO esq. AV DR JUSTINO JIMENEZ DE ARECHAGA","lat":-34.842878071123856,"lng":-56.1247600929634,"code":"2474"},{"seq":37,"id":"2475","name":"CNO MALDONADO esq. PROY 5188","lat":-34.841014854546145,"lng":-56.12310047406303,"code":"2475"},{"seq":38,"id":"2476","name":"CNO MALDONADO esq. VENECIA","lat":-34.83952487677114,"lng":-56.120634790044996,"code":"2476"},{"seq":39,"id":"2477","name":"CNO MALDONADO esq. TURIN","lat":-34.83793492712373,"lng":-56.11794911727441,"code":"2477"},{"seq":40,"id":"2478","name":"CNO MALDONADO esq. SUSANA PINTOS","lat":-34.83719291700653,"lng":-56.11666968312214,"code":"2478"},{"seq":41,"id":"2485","name":"CNO MALDONADO esq. GENOVA","lat":-34.8364799479584,"lng":-56.115402637803705,"code":"2485"},{"seq":42,"id":"2486","name":"CNO MALDONADO esq. FLORENCIA","lat":-34.83504212456469,"lng":-56.112945243596485,"code":"2486"},{"seq":43,"id":"2487","name":"CNO MALDONADO esq. ANDRES LERENA ACEVEDO","lat":-34.83296616504826,"lng":-56.1109995478816,"code":"2487"},{"seq":44,"id":"2488","name":"CNO MALDONADO esq. ROSARIO","lat":-34.831377317641696,"lng":-56.110272003727204,"code":"2488"},{"seq":45,"id":"2489","name":"CNO MALDONADO esq. PSJE 7779","lat":-34.828858423939465,"lng":-56.10888431272545,"code":"2489"},{"seq":46,"id":"2490","name":"CNO MALDONADO esq. MARBELLA","lat":-34.82771814413563,"lng":-56.10732447142728,"code":"2490"},{"seq":47,"id":"2491","name":"CNO MALDONADO esq. ESTEPONA","lat":-34.82629375052372,"lng":-56.10469872096096,"code":"2491"},{"seq":48,"id":"2492","name":"CNO MALDONADO esq. TAURO","lat":-34.82504759273198,"lng":-56.10244761482518,"code":"2492"},{"seq":49,"id":"2493","name":"RUTA NAL 8 BRIG GRAL J A LAVALLEJA esq. ALBERT EINSTEIN","lat":-34.820339978350226,"lng":-56.099435410077795,"code":"2493"},{"seq":50,"id":"4933","name":"RUTA NAL 8 BRIG GRAL J A LAVALLEJA esq. PLUTON","lat":-34.81701806773836,"lng":-56.09764796162056,"code":"4933"},{"seq":51,"id":"2494","name":"RUTA NAL 8 BRIG GRAL J A LAVALLEJA esq. CNO GRAL LEANDRO GOMEZ","lat":-34.812736709204934,"lng":-56.09541228563758,"code":"2494"},{"seq":52,"id":"2495","name":"RUTA NAL 8 BRIG GRAL J A LAVALLEJA esq. FRANCISCO RODRIGUEZ","lat":-34.81036435905157,"lng":-56.093663830488104,"code":"2495"},{"seq":53,"id":"2496","name":"RUTA NAL 8 BRIG GRAL J A LAVALLEJA esq. MIGUEL ESTEVEZ","lat":-34.80760183762611,"lng":-56.09116006680383,"code":"2496"},{"seq":54,"id":"2497","name":"RUTA NAL 8 BRIG GRAL J A LAVALLEJA esq. COSTANERA ARROYO MANGA","lat":-34.80500814506634,"lng":-56.089207156177665,"code":"2497"},{"seq":55,"id":"5282","name":"RUTA NAL 8 BRIG GRAL J A LAVALLEJA esq. MARCELINO CHAMPAGNAT","lat":-34.80228628774978,"lng":-56.087542931118975,"code":"5282"},{"seq":56,"id":"2498","name":"RUTA NAL 8 BRIG GRAL J A LAVALLEJA esq. MARCELINO CHAMPAGNAT","lat":-34.801675170408586,"lng":-56.086990760356436,"code":"2498"},{"seq":57,"id":"2499","name":"RUTA NAL 8 BRIG GRAL J A LAVALLEJA esq. GIANINO CASTIGLIONI","lat":-34.79959982917356,"lng":-56.08345362478662,"code":"2499"},{"seq":58,"id":"2500","name":"RUTA NAL 8 BRIG GRAL J A LAVALLEJA esq. ANGEL ZANELLI","lat":-34.79795703763409,"lng":-56.080346047754865,"code":"2500"},{"seq":59,"id":"2501","name":"RUTA NAL 8 BRIG GRAL J A LAVALLEJA esq. RUTA NAL 102 WILSON F ALDUNATE","lat":-34.79494622671079,"lng":-56.0748479813146,"code":"2501"},{"seq":60,"id":"2502","name":"RUTA NAL 8 BRIG GRAL J A LAVALLEJA esq. RUTA NAL 102 WILSON F ALDUNATE","lat":-34.793199382733164,"lng":-56.07159505199023,"code":"2502"},{"seq":61,"id":"4601","name":"RUTA NAL 8 BRIG GRAL J A LAVALLEJA esq. RUTA NAL 102 WILSON F ALDUNATE","lat":-34.791728151003404,"lng":-56.06888158212303,"code":"4601"},{"seq":62,"id":"2503","name":"RUTA NAL 8 BRIG GRAL J A LAVALLEJA esq. PSJE 9","lat":-34.79003496317529,"lng":-56.06628318103819,"code":"2503"},{"seq":63,"id":"2504","name":"RUTA NAL 8 BRIG GRAL J A LAVALLEJA esq. CNO DR LAUDELINO VAZQUEZ","lat":-34.78636456254252,"lng":-56.06251698676618,"code":"2504"},{"seq":64,"id":"2505","name":"RUTA NAL 8 BRIG GRAL J A LAVALLEJA esq. CNO LAS PLEYADES","lat":-34.78147868764279,"lng":-56.059825675836,"code":"2505"},{"seq":65,"id":"2506","name":"RUTA NAL 8 BRIG GRAL J A LAVALLEJA esq. SELENE","lat":-34.7786190186988,"lng":-56.05628942922242,"code":"2506"},{"seq":66,"id":"2507","name":"RUTA NAL 8 BRIG GRAL J A LAVALLEJA esq. CNO HELIOS","lat":-34.77641557558033,"lng":-56.05286222310512,"code":"2507"},{"seq":67,"id":"2508","name":"RUTA NAL 8 BRIG GRAL J A LAVALLEJA esq. HERCULES","lat":-34.776128587898754,"lng":-56.04893383236835,"code":"2508"},{"seq":68,"id":"5283","name":"RUTA NAL 8 BRIG GRAL J A LAVALLEJA esq. CNO AL PASO HONDO","lat":-34.776397889256664,"lng":-56.04374490333171,"code":"5283"},{"seq":69,"id":"5286","name":"RUTA NAL 8 BRIG GRAL J A LAVALLEJA esq. CNO CARLOS DENIS MOLINA","lat":-34.77595869807333,"lng":-56.039957358101695,"code":"5286"},{"seq":70,"id":"5284","name":"RUTA NAL 8 BRIG GRAL J A LAVALLEJA esq. CIRC INT SIN DENOM","lat":-34.77522603355477,"lng":-56.037415854652444,"code":"5284"},{"seq":71,"id":"5287","name":"RUTA NAL 8 BRIG GRAL J A LAVALLEJA esq. PSJE PLA A PASAJE CENTRAL","lat":-34.774451981385006,"lng":-56.03468578584564,"code":"5287"},{"seq":72,"id":"5285","name":"E REGULES esq. VIEJO PANCHO","lat":-34.77278403648757,"lng":-56.02936598397905,"code":"5285"},{"seq":73,"id":"5288","name":"LOS AROMOS esq. CONT VIEJO PANCHO","lat":-34.770388415505465,"lng":-56.02508786879785,"code":"5288"}]}