{"0":[{"seq":1,"id":"3588","name":"GERONIMO PICCIOLI esq. JUAN JACOBO ROUSSEAU","lat":-34.85771887639638,"lng":-56.134371765461886,"code":"3588"},{"seq":2,"id":"3590","name":"GERONIMO PICCIOLI esq. MANUEL CALLEROS","lat":-34.85634331578885,"lng":-56.13654477322054,"code":"3590"},{"seq":3,"id":"3591","name":"GERONIMO PICCIOLI esq. JULIA AREVALO","lat":-34.85552892271589,"lng":-56.13779849394319,"code":"3591"},{"seq":4,"id":"3583","name":"GERONIMO PICCIOLI esq. OSVALDO CRUZ","lat":-34.853706263449844,"lng":-56.14055027965397,"code":"3583"},{"seq":5,"id":"3581","name":"GERONIMO PICCIOLI esq. FRANCISCO SAINZ ROSAS","lat":-34.85278440060538,"lng":-56.14203344421195,"code":"3581"},{"seq":6,"id":"4740","name":"CNEL JUAN BELINZON esq. CARRERAS NACIONALES","lat":-34.85145466594893,"lng":-56.14282561244562,"code":"4740"},{"seq":7,"id":"2714","name":"CNEL JUAN BELINZON esq. GRONARDO","lat":-34.8498704922915,"lng":-56.14148509554443,"code":"2714"},{"seq":8,"id":"2715","name":"BESARES esq. BERNARDINO DUHALDE","lat":-34.84848911481304,"lng":-56.1415549234859,"code":"2715"},{"seq":9,"id":"2716","name":"BESARES esq. PEDRO PIÑEIRUA","lat":-34.84738311701277,"lng":-56.1433311215412,"code":"2716"},{"seq":10,"id":"4482","name":"AV MARIANO ESTAPE esq. HORACIO ARECO","lat":-34.84564479985858,"lng":-56.144994391630746,"code":"4482"},{"seq":11,"id":"4481","name":"AV MARIANO ESTAPE esq. ALBERTO SUSVIELA GUARCH","lat":-34.84422319662422,"lng":-56.14367398991723,"code":"4481"},{"seq":12,"id":"2706","name":"JOSE MARIA GUERRA esq. FRANCISCO ECHAGOYEN","lat":-34.840548087668566,"lng":-56.1452385117478,"code":"2706"},{"seq":13,"id":"2709","name":"JOSE MARIA GUERRA esq. SAINT BOIS","lat":-34.83992221922744,"lng":-56.146476339662904,"code":"2709"},{"seq":14,"id":"2707","name":"JOSE MARIA GUERRA esq. IGUAZU","lat":-34.83960136977844,"lng":-56.148096743588475,"code":"2707"},{"seq":15,"id":"1962","name":"AV DON PEDRO DE MENDOZA esq. NIAGARA","lat":-34.83650977609737,"lng":-56.14970350669344,"code":"1962"},{"seq":16,"id":"1963","name":"AV DON PEDRO DE MENDOZA esq. BV APARICIO SARAVIA","lat":-34.83411687990034,"lng":-56.151387480748014,"code":"1963"},{"seq":17,"id":"1978","name":"AV DON PEDRO DE MENDOZA esq. JOSE RAMIREZ","lat":-34.83067123764764,"lng":-56.1542100174476,"code":"1978"},{"seq":18,"id":"1979","name":"AV DON PEDRO DE MENDOZA esq. CNO TTE GALEANO","lat":-34.82878856618193,"lng":-56.15456379752585,"code":"1979"},{"seq":19,"id":"1980","name":"AV DON PEDRO DE MENDOZA esq. CNO TTE RINALDI","lat":-34.82555691128002,"lng":-56.15477894826635,"code":"1980"},{"seq":20,"id":"2051","name":"AZOTEA DE LIMA esq. CNO TTE RINALDI","lat":-34.82479879659012,"lng":-56.147477739677626,"code":"2051"},{"seq":21,"id":"5200","name":"CNO TTE RINALDI esq. 1 DE MARZO","lat":-34.82454908993306,"lng":-56.1447456950078,"code":"5200"},{"seq":22,"id":"2039","name":"CNO TTE RINALDI esq. AV JOSE BELLONI","lat":-34.824333763475465,"lng":-56.14127041098459,"code":"2039"},{"seq":23,"id":"2304","name":"AV JOSE BELLONI esq. DUNANT","lat":-34.82604282280419,"lng":-56.141106619289744,"code":"2304"},{"seq":24,"id":"2305","name":"AV JOSE BELLONI esq. JORGE PACHECO","lat":-34.827962434293404,"lng":-56.14118075736272,"code":"2305"},{"seq":25,"id":"2306","name":"AV JOSE BELLONI esq. CNO GRAL LEANDRO GOMEZ","lat":-34.82983549199711,"lng":-56.14101712627064,"code":"2306"},{"seq":26,"id":"2307","name":"AV JOSE BELLONI esq. BV APARICIO SARAVIA","lat":-34.83239549279228,"lng":-56.140485386501446,"code":"2307"},{"seq":27,"id":"2308","name":"AV JOSE BELLONI esq. BERGAMO","lat":-34.83548836323946,"lng":-56.139818644317124,"code":"2308"},{"seq":28,"id":"2309","name":"AV JOSE BELLONI esq. PBRO SILVERIO ANTONIO MARTINEZ","lat":-34.83888517271028,"lng":-56.13844645818851,"code":"2309"},{"seq":29,"id":"2310","name":"AV JOSE BELLONI esq. MODENA","lat":-34.841500724931855,"lng":-56.137074458376794,"code":"2310"},{"seq":30,"id":"2311","name":"AV JOSE BELLONI esq. LISBOA","lat":-34.844655287605285,"lng":-56.13563035917288,"code":"2311"},{"seq":31,"id":"2312","name":"AV JOSE BELLONI esq. ENRIQUE S AGUIAR","lat":-34.84639839513466,"lng":-56.135069249694894,"code":"2312"},{"seq":32,"id":"2313","name":"AV JOSE BELLONI esq. OSVALDO CRUZ","lat":-34.848147192969456,"lng":-56.133896268643596,"code":"2313"},{"seq":33,"id":"2314","name":"AV JOSE BELLONI esq. PSJE 135","lat":-34.849428042579625,"lng":-56.13329299813639,"code":"2314"},{"seq":34,"id":"6195","name":"AV JOSE BELLONI esq. ROMA","lat":-34.852188062959456,"lng":-56.13291164746825,"code":"6195"},{"seq":35,"id":"6194","name":"PROY 6567 esq. PROY 9566","lat":-34.8556099170652,"lng":-56.132839495566216,"code":"6194"},{"seq":36,"id":"2546","name":"AV 8 DE OCTUBRE esq. GDOR VIGODET","lat":-34.85978401582915,"lng":-56.133781062451284,"code":"2546"},{"seq":37,"id":"2547","name":"AV 8 DE OCTUBRE esq. GUEMES","lat":-34.861232812228124,"lng":-56.133862355304956,"code":"2547"},{"seq":38,"id":"2548","name":"AV 8 DE OCTUBRE esq. BELEN","lat":-34.86484952382106,"lng":-56.134119129335,"code":"2548"},{"seq":39,"id":"3215","name":"AV 8 DE OCTUBRE esq. 20 DE FEBRERO","lat":-34.86666295424658,"lng":-56.13432856107471,"code":"3215"},{"seq":40,"id":"3216","name":"AV 8 DE OCTUBRE esq. GRAL JOSE VILLAGRAN","lat":-34.86838630828098,"lng":-56.134676268514994,"code":"3216"},{"seq":41,"id":"2549","name":"AV 8 DE OCTUBRE esq. PASCUAL PALADINO","lat":-34.87029102848811,"lng":-56.135077676173644,"code":"2549"},{"seq":42,"id":"3217","name":"AV 8 DE OCTUBRE esq. DR SILVESTRE PEREZ","lat":-34.87191531382955,"lng":-56.13574628751355,"code":"3217"},{"seq":43,"id":"3219","name":"AV 8 DE OCTUBRE esq. LARRAVIDE","lat":-34.87395367363964,"lng":-56.13876159834367,"code":"3219"},{"seq":44,"id":"3221","name":"AV 8 DE OCTUBRE esq. ING JOSE SERRATO","lat":-34.874990655653676,"lng":-56.140572617741604,"code":"3221"},{"seq":45,"id":"3223","name":"AV 8 DE OCTUBRE esq. COMERCIO","lat":-34.87627522778565,"lng":-56.14278599084306,"code":"3223"},{"seq":46,"id":"3225","name":"AV 8 DE OCTUBRE esq. MARIA STAGNERO DE MUNAR","lat":-34.87745571536765,"lng":-56.14489930041462,"code":"3225"},{"seq":47,"id":"3227","name":"AV 8 DE OCTUBRE esq. BV JOSE BATLLE Y ORDOÑEZ","lat":-34.879068802905614,"lng":-56.14764013374304,"code":"3227"},{"seq":48,"id":"3228","name":"AV 8 DE OCTUBRE esq. AGUSTIN ABREU","lat":-34.88029138219354,"lng":-56.149720706157645,"code":"3228"},{"seq":49,"id":"3230","name":"AV 8 DE OCTUBRE esq. MARIANO MORENO","lat":-34.882479135755474,"lng":-56.153401305888806,"code":"3230"},{"seq":50,"id":"3231","name":"AV 8 DE OCTUBRE esq. PEDRO OLMIDA","lat":-34.88343983930426,"lng":-56.155028201356515,"code":"3231"},{"seq":51,"id":"3232","name":"AV 8 DE OCTUBRE esq. JAIME CIBILS","lat":-34.88480579537606,"lng":-56.15644040525935,"code":"3232"},{"seq":52,"id":"3233","name":"AV 8 DE OCTUBRE esq. JOAQUIN SECCO ILLA","lat":-34.88701094642693,"lng":-56.15826463748792,"code":"3233"},{"seq":53,"id":"4207","name":"AV 8 DE OCTUBRE esq. AV DR MANUEL ALBO","lat":-34.889267971340026,"lng":-56.160165085818605,"code":"4207"},{"seq":54,"id":"3241","name":"AV 8 DE OCTUBRE esq. PTE BERRO","lat":-34.89173301579835,"lng":-56.162234145612594,"code":"3241"},{"seq":55,"id":"4908","name":"AV 18 DE JULIO esq. ALEJANDRO BEISSO","lat":-34.89847619111933,"lng":-56.16745621249768,"code":"4908"},{"seq":56,"id":"4010","name":"AV 18 DE JULIO esq. DR MARTIN C MARTINEZ","lat":-34.90017443034758,"lng":-56.17170930098536,"code":"4010"},{"seq":57,"id":"4012","name":"AV 18 DE JULIO esq. EDUARDO ACEVEDO","lat":-34.90182013897968,"lng":-56.17602714823594,"code":"4012"},{"seq":58,"id":"3912","name":"AV 18 DE JULIO esq. MAGALLANES","lat":-34.90339658352213,"lng":-56.18002063749689,"code":"3912"},{"seq":59,"id":"4015","name":"AV 18 DE JULIO esq. DR JAVIER BARRIOS AMORIN","lat":-34.905051889404696,"lng":-56.18436776996085,"code":"4015"},{"seq":60,"id":"4201","name":"AV 18 DE JULIO esq. YI","lat":-34.90564378026104,"lng":-56.1886779238124,"code":"4201"},{"seq":61,"id":"4017","name":"AV 18 DE JULIO esq. RIO NEGRO","lat":-34.905971092116374,"lng":-56.193131232307,"code":"4017"},{"seq":62,"id":"3914","name":"AV 18 DE JULIO esq. ANDES","lat":-34.90630671174167,"lng":-56.19758515780223,"code":"3914"},{"seq":63,"id":"5124","name":"CIUDADELA esq. RINCON","lat":-34.90511450974196,"lng":-56.199973788480676,"code":"5124"},{"seq":64,"id":"6987","name":"25 DE MAYO esq. JUNCAL","lat":-34.904319303555496,"lng":-56.20136421430059,"code":"6987"},{"seq":65,"id":"4763","name":"CERRITO esq. BARTOLOME MITRE","lat":-34.90400477623158,"lng":-56.203070088466596,"code":"4763"},{"seq":66,"id":"4764","name":"CERRITO esq. TREINTA Y TRES","lat":-34.904920052752594,"lng":-56.20578257890794,"code":"4764"},{"seq":67,"id":"4765","name":"CERRITO esq. ZABALA","lat":-34.90561830689571,"lng":-56.207879137519804,"code":"4765"},{"seq":68,"id":"4773","name":"CERRITO esq. PEREZ CASTELLANO","lat":-34.906624007542774,"lng":-56.21085086685308,"code":"4773"},{"seq":69,"id":"4774","name":"CERRITO esq. JUAN LINDOLFO CUESTAS","lat":-34.90753583985315,"lng":-56.2136045742601,"code":"4774"}],"1":[{"seq":1,"id":"4929","name":"JUAN LINDOLFO CUESTAS esq. WASHINGTON","lat":-34.90912286787016,"lng":-56.21332952460498,"code":"4929"},{"seq":2,"id":"4769","name":"BUENOS AIRES esq. GUARANI","lat":-34.91047979456778,"lng":-56.21094004617812,"code":"4769"},{"seq":3,"id":"4770","name":"BUENOS AIRES esq. COLON","lat":-34.909782251374686,"lng":-56.20880318576354,"code":"4770"},{"seq":4,"id":"4771","name":"BUENOS AIRES esq. MISIONES","lat":-34.908738679799676,"lng":-56.20565920081309,"code":"4771"},{"seq":5,"id":"4772","name":"BUENOS AIRES esq. ITUZAINGO","lat":-34.908139826603445,"lng":-56.20369061101104,"code":"4772"},{"seq":6,"id":"4019","name":"AV 18 DE JULIO esq. CONVENCION","lat":-34.9064376810355,"lng":-56.19744642487812,"code":"4019"},{"seq":7,"id":"4200","name":"AV 18 DE JULIO esq. RIO NEGRO","lat":-34.90610656083908,"lng":-56.19307162551216,"code":"4200"},{"seq":8,"id":"3178","name":"AV 18 DE JULIO esq. DR AQUILES R LANZA","lat":-34.905770992696844,"lng":-56.18837478493806,"code":"3178"},{"seq":9,"id":"4244","name":"AV 18 DE JULIO esq. VAZQUEZ","lat":-34.905068035280934,"lng":-56.18402959441602,"code":"4244"},{"seq":10,"id":"4203","name":"AV 18 DE JULIO esq. MAGALLANES","lat":-34.90350846594114,"lng":-56.17983622469081,"code":"4203"},{"seq":11,"id":"4245","name":"AV 18 DE JULIO esq. EDUARDO ACEVEDO","lat":-34.9022122562658,"lng":-56.176571787906454,"code":"4245"},{"seq":12,"id":"4004","name":"AV 18 DE JULIO esq. DR PABLO DE MARIA","lat":-34.9003837956575,"lng":-56.17185312915691,"code":"4004"},{"seq":13,"id":"4006","name":"AV 18 DE JULIO esq. ALEJANDRO BEISSO","lat":-34.89885314891614,"lng":-56.16782877465745,"code":"4006"},{"seq":14,"id":"3182","name":"AV 8 DE OCTUBRE esq. PTE BERRO","lat":-34.89145336029218,"lng":-56.1617681298747,"code":"3182"},{"seq":15,"id":"4729","name":"AV 8 DE OCTUBRE esq. AV DR MANUEL ALBO","lat":-34.88997370532067,"lng":-56.16057957245059,"code":"4729"},{"seq":16,"id":"3183","name":"AV 8 DE OCTUBRE esq. JOAQUIN SECCO ILLA","lat":-34.88739153431955,"lng":-56.15839593233466,"code":"3183"},{"seq":17,"id":"3184","name":"AV 8 DE OCTUBRE esq. JAIME CIBILS","lat":-34.88536732469098,"lng":-56.156700248302236,"code":"3184"},{"seq":18,"id":"3185","name":"AV 8 DE OCTUBRE esq. MARIANO MORENO","lat":-34.88343695521986,"lng":-56.15474553472915,"code":"3185"},{"seq":19,"id":"3186","name":"AV 8 DE OCTUBRE esq. MARIANO MORENO","lat":-34.88254548493429,"lng":-56.15325661788515,"code":"3186"},{"seq":20,"id":"4865","name":"AV 8 DE OCTUBRE esq. AGUSTIN ABREU","lat":-34.880096563761015,"lng":-56.14903749622189,"code":"4865"},{"seq":21,"id":"3190","name":"AV 8 DE OCTUBRE esq. MARIA STAGNERO DE MUNAR","lat":-34.87777810434094,"lng":-56.14517249376586,"code":"3190"},{"seq":22,"id":"3192","name":"AV 8 DE OCTUBRE esq. COMERCIO","lat":-34.87657278325702,"lng":-56.14307724477279,"code":"3192"},{"seq":23,"id":"3194","name":"AV 8 DE OCTUBRE esq. ING JOSE SERRATO","lat":-34.87528459898744,"lng":-56.140831799090186,"code":"3194"},{"seq":24,"id":"3196","name":"AV 8 DE OCTUBRE esq. LARRAVIDE","lat":-34.87428930816415,"lng":-56.139077465410594,"code":"3196"},{"seq":25,"id":"3198","name":"AV 8 DE OCTUBRE esq. GRAL FELIX LABORDE","lat":-34.87297634050066,"lng":-56.136798916341505,"code":"3198"},{"seq":26,"id":"3200","name":"AV 8 DE OCTUBRE esq. PAN DE AZUCAR","lat":-34.87163116398456,"lng":-56.13530725344563,"code":"3200"},{"seq":27,"id":"3202","name":"AV 8 DE OCTUBRE esq. GRAL JOSE VILLAGRAN","lat":-34.868925636209205,"lng":-56.13462796274027,"code":"3202"},{"seq":28,"id":"3204","name":"AV 8 DE OCTUBRE esq. RAMON CASTRIZ","lat":-34.86638176561672,"lng":-56.134120110569306,"code":"3204"},{"seq":29,"id":"4890","name":"AV 8 DE OCTUBRE esq. VERA","lat":-34.86436863632206,"lng":-56.133865009495004,"code":"4890"},{"seq":30,"id":"3206","name":"AV 8 DE OCTUBRE esq. LA HABANA","lat":-34.86179113284179,"lng":-56.13374959301082,"code":"3206"}]}