{"0":[{"seq":1,"id":"5205","name":"RUTA 67 esq. CALLE FICTICIA","lat":-34.716746495117036,"lng":-56.14848460814908,"code":"5205"},{"seq":2,"id":"5206","name":"AV JOSE BELLONI esq. CNO EL SEMBRADOR","lat":-34.72181845925934,"lng":-56.14788334598712,"code":"5206"},{"seq":3,"id":"5207","name":"AV JOSE BELLONI esq. CNO EL SEMBRADOR","lat":-34.72426187202793,"lng":-56.14753720317272,"code":"5207"},{"seq":4,"id":"5208","name":"AV JOSE BELLONI esq. CNO EL SEMBRADOR","lat":-34.72649505646119,"lng":-56.14716896521023,"code":"5208"},{"seq":5,"id":"5209","name":"AV JOSE BELLONI esq. CNO DE LAS COLINAS","lat":-34.73092010093916,"lng":-56.14674644516608,"code":"5209"},{"seq":6,"id":"5210","name":"AV JOSE BELLONI esq. SBRE DE PASO 6530","lat":-34.733919323783645,"lng":-56.14586458643052,"code":"5210"},{"seq":7,"id":"5312","name":"AV JOSE BELLONI esq. SBRE DE PASO 6530","lat":-34.73506531661289,"lng":-56.1454571352897,"code":"5312"},{"seq":8,"id":"2280","name":"AV JOSE BELLONI esq. CNO AMERICA","lat":-34.739061438125034,"lng":-56.14578263590364,"code":"2280"},{"seq":9,"id":"5211","name":"AV JOSE BELLONI esq. CNO TRABAL","lat":-34.74282413507595,"lng":-56.14529513833851,"code":"5211"},{"seq":10,"id":"2281","name":"AV JOSE BELLONI esq. CNO DE LAS COLMENAS","lat":-34.745874800035125,"lng":-56.14296573269015,"code":"2281"},{"seq":11,"id":"2282","name":"AV JOSE BELLONI esq. CNO LOS VIÑEDOS","lat":-34.74873149367457,"lng":-56.1412083914873,"code":"2282"},{"seq":12,"id":"5313","name":"AV JOSE BELLONI esq. CNO LOS VIÑEDOS","lat":-34.749845676600614,"lng":-56.13887273242058,"code":"5313"},{"seq":13,"id":"5797","name":"AV JOSE BELLONI esq. CNO LOS AGRONOMOS","lat":-34.75153728614566,"lng":-56.13669346644994,"code":"5797"},{"seq":14,"id":"5212","name":"AV JOSE BELLONI esq. CNO LOS AGRONOMOS","lat":-34.7527640247282,"lng":-56.1356238421056,"code":"5212"},{"seq":15,"id":"5314","name":"AV JOSE BELLONI esq. CNO LOS AGRONOMOS","lat":-34.75712644103432,"lng":-56.13438935034665,"code":"5314"},{"seq":16,"id":"2283","name":"AV JOSE BELLONI esq. CNO DE LAS TROPAS","lat":-34.75975942116495,"lng":-56.13344963083283,"code":"2283"},{"seq":17,"id":"2284","name":"AV JOSE BELLONI esq. CNO LA CABRA","lat":-34.76382800019414,"lng":-56.13417760769349,"code":"2284"},{"seq":18,"id":"5213","name":"AV JOSE BELLONI esq. CNO LAS TRES MARIAS","lat":-34.76567311133487,"lng":-56.134928271203655,"code":"5213"},{"seq":19,"id":"6752","name":"AV JOSE BELLONI esq. CNO ALTAIR","lat":-34.76920181296937,"lng":-56.13625134305686,"code":"6752"},{"seq":20,"id":"2285","name":"AV JOSE BELLONI esq. CNO RIGEL","lat":-34.77182964010767,"lng":-56.13675784327855,"code":"2285"},{"seq":21,"id":"5214","name":"AV JOSE BELLONI esq. PSJE PASILLO","lat":-34.776132297250776,"lng":-56.137690394081574,"code":"5214"},{"seq":22,"id":"4469","name":"AV JOSE BELLONI esq. CNO REGULO","lat":-34.778203044461755,"lng":-56.13722984316298,"code":"4469"},{"seq":23,"id":"4468","name":"AV JOSE BELLONI esq. AV DE LAS INSTRUCCIONES","lat":-34.781047464918494,"lng":-56.13652988762704,"code":"4468"},{"seq":24,"id":"2286","name":"AV JOSE BELLONI esq. CNO CARLOS LINNEO","lat":-34.78286518560087,"lng":-56.1358667353054,"code":"2286"},{"seq":25,"id":"2287","name":"AV JOSE BELLONI esq. CNO OSVALDO RODRIGUEZ","lat":-34.78576857414778,"lng":-56.136035064676705,"code":"2287"},{"seq":26,"id":"2288","name":"AV JOSE BELLONI esq. CANOPE","lat":-34.78748852140756,"lng":-56.1361217636918,"code":"2288"},{"seq":27,"id":"2289","name":"AV JOSE BELLONI esq. CNO ANTARES","lat":-34.788809645144305,"lng":-56.136195220744774,"code":"2289"},{"seq":28,"id":"2290","name":"AV JOSE BELLONI esq. CNO BENITO BERGES","lat":-34.792121978667616,"lng":-56.136165988772184,"code":"2290"},{"seq":29,"id":"2291","name":"AV JOSE BELLONI esq. CNO FENIX","lat":-34.79496947670704,"lng":-56.13641645434585,"code":"2291"},{"seq":30,"id":"2292","name":"AV JOSE BELLONI esq. CNO LOS TANGERINOS","lat":-34.796893379316984,"lng":-56.13643963001945,"code":"2292"},{"seq":31,"id":"2293","name":"AV JOSE BELLONI esq. CNO ALCOR","lat":-34.80052850106083,"lng":-56.13655795015153,"code":"2293"},{"seq":32,"id":"2294","name":"AV JOSE BELLONI esq. CNO PETIROSSI","lat":-34.802495530392925,"lng":-56.13664095495579,"code":"2294"},{"seq":33,"id":"6678","name":"AV JOSE BELLONI esq. CNO CARLOS A LOPEZ","lat":-34.804093620695255,"lng":-56.13677342658692,"code":"6678"},{"seq":34,"id":"2295","name":"AV JOSE BELLONI esq. AV DE LA ALJABA","lat":-34.80697126444174,"lng":-56.1371338009194,"code":"2295"},{"seq":35,"id":"2296","name":"AV JOSE BELLONI esq. CNO CAP CORALIO C LACOSTA","lat":-34.81043570944888,"lng":-56.13799561385473,"code":"2296"},{"seq":36,"id":"2298","name":"AV JOSE BELLONI esq. PREVISION","lat":-34.81360079559512,"lng":-56.13862390534617,"code":"2298"},{"seq":37,"id":"2299","name":"AV JOSE BELLONI esq. CNO DOMINGO ARENA","lat":-34.81669095217433,"lng":-56.13926673681812,"code":"2299"},{"seq":38,"id":"2300","name":"AV JOSE BELLONI esq. DR BARTOLOME VIGNALE","lat":-34.81897527767823,"lng":-56.13975065937572,"code":"2300"},{"seq":39,"id":"2302","name":"AV JOSE BELLONI esq. CNO CAP MATEO TULA DUFORT","lat":-34.82195054575625,"lng":-56.14039884521282,"code":"2302"},{"seq":40,"id":"2303","name":"AV JOSE BELLONI esq. CNO TTE RINALDI","lat":-34.82405407790142,"lng":-56.14076938181179,"code":"2303"},{"seq":41,"id":"2304","name":"AV JOSE BELLONI esq. DUNANT","lat":-34.82604282280419,"lng":-56.141106619289744,"code":"2304"},{"seq":42,"id":"2305","name":"AV JOSE BELLONI esq. JORGE PACHECO","lat":-34.827962434293404,"lng":-56.14118075736272,"code":"2305"},{"seq":43,"id":"2306","name":"AV JOSE BELLONI esq. CNO GRAL LEANDRO GOMEZ","lat":-34.82983549199711,"lng":-56.14101712627064,"code":"2306"},{"seq":44,"id":"2307","name":"AV JOSE BELLONI esq. BV APARICIO SARAVIA","lat":-34.83239549279228,"lng":-56.140485386501446,"code":"2307"},{"seq":45,"id":"2308","name":"AV JOSE BELLONI esq. BERGAMO","lat":-34.83548836323946,"lng":-56.139818644317124,"code":"2308"},{"seq":46,"id":"2309","name":"AV JOSE BELLONI esq. PBRO SILVERIO ANTONIO MARTINEZ","lat":-34.83888517271028,"lng":-56.13844645818851,"code":"2309"},{"seq":47,"id":"2310","name":"AV JOSE BELLONI esq. MODENA","lat":-34.841500724931855,"lng":-56.137074458376794,"code":"2310"},{"seq":48,"id":"2311","name":"AV JOSE BELLONI esq. LISBOA","lat":-34.844655287605285,"lng":-56.13563035917288,"code":"2311"},{"seq":49,"id":"2312","name":"AV JOSE BELLONI esq. ENRIQUE S AGUIAR","lat":-34.84639839513466,"lng":-56.135069249694894,"code":"2312"},{"seq":50,"id":"2313","name":"AV JOSE BELLONI esq. OSVALDO CRUZ","lat":-34.848147192969456,"lng":-56.133896268643596,"code":"2313"},{"seq":51,"id":"2314","name":"AV JOSE BELLONI esq. PSJE 135","lat":-34.849428042579625,"lng":-56.13329299813639,"code":"2314"},{"seq":52,"id":"6195","name":"AV JOSE BELLONI esq. ROMA","lat":-34.852188062959456,"lng":-56.13291164746825,"code":"6195"},{"seq":53,"id":"6194","name":"PROY 6567 esq. PROY 9566","lat":-34.8556099170652,"lng":-56.132839495566216,"code":"6194"},{"seq":54,"id":"2546","name":"AV 8 DE OCTUBRE esq. GDOR VIGODET","lat":-34.85978401582915,"lng":-56.133781062451284,"code":"2546"},{"seq":55,"id":"2547","name":"AV 8 DE OCTUBRE esq. GUEMES","lat":-34.861232812228124,"lng":-56.133862355304956,"code":"2547"},{"seq":56,"id":"2548","name":"AV 8 DE OCTUBRE esq. BELEN","lat":-34.86484952382106,"lng":-56.134119129335,"code":"2548"},{"seq":57,"id":"3215","name":"AV 8 DE OCTUBRE esq. 20 DE FEBRERO","lat":-34.86666295424658,"lng":-56.13432856107471,"code":"3215"},{"seq":58,"id":"3216","name":"AV 8 DE OCTUBRE esq. GRAL JOSE VILLAGRAN","lat":-34.86838630828098,"lng":-56.134676268514994,"code":"3216"},{"seq":59,"id":"2549","name":"AV 8 DE OCTUBRE esq. PASCUAL PALADINO","lat":-34.87029102848811,"lng":-56.135077676173644,"code":"2549"},{"seq":60,"id":"3217","name":"AV 8 DE OCTUBRE esq. DR SILVESTRE PEREZ","lat":-34.87191531382955,"lng":-56.13574628751355,"code":"3217"},{"seq":61,"id":"3219","name":"AV 8 DE OCTUBRE esq. LARRAVIDE","lat":-34.87395367363964,"lng":-56.13876159834367,"code":"3219"},{"seq":62,"id":"3221","name":"AV 8 DE OCTUBRE esq. ING JOSE SERRATO","lat":-34.874990655653676,"lng":-56.140572617741604,"code":"3221"},{"seq":63,"id":"3223","name":"AV 8 DE OCTUBRE esq. COMERCIO","lat":-34.87627522778565,"lng":-56.14278599084306,"code":"3223"},{"seq":64,"id":"3225","name":"AV 8 DE OCTUBRE esq. MARIA STAGNERO DE MUNAR","lat":-34.87745571536765,"lng":-56.14489930041462,"code":"3225"},{"seq":65,"id":"3227","name":"AV 8 DE OCTUBRE esq. BV JOSE BATLLE Y ORDOÑEZ","lat":-34.879068802905614,"lng":-56.14764013374304,"code":"3227"},{"seq":66,"id":"3228","name":"AV 8 DE OCTUBRE esq. AGUSTIN ABREU","lat":-34.88029138219354,"lng":-56.149720706157645,"code":"3228"},{"seq":67,"id":"3230","name":"AV 8 DE OCTUBRE esq. MARIANO MORENO","lat":-34.882479135755474,"lng":-56.153401305888806,"code":"3230"},{"seq":68,"id":"3231","name":"AV 8 DE OCTUBRE esq. PEDRO OLMIDA","lat":-34.88343983930426,"lng":-56.155028201356515,"code":"3231"},{"seq":69,"id":"3232","name":"AV 8 DE OCTUBRE esq. JAIME CIBILS","lat":-34.88480579537606,"lng":-56.15644040525935,"code":"3232"},{"seq":70,"id":"3233","name":"AV 8 DE OCTUBRE esq. JOAQUIN SECCO ILLA","lat":-34.88701094642693,"lng":-56.15826463748792,"code":"3233"},{"seq":71,"id":"4207","name":"AV 8 DE OCTUBRE esq. AV DR MANUEL ALBO","lat":-34.889267971340026,"lng":-56.160165085818605,"code":"4207"},{"seq":72,"id":"3241","name":"AV 8 DE OCTUBRE esq. PTE BERRO","lat":-34.89173301579835,"lng":-56.162234145612594,"code":"3241"},{"seq":73,"id":"4908","name":"AV 18 DE JULIO esq. ALEJANDRO BEISSO","lat":-34.89847619111933,"lng":-56.16745621249768,"code":"4908"},{"seq":74,"id":"4010","name":"AV 18 DE JULIO esq. DR MARTIN C MARTINEZ","lat":-34.90017443034758,"lng":-56.17170930098536,"code":"4010"},{"seq":75,"id":"4012","name":"AV 18 DE JULIO esq. EDUARDO ACEVEDO","lat":-34.90182013897968,"lng":-56.17602714823594,"code":"4012"},{"seq":76,"id":"3912","name":"AV 18 DE JULIO esq. MAGALLANES","lat":-34.90339658352213,"lng":-56.18002063749689,"code":"3912"},{"seq":77,"id":"4015","name":"AV 18 DE JULIO esq. DR JAVIER BARRIOS AMORIN","lat":-34.905051889404696,"lng":-56.18436776996085,"code":"4015"},{"seq":78,"id":"4201","name":"AV 18 DE JULIO esq. YI","lat":-34.90564378026104,"lng":-56.1886779238124,"code":"4201"},{"seq":79,"id":"4017","name":"AV 18 DE JULIO esq. RIO NEGRO","lat":-34.905971092116374,"lng":-56.193131232307,"code":"4017"},{"seq":80,"id":"3914","name":"AV 18 DE JULIO esq. ANDES","lat":-34.90630671174167,"lng":-56.19758515780223,"code":"3914"},{"seq":81,"id":"4756","name":"PLAZA INDEPENDENCIA esq. JUNCAL","lat":-34.90600276437154,"lng":-56.20068911492873,"code":"4756"},{"seq":82,"id":"4757","name":"SANTIAGO DE LINIERS esq. SAN JOSE","lat":-34.90794095397858,"lng":-56.20040761890069,"code":"4757"}],"1":[{"seq":1,"id":"4760","name":"CAMACUA esq. BRECHA","lat":-34.909131171640766,"lng":-56.202805750907814,"code":"4760"},{"seq":2,"id":"4042","name":"BUENOS AIRES esq. BARTOLOME MITRE","lat":-34.9075728222732,"lng":-56.20186348609805,"code":"4042"},{"seq":3,"id":"4019","name":"AV 18 DE JULIO esq. CONVENCION","lat":-34.9064376810355,"lng":-56.19744642487812,"code":"4019"},{"seq":4,"id":"4200","name":"AV 18 DE JULIO esq. RIO NEGRO","lat":-34.90610656083908,"lng":-56.19307162551216,"code":"4200"},{"seq":5,"id":"3178","name":"AV 18 DE JULIO esq. DR AQUILES R LANZA","lat":-34.905770992696844,"lng":-56.18837478493806,"code":"3178"},{"seq":6,"id":"4244","name":"AV 18 DE JULIO esq. VAZQUEZ","lat":-34.905068035280934,"lng":-56.18402959441602,"code":"4244"},{"seq":7,"id":"4203","name":"AV 18 DE JULIO esq. MAGALLANES","lat":-34.90350846594114,"lng":-56.17983622469081,"code":"4203"},{"seq":8,"id":"4245","name":"AV 18 DE JULIO esq. EDUARDO ACEVEDO","lat":-34.9022122562658,"lng":-56.176571787906454,"code":"4245"},{"seq":9,"id":"4004","name":"AV 18 DE JULIO esq. DR PABLO DE MARIA","lat":-34.9003837956575,"lng":-56.17185312915691,"code":"4004"},{"seq":10,"id":"4006","name":"AV 18 DE JULIO esq. ALEJANDRO BEISSO","lat":-34.89885314891614,"lng":-56.16782877465745,"code":"4006"},{"seq":11,"id":"3182","name":"AV 8 DE OCTUBRE esq. PTE BERRO","lat":-34.89145336029218,"lng":-56.1617681298747,"code":"3182"},{"seq":12,"id":"4729","name":"AV 8 DE OCTUBRE esq. AV DR MANUEL ALBO","lat":-34.88997370532067,"lng":-56.16057957245059,"code":"4729"},{"seq":13,"id":"3183","name":"AV 8 DE OCTUBRE esq. JOAQUIN SECCO ILLA","lat":-34.88739153431955,"lng":-56.15839593233466,"code":"3183"},{"seq":14,"id":"3184","name":"AV 8 DE OCTUBRE esq. JAIME CIBILS","lat":-34.88536732469098,"lng":-56.156700248302236,"code":"3184"},{"seq":15,"id":"3185","name":"AV 8 DE OCTUBRE esq. MARIANO MORENO","lat":-34.88343695521986,"lng":-56.15474553472915,"code":"3185"},{"seq":16,"id":"3186","name":"AV 8 DE OCTUBRE esq. MARIANO MORENO","lat":-34.88254548493429,"lng":-56.15325661788515,"code":"3186"},{"seq":17,"id":"4865","name":"AV 8 DE OCTUBRE esq. AGUSTIN ABREU","lat":-34.880096563761015,"lng":-56.14903749622189,"code":"4865"},{"seq":18,"id":"3190","name":"AV 8 DE OCTUBRE esq. MARIA STAGNERO DE MUNAR","lat":-34.87777810434094,"lng":-56.14517249376586,"code":"3190"},{"seq":19,"id":"3192","name":"AV 8 DE OCTUBRE esq. COMERCIO","lat":-34.87657278325702,"lng":-56.14307724477279,"code":"3192"},{"seq":20,"id":"3194","name":"AV 8 DE OCTUBRE esq. ING JOSE SERRATO","lat":-34.87528459898744,"lng":-56.140831799090186,"code":"3194"},{"seq":21,"id":"3196","name":"AV 8 DE OCTUBRE esq. LARRAVIDE","lat":-34.87428930816415,"lng":-56.139077465410594,"code":"3196"},{"seq":22,"id":"3198","name":"AV 8 DE OCTUBRE esq. GRAL FELIX LABORDE","lat":-34.87297634050066,"lng":-56.136798916341505,"code":"3198"},{"seq":23,"id":"3200","name":"AV 8 DE OCTUBRE esq. PAN DE AZUCAR","lat":-34.87163116398456,"lng":-56.13530725344563,"code":"3200"},{"seq":24,"id":"3202","name":"AV 8 DE OCTUBRE esq. GRAL JOSE VILLAGRAN","lat":-34.868925636209205,"lng":-56.13462796274027,"code":"3202"},{"seq":25,"id":"3204","name":"AV 8 DE OCTUBRE esq. RAMON CASTRIZ","lat":-34.86638176561672,"lng":-56.134120110569306,"code":"3204"},{"seq":26,"id":"4890","name":"AV 8 DE OCTUBRE esq. VERA","lat":-34.86436863632206,"lng":-56.133865009495004,"code":"4890"},{"seq":27,"id":"3206","name":"AV 8 DE OCTUBRE esq. LA HABANA","lat":-34.86179113284179,"lng":-56.13374959301082,"code":"3206"},{"seq":28,"id":"3207","name":"AV 8 DE OCTUBRE esq. GDOR VIGODET","lat":-34.8598551625619,"lng":-56.13355965433095,"code":"3207"},{"seq":29,"id":"6193","name":"PROY 6567 esq. GRONARDO","lat":-34.855505626459795,"lng":-56.132950710445435,"code":"6193"},{"seq":30,"id":"6196","name":"AV JOSE BELLONI esq. MANUEL CALLEROS","lat":-34.85275860027985,"lng":-56.13261377780922,"code":"6196"},{"seq":31,"id":"2315","name":"AV JOSE BELLONI esq. DR ALFONSO LAMAS","lat":-34.85031130759411,"lng":-56.13306346853171,"code":"2315"},{"seq":32,"id":"2316","name":"AV JOSE BELLONI esq. BARROS ARANA","lat":-34.8477633211846,"lng":-56.13382745662526,"code":"2316"},{"seq":33,"id":"2318","name":"AV JOSE BELLONI esq. LISBOA","lat":-34.84516139882295,"lng":-56.135375856358756,"code":"2318"},{"seq":34,"id":"2319","name":"AV JOSE BELLONI esq. MONTECARLO","lat":-34.84200215218081,"lng":-56.13667948425512,"code":"2319"},{"seq":35,"id":"2320","name":"AV JOSE BELLONI esq. LACIO","lat":-34.83959569070281,"lng":-56.1378648912576,"code":"2320"},{"seq":36,"id":"2321","name":"AV JOSE BELLONI esq. AV DR CARLOS NERY","lat":-34.8362803469784,"lng":-56.139377432963045,"code":"2321"},{"seq":37,"id":"2322","name":"AV JOSE BELLONI esq. ATENAS","lat":-34.831957938676794,"lng":-56.14047204287496,"code":"2322"},{"seq":38,"id":"2323","name":"AV JOSE BELLONI esq. CNO GRAL LEANDRO GOMEZ","lat":-34.830175713639264,"lng":-56.140678161801915,"code":"2323"},{"seq":39,"id":"2237","name":"AV JOSE BELLONI esq. CNO TTE GALEANO","lat":-34.82736102101628,"lng":-56.140813076098475,"code":"2237"},{"seq":40,"id":"2238","name":"AV JOSE BELLONI esq. CNO TTE RINALDI","lat":-34.82460829783531,"lng":-56.140641724765445,"code":"2238"},{"seq":41,"id":"2240","name":"AV JOSE BELLONI esq. MATILDE PACHECO DE BATLLE Y ORDOÑEZ","lat":-34.82208131983169,"lng":-56.14002806736636,"code":"2240"},{"seq":42,"id":"2241","name":"AV JOSE BELLONI esq. CLEMENTE RUGGIA","lat":-34.819614786499876,"lng":-56.13954950923659,"code":"2241"},{"seq":43,"id":"2242","name":"AV JOSE BELLONI esq. CNO REPETTO","lat":-34.81708321571878,"lng":-56.139128339588154,"code":"2242"},{"seq":44,"id":"2243","name":"AV JOSE BELLONI esq. PREVISION","lat":-34.81408072606001,"lng":-56.13850155983632,"code":"2243"},{"seq":45,"id":"2245","name":"AV JOSE BELLONI esq. CNO CAP CORALIO C LACOSTA","lat":-34.811493796175256,"lng":-56.13787644124638,"code":"2245"},{"seq":46,"id":"2247","name":"AV JOSE BELLONI esq. AV DE LA ALJABA","lat":-34.807761072629134,"lng":-56.13711703656634,"code":"2247"},{"seq":47,"id":"2248","name":"AV JOSE BELLONI esq. CNO CARLOS A LOPEZ","lat":-34.80541431408284,"lng":-56.13664238903118,"code":"2248"},{"seq":48,"id":"2249","name":"AV JOSE BELLONI esq. CNO PETIROSSI","lat":-34.8029405564004,"lng":-56.13636958221346,"code":"2249"},{"seq":49,"id":"2250","name":"AV JOSE BELLONI esq. CNO ALCOR","lat":-34.80055361758724,"lng":-56.136183329654,"code":"2250"},{"seq":50,"id":"2251","name":"AV JOSE BELLONI esq. CNO LOS TANGERINOS","lat":-34.7974526612544,"lng":-56.13628179112963,"code":"2251"},{"seq":51,"id":"2253","name":"AV JOSE BELLONI esq. CNO BENITO BERGES","lat":-34.7930969737508,"lng":-56.1361107181454,"code":"2253"},{"seq":52,"id":"2254","name":"AV JOSE BELLONI esq. PSJE A","lat":-34.79011954126395,"lng":-56.13595873736616,"code":"2254"},{"seq":53,"id":"2255","name":"AV JOSE BELLONI esq. CANOPE","lat":-34.787455714099806,"lng":-56.13588683496773,"code":"2255"},{"seq":54,"id":"2256","name":"AV JOSE BELLONI esq. CNO OSVALDO RODRIGUEZ","lat":-34.786142622325116,"lng":-56.13582056419268,"code":"2256"},{"seq":55,"id":"2257","name":"AV JOSE BELLONI esq. CNO CARLOS LINNEO","lat":-34.78312183631748,"lng":-56.13574494444116,"code":"2257"},{"seq":56,"id":"4467","name":"AV JOSE BELLONI esq. AV DE LAS INSTRUCCIONES","lat":-34.78186562648531,"lng":-56.136008675115825,"code":"4467"},{"seq":57,"id":"2258","name":"AV JOSE BELLONI esq. CNO REGULO","lat":-34.778514009197934,"lng":-56.13703449800466,"code":"2258"},{"seq":58,"id":"2259","name":"AV JOSE BELLONI esq. PSJE PASILLO","lat":-34.7758141960429,"lng":-56.137284712251926,"code":"2259"},{"seq":59,"id":"2260","name":"AV JOSE BELLONI esq. CNO DE LA PAZ A MENDOZA","lat":-34.773985526523205,"lng":-56.13685606632424,"code":"2260"},{"seq":60,"id":"6753","name":"AV JOSE BELLONI esq. CNO ALTAIR","lat":-34.76931438990977,"lng":-56.135936293793165,"code":"6753"},{"seq":61,"id":"2261","name":"AV JOSE BELLONI esq. CNO LAS TRES MARIAS","lat":-34.766324803739664,"lng":-56.13489028559145,"code":"2261"},{"seq":62,"id":"2262","name":"AV JOSE BELLONI esq. CNO LA CABRA","lat":-34.764170089825505,"lng":-56.13410364815886,"code":"2262"},{"seq":63,"id":"2263","name":"AV JOSE BELLONI esq. CNO DE LAS TROPAS","lat":-34.75995282101288,"lng":-56.13335342255278,"code":"2263"},{"seq":64,"id":"2265","name":"AV JOSE BELLONI esq. CNO LOS AGRONOMOS","lat":-34.7534976397378,"lng":-56.13487646803341,"code":"2265"},{"seq":65,"id":"5796","name":"AV JOSE BELLONI esq. CNO LOS AGRONOMOS","lat":-34.751667998857975,"lng":-56.136491110152285,"code":"5796"},{"seq":66,"id":"2266","name":"AV JOSE BELLONI esq. CNO LOS VIÑEDOS","lat":-34.74983356908468,"lng":-56.13868209115008,"code":"2266"},{"seq":67,"id":"2267","name":"AV JOSE BELLONI esq. CNO LOS VIÑEDOS","lat":-34.74899363915556,"lng":-56.14076468763609,"code":"2267"},{"seq":68,"id":"2268","name":"AV JOSE BELLONI esq. CNO DE LAS COLMENAS","lat":-34.746022918842456,"lng":-56.142369129434194,"code":"2268"},{"seq":69,"id":"2269","name":"AV JOSE BELLONI esq. SBRE DE PASO 9447","lat":-34.745873972959764,"lng":-56.144037798196756,"code":"2269"},{"seq":70,"id":"2270","name":"AV JOSE BELLONI esq. CNO TRABAL","lat":-34.74306403754094,"lng":-56.145160521093175,"code":"2270"},{"seq":71,"id":"2271","name":"AV JOSE BELLONI esq. CNO AMERICA","lat":-34.73948131354374,"lng":-56.14566274365842,"code":"2271"},{"seq":72,"id":"2272","name":"AV JOSE BELLONI esq. CNO AMERICA","lat":-34.738122323121196,"lng":-56.14581811519799,"code":"2272"},{"seq":73,"id":"2273","name":"AV JOSE BELLONI esq. SBRE DE PASO 6530","lat":-34.73421124612481,"lng":-56.14564942658433,"code":"2273"},{"seq":74,"id":"2274","name":"AV JOSE BELLONI esq. CNO EL LABRADOR","lat":-34.7311416338601,"lng":-56.14653115394774,"code":"2274"},{"seq":75,"id":"2276","name":"AV JOSE BELLONI esq. CNO EL SEMBRADOR","lat":-34.726792891468115,"lng":-56.14707081857033,"code":"2276"},{"seq":76,"id":"2277","name":"AV JOSE BELLONI esq. CNO EL SEMBRADOR","lat":-34.72450129972489,"lng":-56.14740572936058,"code":"2277"},{"seq":77,"id":"2278","name":"AV JOSE BELLONI esq. CNO EL SEMBRADOR","lat":-34.72197970543679,"lng":-56.1477608537411,"code":"2278"},{"seq":78,"id":"5205","name":"RUTA 67 esq. CALLE FICTICIA","lat":-34.716746495117036,"lng":-56.14848460814908,"code":"5205"}]}