{"0":[{"seq":1,"id":"3413","name":"RBLA O´HIGGINS esq. AV 18 DE DICIEMBRE","lat":-34.89591664603591,"lng":-56.10492646840384,"code":"3413"},{"seq":2,"id":"3009","name":"HIPOLITO YRIGOYEN esq. ALMERIA","lat":-34.89469584038257,"lng":-56.107813502394094,"code":"3009"},{"seq":3,"id":"3010","name":"HIPOLITO YRIGOYEN esq. AV GRAL RIVERA","lat":-34.891466373316426,"lng":-56.108793962131955,"code":"3010"},{"seq":4,"id":"3011","name":"HIPOLITO YRIGOYEN esq. AV ESTANISLAO LOPEZ","lat":-34.8885470550027,"lng":-56.10970150092171,"code":"3011"},{"seq":5,"id":"4839","name":"HIPOLITO YRIGOYEN esq. OVIEDO","lat":-34.88733564383804,"lng":-56.11000280848157,"code":"4839"},{"seq":6,"id":"2913","name":"HIPOLITO YRIGOYEN esq. JULIO SOSA","lat":-34.88561537108714,"lng":-56.11055977113019,"code":"2913"},{"seq":7,"id":"4840","name":"HIPOLITO YRIGOYEN esq. GODOY","lat":-34.88274504308894,"lng":-56.111346934088075,"code":"4840"},{"seq":8,"id":"4893","name":"HIPOLITO YRIGOYEN esq. IGUA","lat":-34.88133956360484,"lng":-56.111452144525614,"code":"4893"},{"seq":9,"id":"2915","name":"HIPOLITO YRIGOYEN esq. CIUDAD DE AZUL","lat":-34.87909787927892,"lng":-56.1111785800861,"code":"2915"},{"seq":10,"id":"2916","name":"HIPOLITO YRIGOYEN esq. LUIS CLUZEAU MORTET","lat":-34.876609062601844,"lng":-56.111613857700696,"code":"2916"},{"seq":11,"id":"2917","name":"HIPOLITO YRIGOYEN esq. DR CARLOS SALVAGNO CAMPOS","lat":-34.87543434302324,"lng":-56.11253785711856,"code":"2917"},{"seq":12,"id":"2918","name":"HIPOLITO YRIGOYEN esq. DR MELITON ROMERO","lat":-34.873884878936686,"lng":-56.113677609708766,"code":"2918"},{"seq":13,"id":"6401","name":"HIPOLITO YRIGOYEN esq. CNO CARRASCO","lat":-34.87063769333011,"lng":-56.11619729005695,"code":"6401"},{"seq":14,"id":"2850","name":"VERACIERTO esq. NUÑEZ DE ARCE","lat":-34.86910975407469,"lng":-56.11863200018515,"code":"2850"},{"seq":15,"id":"2851","name":"VERACIERTO esq. CAMPOAMOR","lat":-34.867690393552394,"lng":-56.11960250976969,"code":"2851"},{"seq":16,"id":"2852","name":"VERACIERTO esq. SPENCER","lat":-34.86610427081266,"lng":-56.12069065178187,"code":"2852"},{"seq":17,"id":"2866","name":"VERACIERTO esq. ING AGR JOSE OTAMENDI","lat":-34.86400249252226,"lng":-56.12214664148083,"code":"2866"},{"seq":18,"id":"2867","name":"VERACIERTO esq. GRAL TIMOTEO APARICIO","lat":-34.86154207446634,"lng":-56.12372015295207,"code":"2867"},{"seq":19,"id":"2868","name":"VERACIERTO esq. DOÑA SOLEDAD","lat":-34.859711940145196,"lng":-56.124871937436325,"code":"2868"},{"seq":20,"id":"2869","name":"VERACIERTO esq. PUNTAS DE SOTO","lat":-34.8575389982556,"lng":-56.12619260010764,"code":"2869"},{"seq":21,"id":"2870","name":"VERACIERTO esq. ANDRES LATORRE","lat":-34.8563516229008,"lng":-56.12872260502447,"code":"2870"},{"seq":22,"id":"6194","name":"PROY 6567 esq. PROY 9566","lat":-34.8556099170652,"lng":-56.132839495566216,"code":"6194"},{"seq":23,"id":"2546","name":"AV 8 DE OCTUBRE esq. GDOR VIGODET","lat":-34.85978401582915,"lng":-56.133781062451284,"code":"2546"},{"seq":24,"id":"2547","name":"AV 8 DE OCTUBRE esq. GUEMES","lat":-34.861232812228124,"lng":-56.133862355304956,"code":"2547"},{"seq":25,"id":"2548","name":"AV 8 DE OCTUBRE esq. BELEN","lat":-34.86484952382106,"lng":-56.134119129335,"code":"2548"},{"seq":26,"id":"3215","name":"AV 8 DE OCTUBRE esq. 20 DE FEBRERO","lat":-34.86666295424658,"lng":-56.13432856107471,"code":"3215"},{"seq":27,"id":"3216","name":"AV 8 DE OCTUBRE esq. GRAL JOSE VILLAGRAN","lat":-34.86838630828098,"lng":-56.134676268514994,"code":"3216"},{"seq":28,"id":"2549","name":"AV 8 DE OCTUBRE esq. PASCUAL PALADINO","lat":-34.87029102848811,"lng":-56.135077676173644,"code":"2549"},{"seq":29,"id":"3217","name":"AV 8 DE OCTUBRE esq. DR SILVESTRE PEREZ","lat":-34.87191531382955,"lng":-56.13574628751355,"code":"3217"},{"seq":30,"id":"3219","name":"AV 8 DE OCTUBRE esq. LARRAVIDE","lat":-34.87395367363964,"lng":-56.13876159834367,"code":"3219"},{"seq":31,"id":"3221","name":"AV 8 DE OCTUBRE esq. ING JOSE SERRATO","lat":-34.874990655653676,"lng":-56.140572617741604,"code":"3221"},{"seq":32,"id":"3223","name":"AV 8 DE OCTUBRE esq. COMERCIO","lat":-34.87627522778565,"lng":-56.14278599084306,"code":"3223"},{"seq":33,"id":"3225","name":"AV 8 DE OCTUBRE esq. MARIA STAGNERO DE MUNAR","lat":-34.87745571536765,"lng":-56.14489930041462,"code":"3225"},{"seq":34,"id":"3227","name":"AV 8 DE OCTUBRE esq. BV JOSE BATLLE Y ORDOÑEZ","lat":-34.879068802905614,"lng":-56.14764013374304,"code":"3227"},{"seq":35,"id":"3228","name":"AV 8 DE OCTUBRE esq. AGUSTIN ABREU","lat":-34.88029138219354,"lng":-56.149720706157645,"code":"3228"},{"seq":36,"id":"3230","name":"AV 8 DE OCTUBRE esq. MARIANO MORENO","lat":-34.882479135755474,"lng":-56.153401305888806,"code":"3230"},{"seq":37,"id":"3231","name":"AV 8 DE OCTUBRE esq. PEDRO OLMIDA","lat":-34.88343983930426,"lng":-56.155028201356515,"code":"3231"},{"seq":38,"id":"3232","name":"AV 8 DE OCTUBRE esq. JAIME CIBILS","lat":-34.88480579537606,"lng":-56.15644040525935,"code":"3232"},{"seq":39,"id":"3233","name":"AV 8 DE OCTUBRE esq. JOAQUIN SECCO ILLA","lat":-34.88701094642693,"lng":-56.15826463748792,"code":"3233"},{"seq":40,"id":"4207","name":"AV 8 DE OCTUBRE esq. AV DR MANUEL ALBO","lat":-34.889267971340026,"lng":-56.160165085818605,"code":"4207"},{"seq":41,"id":"3241","name":"AV 8 DE OCTUBRE esq. PTE BERRO","lat":-34.89173301579835,"lng":-56.162234145612594,"code":"3241"},{"seq":42,"id":"4908","name":"AV 18 DE JULIO esq. ALEJANDRO BEISSO","lat":-34.89847619111933,"lng":-56.16745621249768,"code":"4908"},{"seq":43,"id":"4010","name":"AV 18 DE JULIO esq. DR MARTIN C MARTINEZ","lat":-34.90017443034758,"lng":-56.17170930098536,"code":"4010"},{"seq":44,"id":"4012","name":"AV 18 DE JULIO esq. EDUARDO ACEVEDO","lat":-34.90182013897968,"lng":-56.17602714823594,"code":"4012"},{"seq":45,"id":"3912","name":"AV 18 DE JULIO esq. MAGALLANES","lat":-34.90339658352213,"lng":-56.18002063749689,"code":"3912"},{"seq":46,"id":"4015","name":"AV 18 DE JULIO esq. DR JAVIER BARRIOS AMORIN","lat":-34.905051889404696,"lng":-56.18436776996085,"code":"4015"},{"seq":47,"id":"4201","name":"AV 18 DE JULIO esq. YI","lat":-34.90564378026104,"lng":-56.1886779238124,"code":"4201"},{"seq":48,"id":"4017","name":"AV 18 DE JULIO esq. RIO NEGRO","lat":-34.905971092116374,"lng":-56.193131232307,"code":"4017"},{"seq":49,"id":"3914","name":"AV 18 DE JULIO esq. ANDES","lat":-34.90630671174167,"lng":-56.19758515780223,"code":"3914"},{"seq":50,"id":"4756","name":"PLAZA INDEPENDENCIA esq. JUNCAL","lat":-34.90600276437154,"lng":-56.20068911492873,"code":"4756"},{"seq":51,"id":"4757","name":"SANTIAGO DE LINIERS esq. SAN JOSE","lat":-34.90794095397858,"lng":-56.20040761890069,"code":"4757"}],"1":[{"seq":1,"id":"4006","name":"AV 18 DE JULIO esq. ALEJANDRO BEISSO","lat":-34.89885314891614,"lng":-56.16782877465745,"code":"4006"},{"seq":2,"id":"3182","name":"AV 8 DE OCTUBRE esq. PTE BERRO","lat":-34.89145336029218,"lng":-56.1617681298747,"code":"3182"},{"seq":3,"id":"4729","name":"AV 8 DE OCTUBRE esq. AV DR MANUEL ALBO","lat":-34.88997370532067,"lng":-56.16057957245059,"code":"4729"},{"seq":4,"id":"3183","name":"AV 8 DE OCTUBRE esq. JOAQUIN SECCO ILLA","lat":-34.88739153431955,"lng":-56.15839593233466,"code":"3183"},{"seq":5,"id":"3184","name":"AV 8 DE OCTUBRE esq. JAIME CIBILS","lat":-34.88536732469098,"lng":-56.156700248302236,"code":"3184"},{"seq":6,"id":"3185","name":"AV 8 DE OCTUBRE esq. MARIANO MORENO","lat":-34.88343695521986,"lng":-56.15474553472915,"code":"3185"},{"seq":7,"id":"3186","name":"AV 8 DE OCTUBRE esq. MARIANO MORENO","lat":-34.88254548493429,"lng":-56.15325661788515,"code":"3186"},{"seq":8,"id":"4865","name":"AV 8 DE OCTUBRE esq. AGUSTIN ABREU","lat":-34.880096563761015,"lng":-56.14903749622189,"code":"4865"},{"seq":9,"id":"3189","name":"AV 8 DE OCTUBRE esq. FELIPE SANGUINETTI","lat":-34.878266501940736,"lng":-56.14603411447741,"code":"3189"},{"seq":10,"id":"3191","name":"AV 8 DE OCTUBRE esq. PERNAS","lat":-34.87724447292037,"lng":-56.14426063528062,"code":"3191"},{"seq":11,"id":"3193","name":"AV 8 DE OCTUBRE esq. GDOR VIANA","lat":-34.875793881794834,"lng":-56.1417195784628,"code":"3193"},{"seq":12,"id":"3195","name":"AV 8 DE OCTUBRE esq. CIPRIANO MIRO","lat":-34.87473276988258,"lng":-56.1398673156561,"code":"3195"},{"seq":13,"id":"3197","name":"AV 8 DE OCTUBRE esq. LINDORO FORTEZA","lat":-34.873703148047774,"lng":-56.13806486803346,"code":"3197"},{"seq":14,"id":"3199","name":"AV 8 DE OCTUBRE esq. DR SILVESTRE PEREZ","lat":-34.87239035780417,"lng":-56.13604283003377,"code":"3199"},{"seq":15,"id":"3201","name":"AV 8 DE OCTUBRE esq. PASCUAL PALADINO","lat":-34.87058415068435,"lng":-56.13494964695333,"code":"3201"},{"seq":16,"id":"3202","name":"AV 8 DE OCTUBRE esq. GRAL JOSE VILLAGRAN","lat":-34.868925636209205,"lng":-56.13462796274027,"code":"3202"},{"seq":17,"id":"3204","name":"AV 8 DE OCTUBRE esq. RAMON CASTRIZ","lat":-34.86638176561672,"lng":-56.134120110569306,"code":"3204"},{"seq":18,"id":"4890","name":"AV 8 DE OCTUBRE esq. VERA","lat":-34.86436863632206,"lng":-56.133865009495004,"code":"4890"},{"seq":19,"id":"3206","name":"AV 8 DE OCTUBRE esq. LA HABANA","lat":-34.86179113284179,"lng":-56.13374959301082,"code":"3206"},{"seq":20,"id":"3207","name":"AV 8 DE OCTUBRE esq. GDOR VIGODET","lat":-34.8598551625619,"lng":-56.13355965433095,"code":"3207"},{"seq":21,"id":"6092","name":"PSJE S/D esq. AV JOSE BELLONI","lat":-34.85528988309178,"lng":-56.13242390083089,"code":"6092"},{"seq":22,"id":"2844","name":"VERACIERTO esq. ANDRES LATORRE","lat":-34.85627809566049,"lng":-56.12912886926499,"code":"2844"},{"seq":23,"id":"4900","name":"VERACIERTO esq. PEDRO SAENZ DE ZUMARAN","lat":-34.85698239015195,"lng":-56.12739911272835,"code":"4900"},{"seq":24,"id":"2845","name":"VERACIERTO esq. DOÑA SOLEDAD","lat":-34.85960882639073,"lng":-56.125025888194244,"code":"2845"},{"seq":25,"id":"2846","name":"VERACIERTO esq. GRAL TIMOTEO APARICIO","lat":-34.86184913612548,"lng":-56.12367459992481,"code":"2846"},{"seq":26,"id":"2847","name":"VERACIERTO esq. ING AGR JOSE OTAMENDI","lat":-34.8640452937436,"lng":-56.12228189545126,"code":"2847"},{"seq":27,"id":"2848","name":"VERACIERTO esq. SPENCER","lat":-34.86581254710856,"lng":-56.12102907052526,"code":"2848"},{"seq":28,"id":"2849","name":"VERACIERTO esq. CAMPOAMOR","lat":-34.86768128592761,"lng":-56.119733060530436,"code":"2849"},{"seq":29,"id":"4901","name":"VERACIERTO esq. NUÑEZ DE ARCE","lat":-34.868878038985386,"lng":-56.11890723427802,"code":"4901"},{"seq":30,"id":"5005","name":"VERACIERTO esq. CNO CARRASCO","lat":-34.87102496535577,"lng":-56.11740115616672,"code":"5005"},{"seq":31,"id":"6400","name":"VERACIERTO esq. ING FELIX DE MEDINA","lat":-34.874349330856134,"lng":-56.11565242662103,"code":"6400"},{"seq":32,"id":"2909","name":"ING FELIX DE MEDINA esq. HIPOLITO YRIGOYEN","lat":-34.87392150044715,"lng":-56.114104222397586,"code":"2909"},{"seq":33,"id":"4905","name":"HIPOLITO YRIGOYEN esq. DR CARLOS SALVAGNO CAMPOS","lat":-34.875104783420284,"lng":-56.11285909198068,"code":"4905"},{"seq":34,"id":"4906","name":"HIPOLITO YRIGOYEN esq. BENONNE CALCAVECCHIA","lat":-34.87735574854691,"lng":-56.11146845560718,"code":"4906"},{"seq":35,"id":"2910","name":"HIPOLITO YRIGOYEN esq. CIUDAD DE AZUL","lat":-34.878808042710844,"lng":-56.11123885852786,"code":"2910"},{"seq":36,"id":"2911","name":"HIPOLITO YRIGOYEN esq. CIRC INT CALLE DIAGONAL","lat":-34.880481155562855,"lng":-56.1114617220186,"code":"2911"},{"seq":37,"id":"2914","name":"HIPOLITO YRIGOYEN esq. GODOY","lat":-34.882353954383966,"lng":-56.111615944655405,"code":"2914"},{"seq":38,"id":"2912","name":"HIPOLITO YRIGOYEN esq. AV ITALIA","lat":-34.886399363391426,"lng":-56.11046295138317,"code":"2912"},{"seq":39,"id":"3414","name":"CANDELARIA esq. AV ESTANISLAO LOPEZ","lat":-34.88826833980701,"lng":-56.11089988668965,"code":"3414"},{"seq":40,"id":"3415","name":"CANDELARIA esq. ASAMBLEA","lat":-34.89010894043318,"lng":-56.11079347625769,"code":"3415"},{"seq":41,"id":"3416","name":"CANDELARIA esq. AV GRAL RIVERA","lat":-34.8916661633362,"lng":-56.10997713919784,"code":"3416"},{"seq":42,"id":"3417","name":"VERDI esq. VELSEN","lat":-34.89281263403417,"lng":-56.11006265703788,"code":"3417"},{"seq":43,"id":"4623","name":"YACO esq. ALMERIA","lat":-34.8941659311693,"lng":-56.109715477271784,"code":"4623"},{"seq":44,"id":"3251","name":"ALMERIA esq. HIPOLITO YRIGOYEN","lat":-34.89454270481215,"lng":-56.108058292783646,"code":"3251"},{"seq":45,"id":"3252","name":"ALMERIA esq. AV 18 DE DICIEMBRE","lat":-34.894843653021994,"lng":-56.10475403807482,"code":"3252"}]}