{"0":[{"seq":1,"id":"6198","name":"CONOCIDA SEBASTOPOL esq. CALLE 3 DE 15 MTS","lat":-34.842495334669835,"lng":-56.111931755588145,"code":"6198"},{"seq":2,"id":"6199","name":"CONT JUANA MANSO esq. CALLE 1 DE 15 MTS","lat":-34.84341404970168,"lng":-56.111210950561954,"code":"6199"},{"seq":3,"id":"6200","name":"AV LUIS BRAILLE esq. CONOCIDA SEBASTOPOL","lat":-34.845015749448585,"lng":-56.112888833775365,"code":"6200"},{"seq":4,"id":"2599","name":"AV LUIS BRAILLE esq. 12 DE OCTUBRE","lat":-34.84408186340631,"lng":-56.11607892583918,"code":"2599"},{"seq":5,"id":"2600","name":"MARCOS SALCEDO esq. AV DR JUSTINO JIMENEZ DE ARECHAGA","lat":-34.84422621110712,"lng":-56.11853295738845,"code":"2600"},{"seq":6,"id":"4199","name":"12 DE OCTUBRE esq. PETEROA","lat":-34.846445398873705,"lng":-56.117362177977014,"code":"4199"},{"seq":7,"id":"4195","name":"12 DE OCTUBRE esq. CELIAR","lat":-34.848223043117244,"lng":-56.11817173271264,"code":"4195"},{"seq":8,"id":"4196","name":"12 DE OCTUBRE esq. COCHABAMBA","lat":-34.84964675181424,"lng":-56.11879793832839,"code":"4196"},{"seq":9,"id":"2601","name":"DEL FUERTE esq. COCHABAMBA","lat":-34.850844103949115,"lng":-56.11725409564098,"code":"2601"},{"seq":10,"id":"2602","name":"DEL FUERTE esq. RUBEN DARIO","lat":-34.852636810942876,"lng":-56.11799690985794,"code":"2602"},{"seq":11,"id":"2592","name":"EUSEBIO VIDAL esq. MTRA DEBORA VITALE D´AMICO","lat":-34.85515705034027,"lng":-56.116070973729315,"code":"2592"},{"seq":12,"id":"2593","name":"MARIA MANRUPE esq. MTRA DEBORA VITALE D´AMICO","lat":-34.856615882548745,"lng":-56.116551485061706,"code":"2593"},{"seq":13,"id":"4540","name":"MARIA MANRUPE esq. JUANA AZURDUY DE PADILLA","lat":-34.85601708193715,"lng":-56.11860425388331,"code":"4540"},{"seq":14,"id":"4268","name":"MARIA MANRUPE esq. PUNTAS DE SOTO","lat":-34.85459295115126,"lng":-56.12274586549419,"code":"4268"},{"seq":15,"id":"4386","name":"EUSEBIO VIDAL esq. PEDRO SAENZ DE ZUMARAN","lat":-34.85381832262015,"lng":-56.12466340607667,"code":"4386"},{"seq":16,"id":"5532","name":"CHAYOS esq. RICARDO PALMA","lat":-34.85487514672925,"lng":-56.12687701578818,"code":"5532"},{"seq":17,"id":"2870","name":"VERACIERTO esq. ANDRES LATORRE","lat":-34.8563516229008,"lng":-56.12872260502447,"code":"2870"},{"seq":18,"id":"6194","name":"PROY 6567 esq. PROY 9566","lat":-34.8556099170652,"lng":-56.132839495566216,"code":"6194"},{"seq":19,"id":"2546","name":"AV 8 DE OCTUBRE esq. GDOR VIGODET","lat":-34.85978401582915,"lng":-56.133781062451284,"code":"2546"},{"seq":20,"id":"2547","name":"AV 8 DE OCTUBRE esq. GUEMES","lat":-34.861232812228124,"lng":-56.133862355304956,"code":"2547"},{"seq":21,"id":"2548","name":"AV 8 DE OCTUBRE esq. BELEN","lat":-34.86484952382106,"lng":-56.134119129335,"code":"2548"},{"seq":22,"id":"3215","name":"AV 8 DE OCTUBRE esq. 20 DE FEBRERO","lat":-34.86666295424658,"lng":-56.13432856107471,"code":"3215"},{"seq":23,"id":"3216","name":"AV 8 DE OCTUBRE esq. GRAL JOSE VILLAGRAN","lat":-34.86838630828098,"lng":-56.134676268514994,"code":"3216"},{"seq":24,"id":"2549","name":"AV 8 DE OCTUBRE esq. PASCUAL PALADINO","lat":-34.87029102848811,"lng":-56.135077676173644,"code":"2549"},{"seq":25,"id":"3217","name":"AV 8 DE OCTUBRE esq. DR SILVESTRE PEREZ","lat":-34.87191531382955,"lng":-56.13574628751355,"code":"3217"},{"seq":26,"id":"3218","name":"AV 8 DE OCTUBRE esq. LINDORO FORTEZA","lat":-34.8734065553893,"lng":-56.137780426788865,"code":"3218"},{"seq":27,"id":"3220","name":"AV 8 DE OCTUBRE esq. CIPRIANO MIRO","lat":-34.87450758091924,"lng":-56.13969052580832,"code":"3220"},{"seq":28,"id":"3222","name":"AV 8 DE OCTUBRE esq. GDOR VIANA","lat":-34.875518654995794,"lng":-56.14147445987963,"code":"3222"},{"seq":29,"id":"3224","name":"AV 8 DE OCTUBRE esq. PERNAS","lat":-34.876955633212965,"lng":-56.144018407707264,"code":"3224"},{"seq":30,"id":"3226","name":"AV 8 DE OCTUBRE esq. FELIPE SANGUINETTI","lat":-34.877959499542825,"lng":-56.14573865296828,"code":"3226"},{"seq":31,"id":"3227","name":"AV 8 DE OCTUBRE esq. BV JOSE BATLLE Y ORDOÑEZ","lat":-34.879068802905614,"lng":-56.14764013374304,"code":"3227"},{"seq":32,"id":"3228","name":"AV 8 DE OCTUBRE esq. AGUSTIN ABREU","lat":-34.88029138219354,"lng":-56.149720706157645,"code":"3228"},{"seq":33,"id":"3229","name":"AV 8 DE OCTUBRE esq. AV DAMASO ANTONIO LARRAÑAGA","lat":-34.88140882858598,"lng":-56.15158513373364,"code":"3229"},{"seq":34,"id":"3487","name":"AV CENTENARIO esq. AV DR LUIS ALBERTO DE HERRERA","lat":-34.88356083680625,"lng":-56.152723308481356,"code":"3487"},{"seq":35,"id":"3488","name":"AV CENTENARIO esq. REPUBLICA DOMINICANA","lat":-34.88694135124848,"lng":-56.15359849343149,"code":"3488"},{"seq":36,"id":"3489","name":"AV CENTENARIO esq. ESTERO BELLACO","lat":-34.890359137613835,"lng":-56.15532246543694,"code":"3489"},{"seq":37,"id":"2192","name":"AV ITALIA esq. PTE BERRO","lat":-34.89305511398237,"lng":-56.161115700561005,"code":"2192"},{"seq":38,"id":"2193","name":"DR SALVADOR FERRER SERRA esq. DR MARIO CASSINONI","lat":-34.89469988908137,"lng":-56.166124516204135,"code":"2193"}],"1":[{"seq":1,"id":"2193","name":"DR SALVADOR FERRER SERRA esq. DR MARIO CASSINONI","lat":-34.89469988908137,"lng":-56.166124516204135,"code":"2193"},{"seq":2,"id":"6863","name":"JUAN PAULLIER esq. DANIEL MUÑOZ","lat":-34.89580254628916,"lng":-56.170030717292704,"code":"6863"},{"seq":3,"id":"3881","name":"EDUARDO VICTOR HAEDO esq. DR MARIO CASSINONI","lat":-34.89569250660495,"lng":-56.16647623263422,"code":"3881"},{"seq":4,"id":"2071","name":"AV ITALIA esq. MORALES","lat":-34.8945871705448,"lng":-56.163850385914415,"code":"2071"},{"seq":5,"id":"2121","name":"AV ITALIA esq. PTE LORENZO BATLLE","lat":-34.89375941996686,"lng":-56.16182184769232,"code":"2121"},{"seq":6,"id":"2122","name":"AV ITALIA esq. AV DR AMERICO RICALDONI","lat":-34.89252457137098,"lng":-56.15947913622053,"code":"2122"},{"seq":7,"id":"2123","name":"AV ITALIA esq. AV DR AMERICO RICALDONI","lat":-34.89167530354266,"lng":-56.156359261424704,"code":"2123"},{"seq":8,"id":"3148","name":"AV DR AMERICO RICALDONI esq. AV ITALIA","lat":-34.89192769461429,"lng":-56.154171704776466,"code":"3148"},{"seq":9,"id":"3149","name":"AV CENTENARIO esq. BELGRANO","lat":-34.89042522066208,"lng":-56.15500054258601,"code":"3149"},{"seq":10,"id":"3150","name":"AV CENTENARIO esq. DR JOSE BRITO FORESTI","lat":-34.88772471043564,"lng":-56.15349509860871,"code":"3150"},{"seq":11,"id":"3151","name":"AV CENTENARIO esq. PROF DR PABLO PURRIEL","lat":-34.883989847700676,"lng":-56.15226634349493,"code":"3151"},{"seq":12,"id":"4865","name":"AV 8 DE OCTUBRE esq. AGUSTIN ABREU","lat":-34.880096563761015,"lng":-56.14903749622189,"code":"4865"},{"seq":13,"id":"3190","name":"AV 8 DE OCTUBRE esq. MARIA STAGNERO DE MUNAR","lat":-34.87777810434094,"lng":-56.14517249376586,"code":"3190"},{"seq":14,"id":"3192","name":"AV 8 DE OCTUBRE esq. COMERCIO","lat":-34.87657278325702,"lng":-56.14307724477279,"code":"3192"},{"seq":15,"id":"3194","name":"AV 8 DE OCTUBRE esq. ING JOSE SERRATO","lat":-34.87528459898744,"lng":-56.140831799090186,"code":"3194"},{"seq":16,"id":"3196","name":"AV 8 DE OCTUBRE esq. LARRAVIDE","lat":-34.87428930816415,"lng":-56.139077465410594,"code":"3196"},{"seq":17,"id":"3198","name":"AV 8 DE OCTUBRE esq. GRAL FELIX LABORDE","lat":-34.87297634050066,"lng":-56.136798916341505,"code":"3198"},{"seq":18,"id":"3200","name":"AV 8 DE OCTUBRE esq. PAN DE AZUCAR","lat":-34.87163116398456,"lng":-56.13530725344563,"code":"3200"},{"seq":19,"id":"3202","name":"AV 8 DE OCTUBRE esq. GRAL JOSE VILLAGRAN","lat":-34.868925636209205,"lng":-56.13462796274027,"code":"3202"},{"seq":20,"id":"3204","name":"AV 8 DE OCTUBRE esq. RAMON CASTRIZ","lat":-34.86638176561672,"lng":-56.134120110569306,"code":"3204"},{"seq":21,"id":"4890","name":"AV 8 DE OCTUBRE esq. VERA","lat":-34.86436863632206,"lng":-56.133865009495004,"code":"4890"},{"seq":22,"id":"3206","name":"AV 8 DE OCTUBRE esq. LA HABANA","lat":-34.86179113284179,"lng":-56.13374959301082,"code":"3206"},{"seq":23,"id":"3207","name":"AV 8 DE OCTUBRE esq. GDOR VIGODET","lat":-34.8598551625619,"lng":-56.13355965433095,"code":"3207"},{"seq":24,"id":"6193","name":"PROY 6567 esq. GRONARDO","lat":-34.855505626459795,"lng":-56.132950710445435,"code":"6193"},{"seq":25,"id":"2468","name":"CNO MALDONADO esq. OYARVIDE","lat":-34.85311256736188,"lng":-56.12983315032467,"code":"2468"},{"seq":26,"id":"4385","name":"ANDRES LATORRE esq. EUSEBIO VIDAL","lat":-34.85317362157296,"lng":-56.126965438039804,"code":"4385"},{"seq":27,"id":"4387","name":"EUSEBIO VIDAL esq. PEDRO SAENZ DE ZUMARAN","lat":-34.85375270342442,"lng":-56.12510723285453,"code":"4387"},{"seq":28,"id":"4388","name":"EUSEBIO VIDAL esq. PUNTAS DE SOTO","lat":-34.85449492826106,"lng":-56.12325709784624,"code":"4388"},{"seq":29,"id":"4273","name":"MARIA MANRUPE esq. ACTR ANGELA TESADA","lat":-34.85589551001228,"lng":-56.11953357014536,"code":"4273"},{"seq":30,"id":"2594","name":"MARIA MANRUPE esq. MTRA DEBORA VITALE D´AMICO","lat":-34.856572667508246,"lng":-56.116971362008535,"code":"2594"},{"seq":31,"id":"5317","name":"MARIA MANRUPE esq. EUSEBIO VIDAL","lat":-34.85529351744671,"lng":-56.11538589344139,"code":"5317"},{"seq":32,"id":"2595","name":"DEL FUERTE esq. MANUEL ACUÑA","lat":-34.85260354657156,"lng":-56.11787367990134,"code":"2595"},{"seq":33,"id":"2596","name":"DEL FUERTE esq. COCHABAMBA","lat":-34.850659588479964,"lng":-56.11701999757628,"code":"2596"},{"seq":34,"id":"2597","name":"COCHABAMBA esq. 12 DE OCTUBRE","lat":-34.84994207265672,"lng":-56.11860537545562,"code":"2597"},{"seq":35,"id":"4194","name":"12 DE OCTUBRE esq. CELIAR","lat":-34.84851948461865,"lng":-56.11818945248788,"code":"4194"},{"seq":36,"id":"4198","name":"12 DE OCTUBRE esq. PETEROA","lat":-34.8467908895943,"lng":-56.11743622917358,"code":"4198"},{"seq":37,"id":"4197","name":"AV DR JUSTINO JIMENEZ DE ARECHAGA esq. 12 DE OCTUBRE","lat":-34.84537486932515,"lng":-56.11647538976028,"code":"4197"},{"seq":38,"id":"2598","name":"SEBASTOPOL esq. AV LUIS BRAILLE","lat":-34.8452970484025,"lng":-56.113169235647,"code":"2598"},{"seq":39,"id":"6198","name":"CONOCIDA SEBASTOPOL esq. CALLE 3 DE 15 MTS","lat":-34.842495334669835,"lng":-56.111931755588145,"code":"6198"},{"seq":40,"id":"6199","name":"CONT JUANA MANSO esq. CALLE 1 DE 15 MTS","lat":-34.84341404970168,"lng":-56.111210950561954,"code":"6199"}]}