{"0":[{"seq":1,"id":"4610","name":"JUAN BONMESADRI esq. RODRIGO DE TRIANA","lat":-34.799534777631635,"lng":-56.23349702434081,"code":"4610"},{"seq":2,"id":"4490","name":"JUAN BONMESADRI esq. JUAN DE LA COSA","lat":-34.798313382071434,"lng":-56.23315409802702,"code":"4490"},{"seq":3,"id":"4830","name":"JUAN BONMESADRI esq. PSJE 6476","lat":-34.796323168007454,"lng":-56.23253680494125,"code":"4830"},{"seq":4,"id":"4662","name":"CNO JOSE DURAN esq. CIRC INT 6","lat":-34.79718045451148,"lng":-56.230611550164234,"code":"4662"},{"seq":5,"id":"1422","name":"CNO JOSE DURAN esq. CIRC INT SIN DENOM","lat":-34.79831717358117,"lng":-56.22855871399242,"code":"1422"},{"seq":6,"id":"1421","name":"CNO JOSE DURAN esq. CALDERON DE LA BARCA","lat":-34.799747184889306,"lng":-56.225895080434334,"code":"1421"},{"seq":7,"id":"5882","name":"CIRC INT SIN DENOM esq. AV GRAL EUGENIO GARZON","lat":-34.79954044634643,"lng":-56.22202056158454,"code":"5882"},{"seq":8,"id":"1191","name":"AV GRAL EUGENIO GARZON esq. MARGUERITE DE BADET","lat":-34.8024598904283,"lng":-56.22387124700392,"code":"1191"},{"seq":9,"id":"1192","name":"AV GRAL EUGENIO GARZON esq. PLAZA VIDIELLA","lat":-34.80566690281852,"lng":-56.22247740128226,"code":"1192"},{"seq":10,"id":"4446","name":"HUDSON esq. JUAN PROUDFOOT","lat":-34.80896837889719,"lng":-56.21841911258507,"code":"4446"},{"seq":11,"id":"2562","name":"HUDSON esq. TABAPY","lat":-34.81006282035586,"lng":-56.21650990235751,"code":"2562"},{"seq":12,"id":"6123","name":"TABAPY esq. DANIEL ZORRILLA","lat":-34.8093159275007,"lng":-56.21530378137233,"code":"6123"},{"seq":13,"id":"2564","name":"DANIEL ZORRILLA esq. VICUÑA","lat":-34.80982574629668,"lng":-56.21414458328494,"code":"2564"},{"seq":14,"id":"5815","name":"DANIEL ZORRILLA esq. TOBATI","lat":-34.810910080220275,"lng":-56.21235490571091,"code":"5815"},{"seq":15,"id":"2566","name":"DANIEL ZORRILLA esq. CNO MANUEL FORTET","lat":-34.812087705545494,"lng":-56.210267373157656,"code":"2566"},{"seq":16,"id":"2568","name":"CNO MANUEL FORTET esq. ISIDRO FYNN","lat":-34.814692417629146,"lng":-56.21154173472222,"code":"2568"},{"seq":17,"id":"2569","name":"CNO MANUEL FORTET esq. CNO CASAVALLE","lat":-34.81663670342849,"lng":-56.21282988867935,"code":"2569"},{"seq":18,"id":"2571","name":"ENRIQUE GEORGE esq. BV APARICIO SARAVIA","lat":-34.81880998685635,"lng":-56.214613371222754,"code":"2571"},{"seq":19,"id":"1746","name":"BV APARICIO SARAVIA esq. LAMARTINE","lat":-34.820082639592755,"lng":-56.21284181453992,"code":"1746"},{"seq":20,"id":"1747","name":"BV APARICIO SARAVIA esq. ALEJANDRO DUMAS","lat":-34.821188444695984,"lng":-56.210930780761856,"code":"1747"},{"seq":21,"id":"1748","name":"BV APARICIO SARAVIA esq. NEWTON","lat":-34.82246943445853,"lng":-56.20870972200259,"code":"1748"},{"seq":22,"id":"1749","name":"BV APARICIO SARAVIA esq. FRANKLIN","lat":-34.823697878870725,"lng":-56.20658749456438,"code":"1749"},{"seq":23,"id":"1750","name":"BV APARICIO SARAVIA esq. MONTERROSO","lat":-34.824855441593314,"lng":-56.20446284266206,"code":"1750"},{"seq":24,"id":"4871","name":"BV APARICIO SARAVIA esq. AV SAYAGO","lat":-34.82602144729888,"lng":-56.202662507999314,"code":"4871"},{"seq":25,"id":"4870","name":"BV APARICIO SARAVIA esq. CNO CORONEL RAIZ","lat":-34.82715131787047,"lng":-56.20075401458224,"code":"4870"},{"seq":26,"id":"1771","name":"CNO CORONEL RAIZ esq. HAMBURGO","lat":-34.83079120888924,"lng":-56.20072958349401,"code":"1771"},{"seq":27,"id":"4867","name":"CNO EDISON esq. GUSTAVO A BECQUER","lat":-34.82973142599155,"lng":-56.202620251982914,"code":"4867"},{"seq":28,"id":"5838","name":"CNO EDISON esq. LAFAYETTE","lat":-34.82853676227221,"lng":-56.20468868998845,"code":"5838"},{"seq":29,"id":"4869","name":"CNO EDISON esq. BELL","lat":-34.82743498654202,"lng":-56.20659362899169,"code":"4869"},{"seq":30,"id":"5125","name":"AV SAYAGO esq. CNO EDISON","lat":-34.827885376674196,"lng":-56.20881773365361,"code":"5125"},{"seq":31,"id":"1457","name":"AV SAYAGO esq. CNO GRAL MAXIMO SANTOS","lat":-34.829271263607296,"lng":-56.21006619175072,"code":"1457"},{"seq":32,"id":"1458","name":"AV SAYAGO esq. OLEGARIO ANDRADE","lat":-34.830114497392636,"lng":-56.21198874179393,"code":"1458"},{"seq":33,"id":"1459","name":"AV SAYAGO esq. CERRO","lat":-34.83151490155613,"lng":-56.21462526060557,"code":"1459"},{"seq":34,"id":"1460","name":"AV SAYAGO esq. CNO ARIEL","lat":-34.8334321612766,"lng":-56.21584621502984,"code":"1460"},{"seq":35,"id":"4983","name":"CNO ARIEL esq. LUIS GIRALT","lat":-34.83439052776352,"lng":-56.215294400776216,"code":"4983"},{"seq":36,"id":"4936","name":"CNO ARIEL esq. BELL","lat":-34.83567010185797,"lng":-56.21311274424867,"code":"4936"},{"seq":37,"id":"1435","name":"CNO ARIEL esq. CARLOS F SANTURIO","lat":-34.83696472316184,"lng":-56.210885685748714,"code":"1435"},{"seq":38,"id":"1436","name":"CNO ARIEL esq. CNO MOLINOS DE RAFFO","lat":-34.83792962574547,"lng":-56.20934569095987,"code":"1436"},{"seq":39,"id":"1645","name":"CNO MOLINOS DE RAFFO esq. CLARA","lat":-34.83989819132955,"lng":-56.20885797258999,"code":"1645"},{"seq":40,"id":"1646","name":"CNO MOLINOS DE RAFFO esq. WATERLOO","lat":-34.84176016529729,"lng":-56.208713955886175,"code":"1646"},{"seq":41,"id":"1651","name":"CNO MOLINOS DE RAFFO esq. MARIA ORTICOCHEA","lat":-34.84454299848422,"lng":-56.211127429249835,"code":"1651"},{"seq":42,"id":"1652","name":"CNO MOLINOS DE RAFFO esq. GRAL ANTONIO DIAZ","lat":-34.846659229128285,"lng":-56.212579853273105,"code":"1652"},{"seq":43,"id":"1657","name":"AV ISLAS CANARIAS esq. MAZANGANO","lat":-34.849113197687174,"lng":-56.21063171068427,"code":"1657"},{"seq":44,"id":"1658","name":"AV ISLAS CANARIAS esq. DUQUE DE LOS ABRUZZOS","lat":-34.85017504422249,"lng":-56.208703460793096,"code":"1658"},{"seq":45,"id":"1659","name":"CNO CARLOS MARIA DE PENA esq. CNO CASTRO","lat":-34.85306229137963,"lng":-56.20880980865495,"code":"1659"},{"seq":46,"id":"1611","name":"CNO CARLOS MARIA DE PENA esq. AV GABRIELA MISTRAL","lat":-34.854536361426206,"lng":-56.20622806854316,"code":"1611"},{"seq":47,"id":"1612","name":"CNO CARLOS MARIA DE PENA esq. RAMON CACERES","lat":-34.85580744762734,"lng":-56.204091395105664,"code":"1612"},{"seq":48,"id":"1613","name":"AV DR LUIS ALBERTO DE HERRERA esq. AV HUGO BALZO","lat":-34.85707145387109,"lng":-56.20185331574394,"code":"1613"},{"seq":49,"id":"1614","name":"AV DR LUIS ALBERTO DE HERRERA esq. BALTASAR OJEDA","lat":-34.85735010058113,"lng":-56.1994734868772,"code":"1614"},{"seq":50,"id":"1474","name":"AV MILLAN esq. REYES","lat":-34.859679290311306,"lng":-56.195414109978415,"code":"1474"},{"seq":51,"id":"1475","name":"AV MILLAN esq. MICENAS","lat":-34.86194967942507,"lng":-56.19383919428562,"code":"1475"},{"seq":52,"id":"1476","name":"AV MILLAN esq. DR CARLOS VAZ FERREIRA","lat":-34.86389411065936,"lng":-56.19309085859357,"code":"1476"},{"seq":53,"id":"1477","name":"AV MILLAN esq. CISPLATINA","lat":-34.86580679722567,"lng":-56.19255407346582,"code":"1477"},{"seq":54,"id":"1478","name":"AV MILLAN esq. PASCUAL RUIZ HUIDOBRO","lat":-34.869027517199825,"lng":-56.19173631312831,"code":"1478"},{"seq":55,"id":"1479","name":"AV MILLAN esq. GRITO DE ASENCIO","lat":-34.87183026957846,"lng":-56.19002667228307,"code":"1479"},{"seq":56,"id":"1480","name":"AV MILLAN esq. SITIO GRANDE","lat":-34.87390319693165,"lng":-56.188891188779984,"code":"1480"},{"seq":57,"id":"1481","name":"AV MILLAN esq. DR EVARISTO CIGANDA","lat":-34.87565613711923,"lng":-56.18791072913937,"code":"1481"},{"seq":58,"id":"1482","name":"AV MILLAN esq. CONCEPCION ARENAL","lat":-34.87850780226348,"lng":-56.1873727710688,"code":"1482"},{"seq":59,"id":"1483","name":"AV MILLAN esq. GRAL JOSE MARIA LUNA","lat":-34.88092891344482,"lng":-56.18774227654196,"code":"1483"},{"seq":60,"id":"2456","name":"AV GRAL SAN MARTIN esq. CLEMENTE CESAR","lat":-34.883780719224504,"lng":-56.18686561578479,"code":"2456"},{"seq":61,"id":"4434","name":"AV GRAL SAN MARTIN esq. MARTIN GARCIA","lat":-34.88581418706864,"lng":-56.18766859856454,"code":"4434"},{"seq":62,"id":"3746","name":"AV AGRACIADA esq. GRAL CESAR DIAZ","lat":-34.88901705487735,"lng":-56.18829439130915,"code":"3746"},{"seq":63,"id":"3663","name":"AV DE LAS LEYES esq. GUATEMALA","lat":-34.891684021777536,"lng":-56.18872660096357,"code":"3663"},{"seq":64,"id":"3877","name":"MAGALLANES esq. LIMA","lat":-34.894156165683185,"lng":-56.18510033316632,"code":"3877"},{"seq":65,"id":"3878","name":"MAGALLANES esq. NUEVA YORK","lat":-34.89588333503353,"lng":-56.184078830408026,"code":"3878"},{"seq":66,"id":"3822","name":"MIGUELETE esq. AV DANIEL FERNANDEZ CRESPO","lat":-34.89594960179222,"lng":-56.181943538129026,"code":"3822"},{"seq":67,"id":"3830","name":"ARENAL GRANDE esq. LA PAZ","lat":-34.8960236277724,"lng":-56.179785201096344,"code":"3830"},{"seq":68,"id":"3831","name":"ARENAL GRANDE esq. CERRO LARGO","lat":-34.89705316339779,"lng":-56.1783211706736,"code":"3831"},{"seq":69,"id":"3832","name":"ARENAL GRANDE esq. AV URUGUAY","lat":-34.898473686360106,"lng":-56.176467221183195,"code":"3832"},{"seq":70,"id":"4031","name":"AV URUGUAY esq. EDUARDO ACEVEDO","lat":-34.899596366633894,"lng":-56.17804216147024,"code":"4031"},{"seq":71,"id":"4045","name":"AV URUGUAY esq. MAGALLANES","lat":-34.90062199336393,"lng":-56.18058879857864,"code":"4045"},{"seq":72,"id":"4033","name":"AV URUGUAY esq. TACUAREMBO","lat":-34.90173133482853,"lng":-56.1833734344285,"code":"4033"},{"seq":73,"id":"4034","name":"AV URUGUAY esq. DR JAVIER BARRIOS AMORIN","lat":-34.902477786939514,"lng":-56.18531876018565,"code":"4034"},{"seq":74,"id":"4046","name":"AV URUGUAY esq. EJIDO","lat":-34.90267340970044,"lng":-56.18684587273082,"code":"4046"},{"seq":75,"id":"4035","name":"AV URUGUAY esq. YI","lat":-34.902816514953564,"lng":-56.189049903919376,"code":"4035"},{"seq":76,"id":"4036","name":"AV URUGUAY esq. AV GRAL RONDEAU","lat":-34.9029789489459,"lng":-56.19144629690975,"code":"4036"},{"seq":77,"id":"4615","name":"AV URUGUAY esq. JULIO HERRERA Y OBES","lat":-34.9032354661676,"lng":-56.19465136934147,"code":"4615"},{"seq":78,"id":"4909","name":"AV URUGUAY esq. CONVENCION","lat":-34.90341932776122,"lng":-56.19707970448174,"code":"4909"},{"seq":79,"id":"4040","name":"AV URUGUAY esq. FLORIDA","lat":-34.90356323442288,"lng":-56.199201708016666,"code":"4040"},{"seq":80,"id":"4041","name":"JUNCAL esq. CERRITO","lat":-34.90405713088382,"lng":-56.20172418575614,"code":"4041"}],"1":[{"seq":1,"id":"4020","name":"JUNCAL esq. PIEDRAS","lat":-34.90259324845392,"lng":-56.202462812387665,"code":"4020"},{"seq":2,"id":"6884","name":"CERRO LARGO esq. FLORIDA","lat":-34.90220102147156,"lng":-56.200205541630595,"code":"6884"},{"seq":3,"id":"573","name":"FLORIDA esq. AV URUGUAY","lat":-34.90337911943784,"lng":-56.19962201898019,"code":"573"},{"seq":4,"id":"4021","name":"MERCEDES esq. CONVENCION","lat":-34.90446552313132,"lng":-56.19751423911956,"code":"4021"},{"seq":5,"id":"4088","name":"PAYSANDU esq. RIO NEGRO","lat":-34.90238539578826,"lng":-56.19438052761521,"code":"4088"},{"seq":6,"id":"4089","name":"PAYSANDU esq. AV GRAL RONDEAU","lat":-34.90217249971623,"lng":-56.191990102244304,"code":"4089"},{"seq":7,"id":"4584","name":"PAYSANDU esq. YAGUARON","lat":-34.901967604200415,"lng":-56.18862190166864,"code":"4584"},{"seq":8,"id":"4090","name":"PAYSANDU esq. DR JAVIER BARRIOS AMORIN","lat":-34.901787981401824,"lng":-56.1859340516269,"code":"4090"},{"seq":9,"id":"4092","name":"PAYSANDU esq. MINAS","lat":-34.90068405200949,"lng":-56.182458633103344,"code":"4092"},{"seq":10,"id":"4093","name":"PAYSANDU esq. TRISTAN NARVAJA","lat":-34.899375807260675,"lng":-56.17932212121968,"code":"4093"},{"seq":11,"id":"3836","name":"AV DANIEL FERNANDEZ CRESPO esq. LA PAZ","lat":-34.89691510862053,"lng":-56.18008238388338,"code":"3836"},{"seq":12,"id":"3838","name":"AV DANIEL FERNANDEZ CRESPO esq. LIMA","lat":-34.894232603971,"lng":-56.18373846355934,"code":"3838"},{"seq":13,"id":"3666","name":"AV DE LAS LEYES esq. BATOVI","lat":-34.89010771130561,"lng":-56.18533826927376,"code":"3666"},{"seq":14,"id":"3667","name":"YATAY esq. MARCELINO SOSA","lat":-34.888660223354194,"lng":-56.18672574558212,"code":"3667"},{"seq":15,"id":"4433","name":"AV GRAL SAN MARTIN esq. MARTIN GARCIA","lat":-34.88634692195809,"lng":-56.18773340951671,"code":"4433"},{"seq":16,"id":"3988","name":"AV GRAL SAN MARTIN esq. DR JUAN J DE AMEZAGA","lat":-34.88462972069693,"lng":-56.186924835125126,"code":"3988"},{"seq":17,"id":"3592","name":"AV MILLAN esq. DR DOMINGO ARAMBURU","lat":-34.88080020889205,"lng":-56.18762993219784,"code":"3592"},{"seq":18,"id":"3593","name":"AV MILLAN esq. CONCEPCION ARENAL","lat":-34.87892438910915,"lng":-56.18732123212667,"code":"3593"},{"seq":19,"id":"3594","name":"AV MILLAN esq. DR EVARISTO CIGANDA","lat":-34.87599702781938,"lng":-56.187580992691885,"code":"3594"},{"seq":20,"id":"3595","name":"AV MILLAN esq. SITIO GRANDE","lat":-34.87430863143037,"lng":-56.18850803963696,"code":"3595"},{"seq":21,"id":"3596","name":"AV MILLAN esq. GRITO DE ASENCIO","lat":-34.8717587328066,"lng":-56.18986083393579,"code":"3596"},{"seq":22,"id":"3597","name":"AV MILLAN esq. PASCUAL RUIZ HUIDOBRO","lat":-34.8686501815202,"lng":-56.19169738798463,"code":"3597"},{"seq":23,"id":"3598","name":"AV MILLAN esq. RAMON ESTOMBA","lat":-34.86706733420363,"lng":-56.192109005486685,"code":"3598"},{"seq":24,"id":"3599","name":"AV MILLAN esq. DR CARLOS VAZ FERREIRA","lat":-34.86477764858107,"lng":-56.1926743913084,"code":"3599"},{"seq":25,"id":"3600","name":"AV MILLAN esq. CUBO DEL NORTE","lat":-34.862631595243926,"lng":-56.193238341882626,"code":"3600"},{"seq":26,"id":"3601","name":"AV MILLAN esq. AV 19 DE ABRIL","lat":-34.860304992174946,"lng":-56.19486979589008,"code":"3601"},{"seq":27,"id":"3602","name":"AV MILLAN esq. AV DR LUIS ALBERTO DE HERRERA","lat":-34.858523313653556,"lng":-56.195861624387554,"code":"3602"},{"seq":28,"id":"1606","name":"AV DR LUIS ALBERTO DE HERRERA esq. BALTASAR OJEDA","lat":-34.857265971807436,"lng":-56.199267106442,"code":"1606"},{"seq":29,"id":"1607","name":"AV DR LUIS ALBERTO DE HERRERA esq. AV HUGO BALZO","lat":-34.85701404372265,"lng":-56.201359125922274,"code":"1607"},{"seq":30,"id":"1608","name":"CNO CARLOS MARIA DE PENA esq. RAMON CACERES","lat":-34.855965972861725,"lng":-56.203633789607395,"code":"1608"},{"seq":31,"id":"1609","name":"CNO CARLOS MARIA DE PENA esq. AV GABRIELA MISTRAL","lat":-34.854495016793265,"lng":-56.20608962301558,"code":"1609"},{"seq":32,"id":"1610","name":"CNO CARLOS MARIA DE PENA esq. CNO CASTRO","lat":-34.85338007525482,"lng":-56.20811683765929,"code":"1610"},{"seq":33,"id":"5814","name":"AV ISLAS CANARIAS esq. DUQUE DE LOS ABRUZZOS","lat":-34.85037203149547,"lng":-56.20810684448594,"code":"5814"},{"seq":34,"id":"1655","name":"AV ISLAS CANARIAS esq. MAZANGANO","lat":-34.84919284310464,"lng":-56.21025461715388,"code":"1655"},{"seq":35,"id":"1656","name":"AV ISLAS CANARIAS esq. CNO MOLINOS DE RAFFO","lat":-34.847799056970906,"lng":-56.21280128923969,"code":"1656"},{"seq":36,"id":"4892","name":"CNO MOLINOS DE RAFFO esq. GRAL ANTONIO DIAZ","lat":-34.847056705795175,"lng":-56.21277590446104,"code":"4892"},{"seq":37,"id":"3903","name":"CNO MOLINOS DE RAFFO esq. MARIA ORTICOCHEA","lat":-34.844926872856796,"lng":-56.21129459880171,"code":"3903"},{"seq":38,"id":"3904","name":"CNO MOLINOS DE RAFFO esq. AV MILLAN","lat":-34.84244753953814,"lng":-56.20899424970879,"code":"3904"},{"seq":39,"id":"1643","name":"CNO MOLINOS DE RAFFO esq. CLARA","lat":-34.84039961517927,"lng":-56.20873838645013,"code":"1643"},{"seq":40,"id":"1644","name":"CNO ARIEL esq. PASTOR","lat":-34.83853778825943,"lng":-56.20880619046785,"code":"1644"},{"seq":41,"id":"1437","name":"CNO ARIEL esq. TAHIM","lat":-34.83680185161873,"lng":-56.21109210919949,"code":"1437"},{"seq":42,"id":"1438","name":"CNO ARIEL esq. BELL","lat":-34.83586433991614,"lng":-56.21261103864394,"code":"1438"},{"seq":43,"id":"5020","name":"CNO ARIEL esq. LUIS GIRALT","lat":-34.834306089796414,"lng":-56.21516691277705,"code":"5020"},{"seq":44,"id":"1446","name":"AV SAYAGO esq. ELIAS REGULES","lat":-34.83168982338018,"lng":-56.21459094743339,"code":"1446"},{"seq":45,"id":"1447","name":"AV SAYAGO esq. OLEGARIO ANDRADE","lat":-34.830287476611424,"lng":-56.212226944923096,"code":"1447"},{"seq":46,"id":"1448","name":"AV SAYAGO esq. CNO GRAL MAXIMO SANTOS","lat":-34.82947893940972,"lng":-56.21030803995866,"code":"1448"},{"seq":47,"id":"1449","name":"AV SAYAGO esq. CNO GRAL MAXIMO SANTOS","lat":-34.828031274230916,"lng":-56.208904070015265,"code":"1449"},{"seq":48,"id":"1450","name":"CNO EDISON esq. AV SAYAGO","lat":-34.827018860332366,"lng":-56.207554970647635,"code":"1450"},{"seq":49,"id":"5754","name":"CNO EDISON esq. MOLTKE","lat":-34.82823248980337,"lng":-56.20546667584873,"code":"5754"},{"seq":50,"id":"5717","name":"CNO EDISON esq. GUSTAVO A BECQUER","lat":-34.82951990082404,"lng":-56.20330269308996,"code":"5717"},{"seq":51,"id":"5732","name":"CNO EDISON esq. HAMBURGO","lat":-34.83081892500036,"lng":-56.201211468395066,"code":"5732"},{"seq":52,"id":"1713","name":"CNO CORONEL RAIZ esq. BV APARICIO SARAVIA","lat":-34.8275204165745,"lng":-56.20051032427001,"code":"1713"},{"seq":53,"id":"1739","name":"BV APARICIO SARAVIA esq. SHAKESPEARE","lat":-34.82602253074985,"lng":-56.202392997347715,"code":"1739"},{"seq":54,"id":"1740","name":"BV APARICIO SARAVIA esq. ESTRELLA DEL SUR","lat":-34.82465262265616,"lng":-56.204708785956626,"code":"1740"},{"seq":55,"id":"1741","name":"BV APARICIO SARAVIA esq. FRANKLIN","lat":-34.82387790447661,"lng":-56.20608422754658,"code":"1741"},{"seq":56,"id":"1742","name":"BV APARICIO SARAVIA esq. NEWTON","lat":-34.822533999804,"lng":-56.20846013241085,"code":"1742"},{"seq":57,"id":"1743","name":"BV APARICIO SARAVIA esq. ALEJANDRO DUMAS","lat":-34.82137063402425,"lng":-56.21051234697604,"code":"1743"},{"seq":58,"id":"1744","name":"BV APARICIO SARAVIA esq. LAMARTINE","lat":-34.820230723897836,"lng":-56.212457272625855,"code":"1744"},{"seq":59,"id":"1745","name":"BV APARICIO SARAVIA esq. ENRIQUE GEORGE","lat":-34.81912292601347,"lng":-56.214316581848564,"code":"1745"},{"seq":60,"id":"2570","name":"ENRIQUE GEORGE esq. CNO CASAVALLE","lat":-34.81739583619338,"lng":-56.21320694244322,"code":"2570"},{"seq":61,"id":"4539","name":"CNO MANUEL FORTET esq. ISIDRO FYNN","lat":-34.814594871632146,"lng":-56.211172051060245,"code":"4539"},{"seq":62,"id":"2551","name":"CNO MANUEL FORTET esq. DANIEL ZORRILLA","lat":-34.81229893653451,"lng":-56.21013617146927,"code":"2551"},{"seq":63,"id":"5374","name":"DANIEL ZORRILLA esq. TOBATI","lat":-34.810934399034736,"lng":-56.212096407178684,"code":"5374"},{"seq":64,"id":"2565","name":"DANIEL ZORRILLA esq. VICUÑA","lat":-34.81000086688322,"lng":-56.21373563863858,"code":"2565"},{"seq":65,"id":"4348","name":"YUTY esq. DANIEL ZORRILLA","lat":-34.80844426223688,"lng":-56.2161047918035,"code":"4348"},{"seq":66,"id":"2563","name":"YUTY esq. HUDSON","lat":-34.809668455052226,"lng":-56.216806052791696,"code":"2563"},{"seq":67,"id":"4445","name":"HUDSON esq. JUAN PROUDFOOT","lat":-34.809212084383006,"lng":-56.21777079590902,"code":"4445"},{"seq":68,"id":"6122","name":"HUDSON esq. JUAN MAC COLL","lat":-34.807874512366595,"lng":-56.21999852858034,"code":"6122"},{"seq":69,"id":"1163","name":"AV GRAL EUGENIO GARZON esq. PLAZA VIDIELLA","lat":-34.805889326709355,"lng":-56.22204918493653,"code":"1163"},{"seq":70,"id":"1164","name":"AV GRAL EUGENIO GARZON esq. MARGUERITE DE BADET","lat":-34.802738239753836,"lng":-56.22360573394893,"code":"1164"},{"seq":71,"id":"5880","name":"CIRC INT SIN DENOM esq. AV GRAL EUGENIO GARZON","lat":-34.79924232020671,"lng":-56.222859187552615,"code":"5880"},{"seq":72,"id":"5009","name":"CNO JOSE DURAN esq. CARLOS GIUCCI","lat":-34.798731170716174,"lng":-56.227628875400484,"code":"5009"},{"seq":73,"id":"985","name":"YEGROS esq. CIRC INT SIN DENOM","lat":-34.79950839192315,"lng":-56.22848302946239,"code":"985"},{"seq":74,"id":"1420","name":"YEGROS esq. CIRC INT 13","lat":-34.80064047933999,"lng":-56.22879265555958,"code":"1420"},{"seq":75,"id":"4715","name":"ANDRE GIOT DE BADET esq. CIRC INT 4","lat":-34.80040617857273,"lng":-56.23076279905107,"code":"4715"},{"seq":76,"id":"5223","name":"ANDRE GIOT DE BADET esq. JUAN BONMESADRI","lat":-34.79989694890116,"lng":-56.233380604087046,"code":"5223"}]}