{"0":[{"seq":1,"id":"5938","name":"CIRC INT SIN DENOM esq. CNO COLMAN","lat":-34.79974463512441,"lng":-56.2222269222132,"code":"5938"},{"seq":2,"id":"1191","name":"AV GRAL EUGENIO GARZON esq. MARGUERITE DE BADET","lat":-34.8024598904283,"lng":-56.22387124700392,"code":"1191"},{"seq":3,"id":"1192","name":"AV GRAL EUGENIO GARZON esq. PLAZA VIDIELLA","lat":-34.80566690281852,"lng":-56.22247740128226,"code":"1192"},{"seq":4,"id":"1193","name":"AV GRAL EUGENIO GARZON esq. CARVE","lat":-34.80828661846928,"lng":-56.22151217558333,"code":"1193"},{"seq":5,"id":"1194","name":"AV GRAL EUGENIO GARZON esq. CNO CASAVALLE","lat":-34.81201642852619,"lng":-56.22082546949571,"code":"1194"},{"seq":6,"id":"1195","name":"AV GRAL EUGENIO GARZON esq. BV APARICIO SARAVIA","lat":-34.81501281676395,"lng":-56.22052317721509,"code":"1195"},{"seq":7,"id":"1196","name":"AV GRAL EUGENIO GARZON esq. CNO EDISON","lat":-34.81937073428529,"lng":-56.22014703488728,"code":"1196"},{"seq":8,"id":"1198","name":"AV GRAL EUGENIO GARZON esq. CNO GRAL MAXIMO SANTOS","lat":-34.82348564609619,"lng":-56.21991905090336,"code":"1198"},{"seq":9,"id":"1199","name":"AV GRAL EUGENIO GARZON esq. BV JOSE BATLLE Y ORDOÑEZ","lat":-34.8272997704195,"lng":-56.21999711991504,"code":"1199"},{"seq":10,"id":"1200","name":"AV GRAL EUGENIO GARZON esq. CNO ARIEL","lat":-34.830838441716644,"lng":-56.22084781226806,"code":"1200"},{"seq":11,"id":"1432","name":"CNO ARIEL esq. QUICUYO","lat":-34.8321962480248,"lng":-56.21902518500401,"code":"1432"},{"seq":12,"id":"1433","name":"CNO ARIEL esq. IGNACIO RIVAS","lat":-34.83327759443875,"lng":-56.217166408650776,"code":"1433"},{"seq":13,"id":"1461","name":"AV SAYAGO esq. AV MILLAN","lat":-34.836848348860855,"lng":-56.21726843544922,"code":"1461"},{"seq":14,"id":"1463","name":"AV MILLAN esq. BELL","lat":-34.83901010497736,"lng":-56.21412472577308,"code":"1463"},{"seq":15,"id":"1464","name":"AV MILLAN esq. BERNARDINO GUAS","lat":-34.83992786931034,"lng":-56.212561549011006,"code":"1464"},{"seq":16,"id":"1465","name":"AV MILLAN esq. BENITO ALVAREZ","lat":-34.84109416714786,"lng":-56.21056264614391,"code":"1465"},{"seq":17,"id":"1466","name":"AV MILLAN esq. CNO MOLINOS DE RAFFO","lat":-34.842069595497186,"lng":-56.20900425729794,"code":"1466"},{"seq":18,"id":"1467","name":"AV MILLAN esq. LAS VIOLETAS","lat":-34.84348458916942,"lng":-56.206610205392465,"code":"1467"},{"seq":19,"id":"1468","name":"AV MILLAN esq. CNO CORONEL RAIZ","lat":-34.845294598192076,"lng":-56.20365982823907,"code":"1468"},{"seq":20,"id":"1469","name":"AV MILLAN esq. LORETO GOMENSORO","lat":-34.84642110906805,"lng":-56.20174387021026,"code":"1469"},{"seq":21,"id":"1470","name":"AV MILLAN esq. CLEMENCEAU","lat":-34.847637651478024,"lng":-56.199735692443774,"code":"1470"},{"seq":22,"id":"1471","name":"AV MILLAN esq. CNO CASTRO","lat":-34.84938923286483,"lng":-56.19856129415223,"code":"1471"},{"seq":23,"id":"1472","name":"AV MILLAN esq. RBLA COSTANERA FRANCISCO LAVALLEJA","lat":-34.852799940255515,"lng":-56.197406791977606,"code":"1472"},{"seq":24,"id":"1605","name":"AV MILLAN esq. PANTALEON SOTELO","lat":-34.85627291884577,"lng":-56.19667688347167,"code":"1605"},{"seq":25,"id":"1474","name":"AV MILLAN esq. REYES","lat":-34.859679290311306,"lng":-56.195414109978415,"code":"1474"},{"seq":26,"id":"1475","name":"AV MILLAN esq. MICENAS","lat":-34.86194967942507,"lng":-56.19383919428562,"code":"1475"},{"seq":27,"id":"1476","name":"AV MILLAN esq. DR CARLOS VAZ FERREIRA","lat":-34.86389411065936,"lng":-56.19309085859357,"code":"1476"},{"seq":28,"id":"1477","name":"AV MILLAN esq. CISPLATINA","lat":-34.86580679722567,"lng":-56.19255407346582,"code":"1477"},{"seq":29,"id":"1478","name":"AV MILLAN esq. PASCUAL RUIZ HUIDOBRO","lat":-34.869027517199825,"lng":-56.19173631312831,"code":"1478"},{"seq":30,"id":"1479","name":"AV MILLAN esq. GRITO DE ASENCIO","lat":-34.87183026957846,"lng":-56.19002667228307,"code":"1479"},{"seq":31,"id":"1480","name":"AV MILLAN esq. SITIO GRANDE","lat":-34.87390319693165,"lng":-56.188891188779984,"code":"1480"},{"seq":32,"id":"1481","name":"AV MILLAN esq. DR EVARISTO CIGANDA","lat":-34.87565613711923,"lng":-56.18791072913937,"code":"1481"},{"seq":33,"id":"1482","name":"AV MILLAN esq. CONCEPCION ARENAL","lat":-34.87850780226348,"lng":-56.1873727710688,"code":"1482"},{"seq":34,"id":"1483","name":"AV MILLAN esq. GRAL JOSE MARIA LUNA","lat":-34.88092891344482,"lng":-56.18774227654196,"code":"1483"},{"seq":35,"id":"2456","name":"AV GRAL SAN MARTIN esq. CLEMENTE CESAR","lat":-34.883780719224504,"lng":-56.18686561578479,"code":"2456"},{"seq":36,"id":"4434","name":"AV GRAL SAN MARTIN esq. MARTIN GARCIA","lat":-34.88581418706864,"lng":-56.18766859856454,"code":"4434"},{"seq":37,"id":"3746","name":"AV AGRACIADA esq. GRAL CESAR DIAZ","lat":-34.88901705487735,"lng":-56.18829439130915,"code":"3746"},{"seq":38,"id":"3663","name":"AV DE LAS LEYES esq. GUATEMALA","lat":-34.891684021777536,"lng":-56.18872660096357,"code":"3663"},{"seq":39,"id":"3877","name":"MAGALLANES esq. LIMA","lat":-34.894156165683185,"lng":-56.18510033316632,"code":"3877"},{"seq":40,"id":"3878","name":"MAGALLANES esq. NUEVA YORK","lat":-34.89588333503353,"lng":-56.184078830408026,"code":"3878"},{"seq":41,"id":"3822","name":"MIGUELETE esq. AV DANIEL FERNANDEZ CRESPO","lat":-34.89594960179222,"lng":-56.181943538129026,"code":"3822"},{"seq":42,"id":"3830","name":"ARENAL GRANDE esq. LA PAZ","lat":-34.8960236277724,"lng":-56.179785201096344,"code":"3830"},{"seq":43,"id":"3831","name":"ARENAL GRANDE esq. CERRO LARGO","lat":-34.89705316339779,"lng":-56.1783211706736,"code":"3831"},{"seq":44,"id":"3832","name":"ARENAL GRANDE esq. AV URUGUAY","lat":-34.898473686360106,"lng":-56.176467221183195,"code":"3832"},{"seq":45,"id":"4031","name":"AV URUGUAY esq. EDUARDO ACEVEDO","lat":-34.899596366633894,"lng":-56.17804216147024,"code":"4031"},{"seq":46,"id":"4045","name":"AV URUGUAY esq. MAGALLANES","lat":-34.90062199336393,"lng":-56.18058879857864,"code":"4045"},{"seq":47,"id":"4033","name":"AV URUGUAY esq. TACUAREMBO","lat":-34.90173133482853,"lng":-56.1833734344285,"code":"4033"},{"seq":48,"id":"4034","name":"AV URUGUAY esq. DR JAVIER BARRIOS AMORIN","lat":-34.902477786939514,"lng":-56.18531876018565,"code":"4034"},{"seq":49,"id":"4046","name":"AV URUGUAY esq. EJIDO","lat":-34.90267340970044,"lng":-56.18684587273082,"code":"4046"},{"seq":50,"id":"4035","name":"AV URUGUAY esq. YI","lat":-34.902816514953564,"lng":-56.189049903919376,"code":"4035"},{"seq":51,"id":"4036","name":"AV URUGUAY esq. AV GRAL RONDEAU","lat":-34.9029789489459,"lng":-56.19144629690975,"code":"4036"},{"seq":52,"id":"4615","name":"AV URUGUAY esq. JULIO HERRERA Y OBES","lat":-34.9032354661676,"lng":-56.19465136934147,"code":"4615"},{"seq":53,"id":"4909","name":"AV URUGUAY esq. CONVENCION","lat":-34.90341932776122,"lng":-56.19707970448174,"code":"4909"},{"seq":54,"id":"4040","name":"AV URUGUAY esq. FLORIDA","lat":-34.90356323442288,"lng":-56.199201708016666,"code":"4040"},{"seq":55,"id":"6987","name":"25 DE MAYO esq. JUNCAL","lat":-34.904319303555496,"lng":-56.20136421430059,"code":"6987"},{"seq":56,"id":"4763","name":"CERRITO esq. BARTOLOME MITRE","lat":-34.90400477623158,"lng":-56.203070088466596,"code":"4763"},{"seq":57,"id":"4764","name":"CERRITO esq. TREINTA Y TRES","lat":-34.904920052752594,"lng":-56.20578257890794,"code":"4764"},{"seq":58,"id":"4765","name":"CERRITO esq. ZABALA","lat":-34.90561830689571,"lng":-56.207879137519804,"code":"4765"},{"seq":59,"id":"4773","name":"CERRITO esq. PEREZ CASTELLANO","lat":-34.906624007542774,"lng":-56.21085086685308,"code":"4773"},{"seq":60,"id":"4774","name":"CERRITO esq. JUAN LINDOLFO CUESTAS","lat":-34.90753583985315,"lng":-56.2136045742601,"code":"4774"},{"seq":61,"id":"4929","name":"JUAN LINDOLFO CUESTAS esq. WASHINGTON","lat":-34.90912286787016,"lng":-56.21332952460498,"code":"4929"},{"seq":62,"id":"4769","name":"BUENOS AIRES esq. GUARANI","lat":-34.91047979456778,"lng":-56.21094004617812,"code":"4769"},{"seq":63,"id":"4770","name":"BUENOS AIRES esq. COLON","lat":-34.909782251374686,"lng":-56.20880318576354,"code":"4770"},{"seq":64,"id":"4771","name":"BUENOS AIRES esq. MISIONES","lat":-34.908738679799676,"lng":-56.20565920081309,"code":"4771"},{"seq":65,"id":"4772","name":"BUENOS AIRES esq. ITUZAINGO","lat":-34.908139826603445,"lng":-56.20369061101104,"code":"4772"}],"1":[{"seq":1,"id":"6987","name":"25 DE MAYO esq. JUNCAL","lat":-34.904319303555496,"lng":-56.20136421430059,"code":"6987"},{"seq":2,"id":"4763","name":"CERRITO esq. BARTOLOME MITRE","lat":-34.90400477623158,"lng":-56.203070088466596,"code":"4763"},{"seq":3,"id":"4764","name":"CERRITO esq. TREINTA Y TRES","lat":-34.904920052752594,"lng":-56.20578257890794,"code":"4764"},{"seq":4,"id":"4765","name":"CERRITO esq. ZABALA","lat":-34.90561830689571,"lng":-56.207879137519804,"code":"4765"},{"seq":5,"id":"4773","name":"CERRITO esq. PEREZ CASTELLANO","lat":-34.906624007542774,"lng":-56.21085086685308,"code":"4773"},{"seq":6,"id":"4774","name":"CERRITO esq. JUAN LINDOLFO CUESTAS","lat":-34.90753583985315,"lng":-56.2136045742601,"code":"4774"},{"seq":7,"id":"4929","name":"JUAN LINDOLFO CUESTAS esq. WASHINGTON","lat":-34.90912286787016,"lng":-56.21332952460498,"code":"4929"},{"seq":8,"id":"4769","name":"BUENOS AIRES esq. GUARANI","lat":-34.91047979456778,"lng":-56.21094004617812,"code":"4769"},{"seq":9,"id":"4770","name":"BUENOS AIRES esq. COLON","lat":-34.909782251374686,"lng":-56.20880318576354,"code":"4770"},{"seq":10,"id":"4771","name":"BUENOS AIRES esq. MISIONES","lat":-34.908738679799676,"lng":-56.20565920081309,"code":"4771"},{"seq":11,"id":"4772","name":"BUENOS AIRES esq. ITUZAINGO","lat":-34.908139826603445,"lng":-56.20369061101104,"code":"4772"},{"seq":12,"id":"5109","name":"ANDES esq. AV 18 DE JULIO","lat":-34.9066402089398,"lng":-56.197978248579226,"code":"5109"},{"seq":13,"id":"4021","name":"MERCEDES esq. CONVENCION","lat":-34.90446552313132,"lng":-56.19751423911956,"code":"4021"},{"seq":14,"id":"4088","name":"PAYSANDU esq. RIO NEGRO","lat":-34.90238539578826,"lng":-56.19438052761521,"code":"4088"},{"seq":15,"id":"4089","name":"PAYSANDU esq. AV GRAL RONDEAU","lat":-34.90217249971623,"lng":-56.191990102244304,"code":"4089"},{"seq":16,"id":"4584","name":"PAYSANDU esq. YAGUARON","lat":-34.901967604200415,"lng":-56.18862190166864,"code":"4584"},{"seq":17,"id":"4090","name":"PAYSANDU esq. DR JAVIER BARRIOS AMORIN","lat":-34.901787981401824,"lng":-56.1859340516269,"code":"4090"},{"seq":18,"id":"4092","name":"PAYSANDU esq. MINAS","lat":-34.90068405200949,"lng":-56.182458633103344,"code":"4092"},{"seq":19,"id":"4093","name":"PAYSANDU esq. TRISTAN NARVAJA","lat":-34.899375807260675,"lng":-56.17932212121968,"code":"4093"},{"seq":20,"id":"3836","name":"AV DANIEL FERNANDEZ CRESPO esq. LA PAZ","lat":-34.89691510862053,"lng":-56.18008238388338,"code":"3836"},{"seq":21,"id":"3838","name":"AV DANIEL FERNANDEZ CRESPO esq. LIMA","lat":-34.894232603971,"lng":-56.18373846355934,"code":"3838"},{"seq":22,"id":"3738","name":"AV DANIEL FERNANDEZ CRESPO esq. AV DE LAS LEYES","lat":-34.891868152767245,"lng":-56.18571213056046,"code":"3738"},{"seq":23,"id":"3666","name":"AV DE LAS LEYES esq. BATOVI","lat":-34.89010771130561,"lng":-56.18533826927376,"code":"3666"},{"seq":24,"id":"3667","name":"YATAY esq. MARCELINO SOSA","lat":-34.888660223354194,"lng":-56.18672574558212,"code":"3667"},{"seq":25,"id":"4433","name":"AV GRAL SAN MARTIN esq. MARTIN GARCIA","lat":-34.88634692195809,"lng":-56.18773340951671,"code":"4433"},{"seq":26,"id":"3988","name":"AV GRAL SAN MARTIN esq. DR JUAN J DE AMEZAGA","lat":-34.88462972069693,"lng":-56.186924835125126,"code":"3988"},{"seq":27,"id":"3592","name":"AV MILLAN esq. DR DOMINGO ARAMBURU","lat":-34.88080020889205,"lng":-56.18762993219784,"code":"3592"},{"seq":28,"id":"3593","name":"AV MILLAN esq. CONCEPCION ARENAL","lat":-34.87892438910915,"lng":-56.18732123212667,"code":"3593"},{"seq":29,"id":"3594","name":"AV MILLAN esq. DR EVARISTO CIGANDA","lat":-34.87599702781938,"lng":-56.187580992691885,"code":"3594"},{"seq":30,"id":"3595","name":"AV MILLAN esq. SITIO GRANDE","lat":-34.87430863143037,"lng":-56.18850803963696,"code":"3595"},{"seq":31,"id":"3596","name":"AV MILLAN esq. GRITO DE ASENCIO","lat":-34.8717587328066,"lng":-56.18986083393579,"code":"3596"},{"seq":32,"id":"3597","name":"AV MILLAN esq. PASCUAL RUIZ HUIDOBRO","lat":-34.8686501815202,"lng":-56.19169738798463,"code":"3597"},{"seq":33,"id":"3598","name":"AV MILLAN esq. RAMON ESTOMBA","lat":-34.86706733420363,"lng":-56.192109005486685,"code":"3598"},{"seq":34,"id":"3599","name":"AV MILLAN esq. DR CARLOS VAZ FERREIRA","lat":-34.86477764858107,"lng":-56.1926743913084,"code":"3599"},{"seq":35,"id":"3600","name":"AV MILLAN esq. CUBO DEL NORTE","lat":-34.862631595243926,"lng":-56.193238341882626,"code":"3600"},{"seq":36,"id":"3601","name":"AV MILLAN esq. AV 19 DE ABRIL","lat":-34.860304992174946,"lng":-56.19486979589008,"code":"3601"},{"seq":37,"id":"3602","name":"AV MILLAN esq. AV DR LUIS ALBERTO DE HERRERA","lat":-34.858523313653556,"lng":-56.195861624387554,"code":"3602"},{"seq":38,"id":"1624","name":"AV MILLAN esq. PSJE PNAL CABALLEROS ORIENTALES","lat":-34.85514241740107,"lng":-56.19677174690119,"code":"1624"},{"seq":39,"id":"1625","name":"AV MILLAN esq. RBLA COSTANERA FRANCISCO LAVALLEJA","lat":-34.85277483246349,"lng":-56.197233000964694,"code":"1625"},{"seq":40,"id":"1626","name":"AV MILLAN esq. ANGEL MUÑIZ","lat":-34.85070232931629,"lng":-56.19784261642705,"code":"1626"},{"seq":41,"id":"1638","name":"AV MILLAN esq. CLEMENCEAU","lat":-34.848324921268464,"lng":-56.198892190635746,"code":"1638"},{"seq":42,"id":"1639","name":"AV MILLAN esq. LORETO GOMENSORO","lat":-34.84653601827625,"lng":-56.20131808057998,"code":"1639"},{"seq":43,"id":"1640","name":"AV MILLAN esq. PEDRO 1RO","lat":-34.84544561831434,"lng":-56.203126709693684,"code":"1640"},{"seq":44,"id":"1641","name":"AV MILLAN esq. LAS VIOLETAS","lat":-34.843709458299344,"lng":-56.206013460658916,"code":"1641"},{"seq":45,"id":"1642","name":"AV MILLAN esq. CNO MOLINOS DE RAFFO","lat":-34.84221816563906,"lng":-56.20850222849706,"code":"1642"},{"seq":46,"id":"1647","name":"AV MILLAN esq. CALAGUALA","lat":-34.84084642225513,"lng":-56.210791770764175,"code":"1647"},{"seq":47,"id":"1648","name":"AV MILLAN esq. BELL","lat":-34.83917527492241,"lng":-56.21363818878369,"code":"1648"},{"seq":48,"id":"6992","name":"AV SAYAGO esq. AV MILLAN","lat":-34.836345602945,"lng":-56.21718038952424,"code":"6992"},{"seq":49,"id":"6993","name":"AV SAYAGO esq. TACUABE","lat":-34.83445148149383,"lng":-56.21646886547021,"code":"6993"},{"seq":50,"id":"1441","name":"CNO ARIEL esq. 28 DE FEBRERO","lat":-34.83275733676736,"lng":-56.21783912636787,"code":"1441"},{"seq":51,"id":"1443","name":"CNO ARIEL esq. AV GRAL EUGENIO GARZON","lat":-34.83139709060848,"lng":-56.220167031509476,"code":"1443"},{"seq":52,"id":"4897","name":"AV GRAL EUGENIO GARZON esq. BV JOSE BATLLE Y ORDOÑEZ","lat":-34.82792023527521,"lng":-56.22007344606728,"code":"4897"},{"seq":53,"id":"1157","name":"AV GRAL EUGENIO GARZON esq. CNO GRAL MAXIMO SANTOS","lat":-34.8240582030457,"lng":-56.21979534413378,"code":"1157"},{"seq":54,"id":"1159","name":"AV GRAL EUGENIO GARZON esq. CNO EDISON","lat":-34.819934682914855,"lng":-56.22002611718232,"code":"1159"},{"seq":55,"id":"1160","name":"AV GRAL EUGENIO GARZON esq. BV APARICIO SARAVIA","lat":-34.81578430100813,"lng":-56.22038637899736,"code":"1160"},{"seq":56,"id":"1161","name":"AV GRAL EUGENIO GARZON esq. CNO CASAVALLE","lat":-34.812626240234906,"lng":-56.22065477446227,"code":"1161"},{"seq":57,"id":"1162","name":"AV GRAL EUGENIO GARZON esq. CARVE","lat":-34.8086534959177,"lng":-56.221377061499325,"code":"1162"},{"seq":58,"id":"1163","name":"AV GRAL EUGENIO GARZON esq. PLAZA VIDIELLA","lat":-34.805889326709355,"lng":-56.22204918493653,"code":"1163"},{"seq":59,"id":"983","name":"AV LEZICA esq. CALDERON DE LA BARCA","lat":-34.80398713023451,"lng":-56.225728015075724,"code":"983"},{"seq":60,"id":"979","name":"AV LEZICA esq. YEGROS","lat":-34.803427502444976,"lng":-56.228692526419465,"code":"979"},{"seq":61,"id":"6187","name":"AV LEZICA esq. ITURBE","lat":-34.80283977466311,"lng":-56.23136562860247,"code":"6187"},{"seq":62,"id":"977","name":"AV LEZICA esq. CAACUPE","lat":-34.80237277648723,"lng":-56.23390089599557,"code":"977"},{"seq":63,"id":"975","name":"AV LEZICA esq. CNO DEL APERO","lat":-34.801887120106606,"lng":-56.236476899098086,"code":"975"},{"seq":64,"id":"973","name":"AV LEZICA esq. GIOIA","lat":-34.801406369387024,"lng":-56.23903508872382,"code":"973"},{"seq":65,"id":"922","name":"AV LEZICA esq. JUAN P LAMOLLE","lat":-34.80138124067483,"lng":-56.24215988143256,"code":"922"},{"seq":66,"id":"924","name":"AV LEZICA esq. NIÑA","lat":-34.80019556579006,"lng":-56.24344956912532,"code":"924"},{"seq":67,"id":"926","name":"AV LEZICA esq. SANTA MARIA","lat":-34.7989024965081,"lng":-56.244931942186575,"code":"926"},{"seq":68,"id":"4898","name":"AV LEZICA esq. PINTA","lat":-34.797694630271046,"lng":-56.24638127505369,"code":"4898"},{"seq":69,"id":"930","name":"AV LEZICA esq. GUANAHANY","lat":-34.79643889137379,"lng":-56.24776656449029,"code":"930"},{"seq":70,"id":"932","name":"AV LEZICA esq. VERAGUAS","lat":-34.79522197715612,"lng":-56.249150182346206,"code":"932"},{"seq":71,"id":"934","name":"AV LEZICA esq. PEABODY","lat":-34.793976757847204,"lng":-56.25063926930574,"code":"934"},{"seq":72,"id":"936","name":"AV LEZICA esq. LUIS MORANDI","lat":-34.79275156518204,"lng":-56.25203303906295,"code":"936"},{"seq":73,"id":"938","name":"AV LEZICA esq. MEDIODIA","lat":-34.79155469600061,"lng":-56.25336357777876,"code":"938"},{"seq":74,"id":"941","name":"AV LEZICA esq. CNO AVIADORES CIVILES","lat":-34.78802998399366,"lng":-56.258264339341125,"code":"941"},{"seq":75,"id":"942","name":"AV LEZICA esq. CALLE N1","lat":-34.78721748485073,"lng":-56.259966119672846,"code":"942"},{"seq":76,"id":"4694","name":"CNO MELILLA esq. GUTTEMBERG","lat":-34.78535202909522,"lng":-56.26145411699503,"code":"4694"},{"seq":77,"id":"789","name":"CNO MELILLA esq. CNO CNEL AV JAIME MEREGALLI","lat":-34.78288626919884,"lng":-56.262635166075086,"code":"789"},{"seq":78,"id":"787","name":"CNO MELILLA esq. CNO PASCUAL HARRIAGUE","lat":-34.77900730798774,"lng":-56.26464762605877,"code":"787"},{"seq":79,"id":"785","name":"CNO MELILLA esq. RUTA NAL 102 WILSON F ALDUNATE","lat":-34.77547547841466,"lng":-56.26632575495017,"code":"785"},{"seq":80,"id":"4692","name":"RUTA NAL 102 WILSON F ALDUNATE esq. CNO MELILLA","lat":-34.773333708387106,"lng":-56.26690839709433,"code":"4692"},{"seq":81,"id":"783","name":"CNO MELILLA esq. RUTA NAL 5 BRIG GRAL F RIVERA","lat":-34.772024264147554,"lng":-56.26732976250801,"code":"783"},{"seq":82,"id":"780","name":"CNO FAUQUET esq. RUTA NAL 5 BRIG GRAL F RIVERA","lat":-34.76676794930453,"lng":-56.266801659517945,"code":"780"},{"seq":83,"id":"779","name":"CNO FAUQUET esq. CNO MELILLA","lat":-34.76464124400169,"lng":-56.269395692626524,"code":"779"},{"seq":84,"id":"777","name":"CNO MELILLA esq. CNO PEIXOTO","lat":-34.76127126939548,"lng":-56.27031585352642,"code":"777"}]}