{"0":[{"seq":1,"id":"5881","name":"CIRC INT SIN DENOM esq. AV GRAL EUGENIO GARZON","lat":-34.79939327266423,"lng":-56.222396562953456,"code":"5881"},{"seq":2,"id":"5144","name":"CALDERON DE LA BARCA esq. ANDRE GIOT DE BADET","lat":-34.80121637614609,"lng":-56.22678439729213,"code":"5144"},{"seq":3,"id":"5852","name":"CALDERON DE LA BARCA esq. AV LEZICA","lat":-34.80333937100392,"lng":-56.22743498733585,"code":"5852"},{"seq":4,"id":"979","name":"AV LEZICA esq. YEGROS","lat":-34.803427502444976,"lng":-56.228692526419465,"code":"979"},{"seq":5,"id":"6187","name":"AV LEZICA esq. ITURBE","lat":-34.80283977466311,"lng":-56.23136562860247,"code":"6187"},{"seq":6,"id":"5859","name":"CAACUPE esq. AV LEZICA","lat":-34.80288311346714,"lng":-56.233806311206195,"code":"5859"},{"seq":7,"id":"6446","name":"CAACUPE esq. CARVE","lat":-34.80577755464323,"lng":-56.23468382029614,"code":"6446"},{"seq":8,"id":"6458","name":"LANUS esq. CARLOS OTT","lat":-34.80376483207374,"lng":-56.236616388108025,"code":"6458"},{"seq":9,"id":"6460","name":"LANUS esq. CORNELIO GUERRA","lat":-34.80298811358002,"lng":-56.239889602902984,"code":"6460"},{"seq":10,"id":"6462","name":"JUAN P LAMOLLE esq. AV LEZICA","lat":-34.80157115689368,"lng":-56.24290918454465,"code":"6462"},{"seq":11,"id":"921","name":"JUAN P LAMOLLE esq. MONTALVO","lat":-34.80344950897459,"lng":-56.24508565958395,"code":"921"},{"seq":12,"id":"920","name":"JUAN P LAMOLLE esq. ISOLICA","lat":-34.80659390972711,"lng":-56.24761942544177,"code":"920"},{"seq":13,"id":"6562","name":"GALILEO esq. ANTONIO RUBIO","lat":-34.80919117778904,"lng":-56.24687896832861,"code":"6562"},{"seq":14,"id":"5442","name":"ANTONIO RUBIO esq. NIÑA","lat":-34.8079276860414,"lng":-56.25017726651084,"code":"5442"},{"seq":15,"id":"4691","name":"CNO MELILLA esq. ANTONIO RUBIO","lat":-34.80690696008738,"lng":-56.25353891958564,"code":"4691"},{"seq":16,"id":"796","name":"CNO MELILLA esq. NIÑA","lat":-34.81078459408742,"lng":-56.25242342152304,"code":"796"},{"seq":17,"id":"800","name":"CNO MELILLA esq. CNO LUIS EDUARDO PEREZ","lat":-34.81320775342285,"lng":-56.251891741799156,"code":"800"},{"seq":18,"id":"1383","name":"CNO MELILLA esq. CNO LUIS EDUARDO PEREZ","lat":-34.815700430737294,"lng":-56.25206305969951,"code":"1383"},{"seq":19,"id":"1384","name":"MARIO ARREGUI esq. CALLE 1 (7906)","lat":-34.82133127754192,"lng":-56.249817909564115,"code":"1384"},{"seq":20,"id":"4689","name":"MARIO ARREGUI esq. PSJE 15 METROS","lat":-34.823225378906166,"lng":-56.24676920029648,"code":"4689"},{"seq":21,"id":"5127","name":"CNO LECOCQ esq. CIRC INT CALLE 4","lat":-34.823313587364545,"lng":-56.243400159889426,"code":"5127"},{"seq":22,"id":"1386","name":"CNO LECOCQ esq. AV MILLAN","lat":-34.822945306300234,"lng":-56.241838155396096,"code":"1386"},{"seq":23,"id":"1353","name":"AV MILLAN esq. CIRC INT CALLE 1","lat":-34.823505395395856,"lng":-56.24047221407811,"code":"1353"},{"seq":24,"id":"1354","name":"AV MILLAN esq. CIRC INT CALLE 3","lat":-34.82431323309683,"lng":-56.2391028465973,"code":"1354"},{"seq":25,"id":"5006","name":"AV MILLAN esq. RUTA NAL ACCESO RUTA 5 - MILLAN","lat":-34.82631552803298,"lng":-56.23571481710216,"code":"5006"},{"seq":26,"id":"1355","name":"RUTA NAL ACCESO RUTA 5 - MILLAN esq. AV MILLAN","lat":-34.829389716428935,"lng":-56.23047666818038,"code":"1355"},{"seq":27,"id":"4486","name":"JUAN BAUTISTA SAA esq. MARIA ORTICOCHEA","lat":-34.831748079192785,"lng":-56.23245572405205,"code":"4486"},{"seq":28,"id":"6312","name":"MARIA ORTICOCHEA esq. CALLE 4 DE 15 MTS","lat":-34.83088599017411,"lng":-56.23436648564232,"code":"6312"},{"seq":29,"id":"4685","name":"MARIA ORTICOCHEA esq. CALLE 2 DE 12 MTS","lat":-34.82997815908712,"lng":-56.23590195300808,"code":"4685"},{"seq":30,"id":"1369","name":"MARIA ORTICOCHEA esq. HECTOR VIGIL","lat":-34.82881545088977,"lng":-56.23782726501739,"code":"1369"},{"seq":31,"id":"1370","name":"MARIA ORTICOCHEA esq. RUTA NAL ACCESO RUTA 5 - MILLAN","lat":-34.82791788619713,"lng":-56.239338676793665,"code":"1370"},{"seq":32,"id":"1367","name":"ALBERTO GOMEZ RUANO esq. CARMELO DE ARZADUM","lat":-34.828333151533734,"lng":-56.24149666421549,"code":"1367"},{"seq":33,"id":"1372","name":"ALBERTO GOMEZ RUANO esq. AV ISLAS CANARIAS","lat":-34.830437940602415,"lng":-56.243304735904296,"code":"1372"},{"seq":34,"id":"1373","name":"AV ISLAS CANARIAS esq. PSJE 5","lat":-34.831639963722374,"lng":-56.241760886520346,"code":"1373"},{"seq":35,"id":"4620","name":"CNO CARLOS MARIA DE PENA esq. VITTORIO VENETO","lat":-34.835329901610855,"lng":-56.24050365286405,"code":"4620"},{"seq":36,"id":"1327","name":"CNO CARLOS MARIA DE PENA esq. YUGOESLAVIA","lat":-34.83683763145965,"lng":-56.2379939256414,"code":"1327"},{"seq":37,"id":"6303","name":"GRAL HORNOS esq. CARLOS ANGEL GARRE","lat":-34.839055975655064,"lng":-56.23774639344427,"code":"6303"},{"seq":38,"id":"6304","name":"FARAMIÑAN esq. CNO CARLOS MARIA DE PENA","lat":-34.83869321885289,"lng":-56.235247408695365,"code":"6304"},{"seq":39,"id":"6429","name":"CNO CARLOS MARIA DE PENA esq. TRIUNFO","lat":-34.83943145640816,"lng":-56.233747929715776,"code":"6429"},{"seq":40,"id":"1328","name":"CNO CARLOS MARIA DE PENA esq. FRAY ANTONIO ALDAO","lat":-34.84029782906259,"lng":-56.23218478935338,"code":"1328"},{"seq":41,"id":"1329","name":"FRAY ANTONIO ALDAO esq. IQUIQUE","lat":-34.84249184370838,"lng":-56.23142890208414,"code":"1329"},{"seq":42,"id":"4411","name":"GRAL HORNOS esq. BERNARDO DE GUZMAN","lat":-34.844212631680136,"lng":-56.22877425984825,"code":"4411"},{"seq":43,"id":"5964","name":"CORONILLA esq. CNO CARLOS MARIA DE PENA","lat":-34.84373141232954,"lng":-56.22638023915347,"code":"5964"},{"seq":44,"id":"5966","name":"CORONILLA esq. AV ISLAS CANARIAS","lat":-34.841687299037865,"lng":-56.224763268850616,"code":"5966"},{"seq":45,"id":"1381","name":"AV ISLAS CANARIAS esq. AV GRAL EUGENIO GARZON","lat":-34.84275450997379,"lng":-56.22246578293948,"code":"1381"},{"seq":46,"id":"1206","name":"AV GRAL EUGENIO GARZON esq. CNO CARLOS MARIA DE PENA","lat":-34.845473783590926,"lng":-56.22249597473526,"code":"1206"},{"seq":47,"id":"1208","name":"AV GRAL EUGENIO GARZON esq. EMANCIPACION","lat":-34.84889041335548,"lng":-56.22345389200701,"code":"1208"},{"seq":48,"id":"1209","name":"AV GRAL EUGENIO GARZON esq. SAN QUINTIN","lat":-34.85195835841892,"lng":-56.22445736321098,"code":"1209"},{"seq":49,"id":"5958","name":"JOSE LLUPES esq. AV CARLOS MARIA RAMIREZ","lat":-34.85484229420414,"lng":-56.222540905508765,"code":"5958"},{"seq":50,"id":"1568","name":"AV AGRACIADA esq. JOSE B FREIRE","lat":-34.856091460818575,"lng":-56.220543735711516,"code":"1568"},{"seq":51,"id":"1569","name":"AV AGRACIADA esq. JUAN ANTONIO ARTIGAS","lat":-34.857792380402444,"lng":-56.2184672267529,"code":"1569"},{"seq":52,"id":"4212","name":"AV AGRACIADA esq. SAN MIGUEL","lat":-34.86072842458384,"lng":-56.214697548667516,"code":"4212"}],"1":[{"seq":1,"id":"1566","name":"AV AGRACIADA esq. SAN MIGUEL","lat":-34.860110573974154,"lng":-56.21512618792531,"code":"1566"},{"seq":2,"id":"1567","name":"AV AGRACIADA esq. JUAN ANTONIO ARTIGAS","lat":-34.85791889811781,"lng":-56.218021744301836,"code":"1567"},{"seq":3,"id":"1145","name":"AV AGRACIADA esq. JOSE B FREIRE","lat":-34.85623986691799,"lng":-56.220152389011396,"code":"1145"},{"seq":4,"id":"4603","name":"SAN QUINTIN esq. CNEL BOLOGNESI","lat":-34.85449929438208,"lng":-56.22171306972709,"code":"4603"},{"seq":5,"id":"6204","name":"SAN QUINTIN esq. TRIAS","lat":-34.85233832419669,"lng":-56.223563668560836,"code":"6204"},{"seq":6,"id":"6207","name":"AV GRAL EUGENIO GARZON esq. EMANCIPACION","lat":-34.84971985820681,"lng":-56.22349010701725,"code":"6207"},{"seq":7,"id":"6208","name":"AV GRAL EUGENIO GARZON esq. CIRC INT SIN DENOM","lat":-34.845068099604596,"lng":-56.22218769026375,"code":"6208"},{"seq":8,"id":"6077","name":"AV GRAL EUGENIO GARZON esq. CAAZAPA","lat":-34.84263424289479,"lng":-56.222373455337696,"code":"6077"},{"seq":9,"id":"1360","name":"AV ISLAS CANARIAS esq. CORONILLA","lat":-34.84155240652157,"lng":-56.22440664898803,"code":"1360"},{"seq":10,"id":"5965","name":"CORONILLA esq. CNO CARLOS MARIA DE PENA","lat":-34.84338036518292,"lng":-56.226340468027246,"code":"5965"},{"seq":11,"id":"1330","name":"GRAL HORNOS esq. BERNARDO DE GUZMAN","lat":-34.84433423619551,"lng":-56.228219920098596,"code":"1330"},{"seq":12,"id":"4413","name":"GRAL HORNOS esq. TAMPICO","lat":-34.84274955208888,"lng":-56.23109385405694,"code":"4413"},{"seq":13,"id":"4447","name":"FRAY ANTONIO ALDAO esq. CNO CARLOS MARIA DE PENA","lat":-34.840711013506194,"lng":-56.23179980525378,"code":"4447"},{"seq":14,"id":"6428","name":"CNO CARLOS MARIA DE PENA esq. TRIUNFO","lat":-34.839414062362046,"lng":-56.233364998390606,"code":"6428"},{"seq":15,"id":"4310","name":"FARAMIÑAN esq. CNO CARLOS MARIA DE PENA","lat":-34.83887102790781,"lng":-56.235557968740366,"code":"4310"},{"seq":16,"id":"6888","name":"GRAL HORNOS esq. CARLOS ANGEL GARRE","lat":-34.8391288593266,"lng":-56.237468695845806,"code":"6888"},{"seq":17,"id":"4312","name":"CNO CARLOS MARIA DE PENA esq. CIRC INT ANTONIO GARCIA DE AVILA","lat":-34.83657817579401,"lng":-56.23803853327153,"code":"4312"},{"seq":18,"id":"1326","name":"CNO CARLOS MARIA DE PENA esq. VITTORIO VENETO","lat":-34.83530677371755,"lng":-56.24034666744427,"code":"1326"},{"seq":19,"id":"1365","name":"AV ISLAS CANARIAS esq. HECTOR VIGIL","lat":-34.83219161044519,"lng":-56.24075820801133,"code":"1365"},{"seq":20,"id":"1366","name":"AV ISLAS CANARIAS esq. ALBERTO GOMEZ RUANO","lat":-34.83071403237644,"lng":-56.24303952584128,"code":"1366"},{"seq":21,"id":"1371","name":"ALBERTO GOMEZ RUANO esq. CARMELO DE ARZADUM","lat":-34.829218248121926,"lng":-56.242084139225874,"code":"1371"},{"seq":22,"id":"1368","name":"ALBERTO GOMEZ RUANO esq. RUTA NAL ACCESO RUTA 5 - MILLAN","lat":-34.827714766883076,"lng":-56.24086869574546,"code":"1368"},{"seq":23,"id":"4542","name":"MARIA ORTICOCHEA esq. HECTOR VIGIL","lat":-34.828688045870585,"lng":-56.238344654217705,"code":"4542"},{"seq":24,"id":"4686","name":"MARIA ORTICOCHEA esq. CALLE 2 DE 12 MTS","lat":-34.83007376006403,"lng":-56.23597315868162,"code":"4686"},{"seq":25,"id":"6313","name":"MARIA ORTICOCHEA esq. CALLE 4 DE 15 MTS","lat":-34.83090228029987,"lng":-56.23458684091635,"code":"6313"},{"seq":26,"id":"6037","name":"JUAN BAUTISTA SAA esq. 15 METROS","lat":-34.8311132052779,"lng":-56.23164092496278,"code":"6037"},{"seq":27,"id":"4487","name":"JUAN BAUTISTA SAA esq. AV MILLAN","lat":-34.82976626530441,"lng":-56.23041422556963,"code":"4487"},{"seq":28,"id":"4171","name":"AV MILLAN esq. ALBERTO GOMEZ RUANO","lat":-34.82628124759616,"lng":-56.23550046082321,"code":"4171"},{"seq":29,"id":"1350","name":"AV MILLAN esq. CIRC INT CALLE 3","lat":-34.82421014444222,"lng":-56.23903849012008,"code":"1350"},{"seq":30,"id":"1351","name":"AV MILLAN esq. CIRC INT CALLE 1","lat":-34.823347767621804,"lng":-56.24046460262782,"code":"1351"},{"seq":31,"id":"1385","name":"CNO LECOCQ esq. CIRC INT CALLE 4","lat":-34.823069851786535,"lng":-56.243132586335356,"code":"1385"},{"seq":32,"id":"4397","name":"MARIO ARREGUI esq. RUTA NAL INTERCONEXION RUTA 1 Y 5","lat":-34.82315317412224,"lng":-56.246723140308596,"code":"4397"},{"seq":33,"id":"4688","name":"MARIO ARREGUI esq. PSJE 15 METROS","lat":-34.82167277013761,"lng":-56.24940779508977,"code":"4688"},{"seq":34,"id":"1382","name":"CNO MELILLA esq. CNO LUIS EDUARDO PEREZ","lat":-34.81577962827106,"lng":-56.25175290378043,"code":"1382"},{"seq":35,"id":"801","name":"CNO MELILLA esq. CNO LUIS EDUARDO PEREZ","lat":-34.81395819529969,"lng":-56.25166633144846,"code":"801"},{"seq":36,"id":"797","name":"CNO MELILLA esq. ANTONIO RUBIO","lat":-34.810295807231384,"lng":-56.25212804368532,"code":"797"},{"seq":37,"id":"4690","name":"CNO MELILLA esq. ANTONIO RUBIO","lat":-34.8069574506275,"lng":-56.25333859290321,"code":"4690"},{"seq":38,"id":"918","name":"ANTONIO RUBIO esq. NIÑA","lat":-34.80782293219633,"lng":-56.250613293681084,"code":"918"},{"seq":39,"id":"6563","name":"ANTONIO RUBIO esq. GALILEO","lat":-34.8093599605721,"lng":-56.24730714184782,"code":"6563"},{"seq":40,"id":"6568","name":"ISOLICA esq. JUAN P LAMOLLE","lat":-34.806871355320155,"lng":-56.2473951531716,"code":"6568"},{"seq":41,"id":"4571","name":"JUAN P LAMOLLE esq. MONTALVO","lat":-34.80387386694081,"lng":-56.24542239322987,"code":"4571"},{"seq":42,"id":"4570","name":"JUAN P LAMOLLE esq. AV LEZICA","lat":-34.80154505261454,"lng":-56.242454672024984,"code":"4570"},{"seq":43,"id":"6461","name":"LANUS esq. CORNELIO GUERRA","lat":-34.803251474470905,"lng":-56.23963018604973,"code":"6461"},{"seq":44,"id":"6459","name":"LANUS esq. CARLOS OTT","lat":-34.80386748108038,"lng":-56.236444141610114,"code":"6459"},{"seq":45,"id":"6455","name":"CARVE esq. CAACUPE","lat":-34.80596517519392,"lng":-56.23480421577847,"code":"6455"},{"seq":46,"id":"5875","name":"CAACUPE esq. AV LEZICA","lat":-34.80272405598944,"lng":-56.233637511817676,"code":"5875"},{"seq":47,"id":"6189","name":"AV LEZICA esq. ITURBE","lat":-34.80299846238386,"lng":-56.232052254788485,"code":"6189"},{"seq":48,"id":"978","name":"AV LEZICA esq. CALDERON DE LA BARCA","lat":-34.80366142686806,"lng":-56.22844188560303,"code":"978"},{"seq":49,"id":"5184","name":"CALDERON DE LA BARCA esq. ANDRE GIOT DE BADET","lat":-34.80149912443613,"lng":-56.22676168242127,"code":"5184"},{"seq":50,"id":"5879","name":"CIRC INT SIN DENOM esq. AV GRAL EUGENIO GARZON","lat":-34.799117231552145,"lng":-56.22323670274045,"code":"5879"}]}