{"0":[{"seq":1,"id":"6831","name":"COSTANERA CASABO esq. JOSE CAÑA","lat":-34.884557603186636,"lng":-56.279497817176804,"code":"6831"},{"seq":2,"id":"6832","name":"COSTANERA CASABO esq. Nº 18 (CERVANTES)","lat":-34.88623924875077,"lng":-56.27868192758723,"code":"6832"},{"seq":3,"id":"6833","name":"COSTANERA CASABO esq. Nº 18 (CERVANTES)","lat":-34.888054953548384,"lng":-56.27898336346268,"code":"6833"},{"seq":4,"id":"4973","name":"ETIOPIA esq. UGANDA","lat":-34.88876107569125,"lng":-56.27692720871696,"code":"4973"},{"seq":5,"id":"4381","name":"ETIOPIA esq. MARRUECOS","lat":-34.888339406354866,"lng":-56.274218950820334,"code":"4381"},{"seq":6,"id":"4975","name":"ETIOPIA esq. CAMERUN","lat":-34.88786533370743,"lng":-56.270713016481444,"code":"4975"},{"seq":7,"id":"4972","name":"ETIOPIA esq. GUINEA","lat":-34.88752506720263,"lng":-56.26829777067404,"code":"4972"},{"seq":8,"id":"1245","name":"ETIOPIA esq. UCRANIA","lat":-34.887257092667696,"lng":-56.266691211514974,"code":"1245"},{"seq":9,"id":"1246","name":"UCRANIA esq. CONT RUSIA","lat":-34.88559066816778,"lng":-56.26668258898755,"code":"1246"},{"seq":10,"id":"1247","name":"RUSIA esq. BULGARIA","lat":-34.88501733749374,"lng":-56.263824829906696,"code":"1247"},{"seq":11,"id":"1248","name":"BULGARIA esq. SUECIA","lat":-34.88437161831973,"lng":-56.263763137596676,"code":"1248"},{"seq":12,"id":"1249","name":"SUECIA esq. GIBRALTAR","lat":-34.88399006574645,"lng":-56.262898573658255,"code":"1249"},{"seq":13,"id":"1250","name":"GIBRALTAR esq. CHINA","lat":-34.882335869746385,"lng":-56.263040951909225,"code":"1250"},{"seq":14,"id":"1251","name":"GIBRALTAR esq. PERU","lat":-34.880537027099045,"lng":-56.26340010757276,"code":"1251"},{"seq":15,"id":"1252","name":"GIBRALTAR esq. BERNA","lat":-34.87880470344117,"lng":-56.26376152923848,"code":"1252"},{"seq":16,"id":"1278","name":"BERNA esq. PATAGONIA","lat":-34.87833933459209,"lng":-56.261808524360696,"code":"1278"},{"seq":17,"id":"1279","name":"BERNA esq. CUBA","lat":-34.87805945474084,"lng":-56.259675309063375,"code":"1279"},{"seq":18,"id":"1280","name":"BERNA esq. POLONIA","lat":-34.87777243931229,"lng":-56.25753540020793,"code":"1280"},{"seq":19,"id":"1281","name":"BERNA esq. RIO DE JANEIRO","lat":-34.8774787698817,"lng":-56.25529943850487,"code":"1281"},{"seq":20,"id":"1144","name":"RIO DE JANEIRO esq. JAPON","lat":-34.87586567540836,"lng":-56.2554184883117,"code":"1144"},{"seq":21,"id":"1064","name":"AV CARLOS MARIA RAMIREZ esq. BOGOTA","lat":-34.874694071295146,"lng":-56.25494367903302,"code":"1064"},{"seq":22,"id":"4775","name":"AV DR SANTIN CARLOS ROSSI esq. DR PEDRO CASTELLINO","lat":-34.87366351246541,"lng":-56.25252419496949,"code":"4775"},{"seq":23,"id":"4843","name":"DR PEDRO CASTELLINO esq. TURQUIA","lat":-34.87331449578367,"lng":-56.24994058065089,"code":"4843"},{"seq":24,"id":"4776","name":"JAPON esq. VIGO","lat":-34.87467209400156,"lng":-56.24788565268965,"code":"4776"},{"seq":25,"id":"1283","name":"AV CARLOS MARIA RAMIREZ esq. CONCORDIA","lat":-34.869051415570574,"lng":-56.23959388492736,"code":"1283"},{"seq":26,"id":"1284","name":"AV CARLOS MARIA RAMIREZ esq. HUMBOLDT","lat":-34.86785620603017,"lng":-56.23813490916223,"code":"1284"},{"seq":27,"id":"1533","name":"HUMBOLDT esq. DIONISIO CORONEL","lat":-34.86881293461891,"lng":-56.23657003035088,"code":"1533"},{"seq":28,"id":"1534","name":"HUMBOLDT esq. BALTASAR MONTERO VIDAURRETA","lat":-34.87013384160965,"lng":-56.2349342017769,"code":"1534"},{"seq":29,"id":"1501","name":"HUMBOLDT esq. EMILIO ROMERO","lat":-34.87139695773306,"lng":-56.23351221838868,"code":"1501"},{"seq":30,"id":"1502","name":"EMILIO ROMERO esq. HUMBOLDT","lat":-34.87142520191784,"lng":-56.232772281707646,"code":"1502"},{"seq":31,"id":"1503","name":"EMILIO ROMERO esq. JOSE CASTRO","lat":-34.869858267938596,"lng":-56.230927469158985,"code":"1503"},{"seq":32,"id":"1504","name":"EMILIO ROMERO esq. HILARIO ASCASUBI","lat":-34.86849261389847,"lng":-56.22927109280198,"code":"1504"},{"seq":33,"id":"1505","name":"EMILIO ROMERO esq. CARLOS TELLIER","lat":-34.86716925539146,"lng":-56.227653108923796,"code":"1505"},{"seq":34,"id":"1506","name":"EMILIO ROMERO esq. FLORENTINO AMEGHINO","lat":-34.86599362850947,"lng":-56.22617778437249,"code":"1506"},{"seq":35,"id":"1507","name":"EMILIO ROMERO esq. PEDRO CELESTINO BAUZA","lat":-34.86467361682303,"lng":-56.22451996685236,"code":"1507"},{"seq":36,"id":"1508","name":"EMILIO ROMERO esq. CONCILIACION","lat":-34.86325429332383,"lng":-56.22286019721557,"code":"1508"},{"seq":37,"id":"1512","name":"CONCILIACION esq. LUIS DE LA PEÑA","lat":-34.86435873505214,"lng":-56.221301934185334,"code":"1512"},{"seq":38,"id":"1513","name":"CONCILIACION esq. LA AURORA","lat":-34.86563326327385,"lng":-56.219816937728666,"code":"1513"},{"seq":39,"id":"1514","name":"CONCILIACION esq. DEL CID","lat":-34.866354778318616,"lng":-56.21890590420175,"code":"1514"},{"seq":40,"id":"1515","name":"JUAN MARIA GUTIERREZ esq. REPUBLICA FRANCESA","lat":-34.8684119055741,"lng":-56.216798871059225,"code":"1515"},{"seq":41,"id":"1516","name":"JUAN MARIA GUTIERREZ esq. FRANCISCO GOMEZ","lat":-34.87022794996986,"lng":-56.21516594362874,"code":"1516"},{"seq":42,"id":"1517","name":"JUAN MARIA GUTIERREZ esq. CAPURRO","lat":-34.87126787342821,"lng":-56.21386934695155,"code":"1517"},{"seq":43,"id":"1520","name":"CAPURRO esq. CORACEROS","lat":-34.87071897174046,"lng":-56.211206350529615,"code":"1520"},{"seq":44,"id":"1521","name":"CAPURRO esq. DRAGONES","lat":-34.87029647717083,"lng":-56.21004036238276,"code":"1521"},{"seq":45,"id":"1522","name":"CAPURRO esq. HERMANOS RUIZ","lat":-34.868174099567554,"lng":-56.20665450274806,"code":"1522"},{"seq":46,"id":"1573","name":"AV AGRACIADA esq. HERMANOS GIL","lat":-34.87038931543353,"lng":-56.20401810860312,"code":"1573"},{"seq":47,"id":"1574","name":"AV AGRACIADA esq. LARROBLA","lat":-34.87140512430482,"lng":-56.20298045302651,"code":"1574"},{"seq":48,"id":"1575","name":"AV AGRACIADA esq. JOSE NASAZZI","lat":-34.87323308793604,"lng":-56.20152126751111,"code":"1575"},{"seq":49,"id":"3733","name":"AV AGRACIADA esq. CAP MANUEL ANTONIO ARTIGAS","lat":-34.87494383162382,"lng":-56.2001682498744,"code":"3733"},{"seq":50,"id":"3734","name":"AV AGRACIADA esq. DR EVARISTO CIGANDA","lat":-34.876577355578085,"lng":-56.19793249614579,"code":"3734"},{"seq":51,"id":"3735","name":"AV AGRACIADA esq. DR SALVADOR GARCIA PINTOS","lat":-34.87908312480839,"lng":-56.19619126474365,"code":"3735"},{"seq":52,"id":"3724","name":"AV AGRACIADA esq. SANTA FE","lat":-34.88297839626283,"lng":-56.19453052752813,"code":"3724"},{"seq":53,"id":"3725","name":"AV AGRACIADA esq. GRAL FAUSTO AGUILAR","lat":-34.88472589592342,"lng":-56.19337699613261,"code":"3725"},{"seq":54,"id":"3726","name":"AV AGRACIADA esq. CNEL FRANCISCO TAJES","lat":-34.88686039486761,"lng":-56.1909445118529,"code":"3726"},{"seq":55,"id":"3736","name":"AV AGRACIADA esq. GRAL MANUEL FREIRE","lat":-34.88795896874254,"lng":-56.18927661636792,"code":"3736"},{"seq":56,"id":"3663","name":"AV DE LAS LEYES esq. GUATEMALA","lat":-34.891684021777536,"lng":-56.18872660096357,"code":"3663"},{"seq":57,"id":"3877","name":"MAGALLANES esq. LIMA","lat":-34.894156165683185,"lng":-56.18510033316632,"code":"3877"},{"seq":58,"id":"3878","name":"MAGALLANES esq. NUEVA YORK","lat":-34.89588333503353,"lng":-56.184078830408026,"code":"3878"},{"seq":59,"id":"3822","name":"MIGUELETE esq. AV DANIEL FERNANDEZ CRESPO","lat":-34.89594960179222,"lng":-56.181943538129026,"code":"3822"},{"seq":60,"id":"3830","name":"ARENAL GRANDE esq. LA PAZ","lat":-34.8960236277724,"lng":-56.179785201096344,"code":"3830"},{"seq":61,"id":"3831","name":"ARENAL GRANDE esq. CERRO LARGO","lat":-34.89705316339779,"lng":-56.1783211706736,"code":"3831"},{"seq":62,"id":"3832","name":"ARENAL GRANDE esq. AV URUGUAY","lat":-34.898473686360106,"lng":-56.176467221183195,"code":"3832"},{"seq":63,"id":"4031","name":"AV URUGUAY esq. EDUARDO ACEVEDO","lat":-34.899596366633894,"lng":-56.17804216147024,"code":"4031"},{"seq":64,"id":"4533","name":"MAGALLANES esq. MERCEDES","lat":-34.901341519771044,"lng":-56.18079360477101,"code":"4533"},{"seq":65,"id":"4528","name":"MAGALLANES esq. AV 18 DE JULIO","lat":-34.90298997182749,"lng":-56.17972423044459,"code":"4528"},{"seq":66,"id":"4532","name":"MAGALLANES esq. JOSE ENRIQUE RODO","lat":-34.904955800458026,"lng":-56.17861483735122,"code":"4532"},{"seq":67,"id":"4530","name":"MAGALLANES esq. CONSTITUYENTE","lat":-34.90624426845472,"lng":-56.17858620464756,"code":"4530"},{"seq":68,"id":"4529","name":"MAGALLANES esq. CANELONES","lat":-34.90757937532395,"lng":-56.17853933656394,"code":"4529"},{"seq":69,"id":"4531","name":"MAGALLANES esq. DURAZNO","lat":-34.909453180381426,"lng":-56.178346532322294,"code":"4531"},{"seq":70,"id":"4534","name":"MAGALLANES esq. SAN SALVADOR","lat":-34.91130733075638,"lng":-56.17815008545026,"code":"4534"},{"seq":71,"id":"4418","name":"AV GONZALO RAMIREZ esq. YARO","lat":-34.91213086189508,"lng":-56.17621818510668,"code":"4418"},{"seq":72,"id":"4074","name":"AV GONZALO RAMIREZ esq. JUAN D JACKSON","lat":-34.911926583619874,"lng":-56.17307615063786,"code":"4074"},{"seq":73,"id":"4085","name":"AV GONZALO RAMIREZ esq. DR JOAQUIN REQUENA","lat":-34.91155892393931,"lng":-56.168038274030934,"code":"4085"},{"seq":74,"id":"3944","name":"21 DE SETIEMBRE esq. PSJE 18","lat":-34.91237986360148,"lng":-56.16399636406399,"code":"3944"},{"seq":75,"id":"3945","name":"21 DE SETIEMBRE esq. PRUDENCIO VAZQUEZ Y VEGA","lat":-34.913904966428944,"lng":-56.16157061768659,"code":"3945"},{"seq":76,"id":"3946","name":"21 DE SETIEMBRE esq. LUIS FRANZINI","lat":-34.91613548273239,"lng":-56.158975028262724,"code":"3946"},{"seq":77,"id":"4986","name":"21 DE SETIEMBRE esq. CORONEL MORA","lat":-34.918364601584365,"lng":-56.15667670056614,"code":"4986"},{"seq":78,"id":"3377","name":"21 DE SETIEMBRE esq. TOMAS DIAGO","lat":-34.91958272783454,"lng":-56.153437365785685,"code":"3377"},{"seq":79,"id":"3375","name":"21 DE SETIEMBRE esq. FRANCISCO A VIDAL","lat":-34.920386494003125,"lng":-56.14990602827227,"code":"3375"},{"seq":80,"id":"3364","name":"RBLA MAHATMA GANDHI esq. TERU","lat":-34.92254013215082,"lng":-56.15181583974781,"code":"3364"},{"seq":81,"id":"3365","name":"RBLA MAHATMA GANDHI esq. JOAQUIN NUÑEZ","lat":-34.924163193338856,"lng":-56.15404135221054,"code":"3365"},{"seq":82,"id":"3366","name":"JOAQUIN NUÑEZ esq. HIDALGOS","lat":-34.92316068823476,"lng":-56.1562748139917,"code":"3366"},{"seq":83,"id":"3367","name":"JOAQUIN NUÑEZ esq. JOSE ELLAURI","lat":-34.92229241349914,"lng":-56.158059516866295,"code":"3367"},{"seq":84,"id":"3381","name":"JOSE ELLAURI esq. FRANCISCO GARCIA CORTINAS","lat":-34.92387811688432,"lng":-56.16019851892357,"code":"3381"},{"seq":85,"id":"4967","name":"BV GRAL ARTIGAS esq. PARVA DOMUS","lat":-34.9262016016945,"lng":-56.16165928152722,"code":"4967"}],"1":[{"seq":1,"id":"2061","name":"BV GRAL ARTIGAS esq. TABARE","lat":-34.92710198515767,"lng":-56.16124203637105,"code":"2061"},{"seq":2,"id":"4850","name":"BV GRAL ARTIGAS esq. RAMON FERNANDEZ","lat":-34.9256483174246,"lng":-56.161398903939734,"code":"4850"},{"seq":3,"id":"3382","name":"JOSE ELLAURI esq. DR HECTOR MIRANDA","lat":-34.92367186286088,"lng":-56.15982123638708,"code":"3382"},{"seq":4,"id":"3383","name":"JOSE ELLAURI esq. JOAQUIN NUÑEZ","lat":-34.922252044815885,"lng":-56.15848262785312,"code":"3383"},{"seq":5,"id":"4478","name":"DR JOSE MARIA MONTERO esq. GUIPUZCOA","lat":-34.92246054026875,"lng":-56.15554895341402,"code":"4478"},{"seq":6,"id":"3372","name":"GONZALO DE ORGAZ esq. LEYENDA PATRIA","lat":-34.92249776235078,"lng":-56.15402573939292,"code":"3372"},{"seq":7,"id":"3373","name":"LEYENDA PATRIA esq. JUAN BENITO BLANCO","lat":-34.92156410384813,"lng":-56.15185553886469,"code":"3373"},{"seq":8,"id":"4192","name":"21 DE SETIEMBRE esq. ROQUE GRASERAS","lat":-34.91979913023452,"lng":-56.15180175190571,"code":"4192"},{"seq":9,"id":"3378","name":"21 DE SETIEMBRE esq. JOSE ELLAURI","lat":-34.91894296723498,"lng":-56.155787909147406,"code":"3378"},{"seq":10,"id":"4081","name":"21 DE SETIEMBRE esq. WILLIMAN","lat":-34.91672310146814,"lng":-56.158165048222855,"code":"4081"},{"seq":11,"id":"3938","name":"21 DE SETIEMBRE esq. OBLIGADO","lat":-34.91506042084917,"lng":-56.159780318068776,"code":"3938"},{"seq":12,"id":"4082","name":"21 DE SETIEMBRE esq. LIBERTAD","lat":-34.91349593540432,"lng":-56.16200780743526,"code":"4082"},{"seq":13,"id":"3939","name":"21 DE SETIEMBRE esq. PSJE FEDERICO RENOM","lat":-34.91172174875615,"lng":-56.16486400459112,"code":"3939"},{"seq":14,"id":"4084","name":"AV GONZALO RAMIREZ esq. DR JOAQUIN REQUENA","lat":-34.91139035127486,"lng":-56.16766707588453,"code":"4084"},{"seq":15,"id":"4066","name":"AV GONZALO RAMIREZ esq. JUAN D JACKSON","lat":-34.91171783315171,"lng":-56.172143591523714,"code":"4066"},{"seq":16,"id":"4067","name":"AV GONZALO RAMIREZ esq. GABOTO","lat":-34.911996245100674,"lng":-56.17645608264408,"code":"4067"},{"seq":17,"id":"4068","name":"AV GONZALO RAMIREZ esq. MINAS","lat":-34.91216787853987,"lng":-56.178682852035884,"code":"4068"},{"seq":18,"id":"4563","name":"MINAS esq. SAN SALVADOR","lat":-34.91173504620233,"lng":-56.17910837557611,"code":"4563"},{"seq":19,"id":"4561","name":"MINAS esq. DURAZNO","lat":-34.909956753638184,"lng":-56.179297765101225,"code":"4561"},{"seq":20,"id":"4558","name":"MINAS esq. CANELONES","lat":-34.908062443683505,"lng":-56.1795042925862,"code":"4558"},{"seq":21,"id":"4562","name":"MINAS esq. JOSE ENRIQUE RODO","lat":-34.90566403206706,"lng":-56.17952732354812,"code":"4562"},{"seq":22,"id":"4559","name":"MINAS esq. COLONIA","lat":-34.90290904055171,"lng":-56.18095054891703,"code":"4559"},{"seq":23,"id":"4547","name":"MERCEDES esq. GABOTO","lat":-34.90130205860922,"lng":-56.17968728139629,"code":"4547"},{"seq":24,"id":"4546","name":"MERCEDES esq. EDUARDO ACEVEDO","lat":-34.900517866007554,"lng":-56.17759738809082,"code":"4546"},{"seq":25,"id":"3835","name":"AV DANIEL FERNANDEZ CRESPO esq. CERRO LARGO","lat":-34.897929834481225,"lng":-56.17866855247263,"code":"3835"},{"seq":26,"id":"3837","name":"AV DANIEL FERNANDEZ CRESPO esq. 9 DE ABRIL","lat":-34.89620202558087,"lng":-56.181072570439255,"code":"3837"},{"seq":27,"id":"3737","name":"AV DANIEL FERNANDEZ CRESPO esq. MADRID","lat":-34.89285967629195,"lng":-56.18488263071824,"code":"3737"},{"seq":28,"id":"2416","name":"AV DE LAS LEYES esq. AV GRAL FLORES","lat":-34.89033537847262,"lng":-56.18642190674068,"code":"2416"},{"seq":29,"id":"3727","name":"AV AGRACIADA esq. AV GRAL SAN MARTIN","lat":-34.888661609688796,"lng":-56.18844564283384,"code":"3727"},{"seq":30,"id":"3739","name":"AV AGRACIADA esq. GRAL FELIPE FRAGA","lat":-34.88731151317165,"lng":-56.1900833381548,"code":"3739"},{"seq":31,"id":"6426","name":"AV AGRACIADA esq. CUAREIM","lat":-34.886105744734266,"lng":-56.19180941262662,"code":"6426"},{"seq":32,"id":"3728","name":"AV AGRACIADA esq. AV GRAL RONDEAU","lat":-34.88424950782731,"lng":-56.19356482092001,"code":"3728"},{"seq":33,"id":"3729","name":"AV AGRACIADA esq. ENTRE RIOS","lat":-34.882623332363856,"lng":-56.1946583162895,"code":"3729"},{"seq":34,"id":"3730","name":"AV AGRACIADA esq. DR ALFREDO GARCIA MORALES","lat":-34.879981139842194,"lng":-56.19570891740889,"code":"3730"},{"seq":35,"id":"3742","name":"AV AGRACIADA esq. DR EVARISTO CIGANDA","lat":-34.87683511471819,"lng":-56.19744894546475,"code":"3742"},{"seq":36,"id":"3743","name":"AV AGRACIADA esq. GRITO DE ASENCIO","lat":-34.87583125336255,"lng":-56.19876564614716,"code":"3743"},{"seq":37,"id":"3745","name":"AV AGRACIADA esq. BV GRAL ARTIGAS","lat":-34.87265513115647,"lng":-56.20178849093739,"code":"3745"},{"seq":38,"id":"1576","name":"AV AGRACIADA esq. HERMANOS GIL","lat":-34.87025679763949,"lng":-56.20390121964999,"code":"1576"},{"seq":39,"id":"5126","name":"CAPURRO esq. MANUEL CORREA","lat":-34.86875232489266,"lng":-56.207572217647964,"code":"5126"},{"seq":40,"id":"1523","name":"CAPURRO esq. URUGUAYANA","lat":-34.86973785675669,"lng":-56.20871016202063,"code":"1523"},{"seq":41,"id":"1524","name":"CAPURRO esq. CORACEROS","lat":-34.870399933296085,"lng":-56.21075344455207,"code":"1524"},{"seq":42,"id":"1525","name":"CAPURRO esq. JUAN MARIA GUTIERREZ","lat":-34.87131941150933,"lng":-56.21343089205211,"code":"1525"},{"seq":43,"id":"1526","name":"JUAN MARIA GUTIERREZ esq. FRANCISCO GOMEZ","lat":-34.87046062768493,"lng":-56.2147462709324,"code":"1526"},{"seq":44,"id":"1527","name":"JUAN MARIA GUTIERREZ esq. REPUBLICA FRANCESA","lat":-34.868654460148925,"lng":-56.21643641020526,"code":"1527"},{"seq":45,"id":"1528","name":"CONCILIACION esq. DEL CID","lat":-34.86648803918026,"lng":-56.21866000123578,"code":"1528"},{"seq":46,"id":"1529","name":"CONCILIACION esq. LA AURORA","lat":-34.865846865995465,"lng":-56.219426031165405,"code":"1529"},{"seq":47,"id":"1530","name":"CONCILIACION esq. LUIS DE LA PEÑA","lat":-34.86453766339636,"lng":-56.22100998915744,"code":"1530"},{"seq":48,"id":"1511","name":"CONCILIACION esq. EMILIO ROMERO","lat":-34.86319072150959,"lng":-56.22260695702714,"code":"1511"},{"seq":49,"id":"1495","name":"DR MARTIN BERINDUAGUE esq. PEDRO CELESTINO BAUZA","lat":-34.86356075207296,"lng":-56.224941566518424,"code":"1495"},{"seq":50,"id":"1496","name":"DR MARTIN BERINDUAGUE esq. FLORENTINO AMEGHINO","lat":-34.86481444600308,"lng":-56.22648798995912,"code":"1496"},{"seq":51,"id":"1497","name":"DR MARTIN BERINDUAGUE esq. CARLOS TELLIER","lat":-34.866173526158924,"lng":-56.22817764056701,"code":"1497"},{"seq":52,"id":"1498","name":"DR MARTIN BERINDUAGUE esq. HILARIO ASCASUBI","lat":-34.86743170187089,"lng":-56.22971821524776,"code":"1498"},{"seq":53,"id":"1499","name":"DR MARTIN BERINDUAGUE esq. JOSE CASTRO","lat":-34.868766915292234,"lng":-56.23131436328087,"code":"1499"},{"seq":54,"id":"1500","name":"DR MARTIN BERINDUAGUE esq. HEREDIA","lat":-34.86996788712904,"lng":-56.23282777962494,"code":"1500"},{"seq":55,"id":"1531","name":"HEREDIA esq. BENITO RIQUE","lat":-34.869091147372565,"lng":-56.23458739145816,"code":"1531"},{"seq":56,"id":"1532","name":"HEREDIA esq. RUPERTO PEREZ MARTINEZ","lat":-34.867731898362194,"lng":-56.23617246357091,"code":"1532"},{"seq":57,"id":"1302","name":"AV CARLOS MARIA RAMIREZ esq. HUMBOLDT","lat":-34.867442409823596,"lng":-56.23789195503056,"code":"1302"},{"seq":58,"id":"1303","name":"AV CARLOS MARIA RAMIREZ esq. CONCORDIA","lat":-34.86905451535009,"lng":-56.23988630121367,"code":"1303"},{"seq":59,"id":"4815","name":"AV CARLOS MARIA RAMIREZ esq. VIGO","lat":-34.873577827708786,"lng":-56.247690116750995,"code":"4815"},{"seq":60,"id":"4816","name":"AV CARLOS MARIA RAMIREZ esq. TURQUIA","lat":-34.87400931094092,"lng":-56.250790573274884,"code":"4816"},{"seq":61,"id":"1142","name":"BOGOTA esq. JAPON","lat":-34.87533184293842,"lng":-56.25446933792364,"code":"1142"},{"seq":62,"id":"1143","name":"BERNA esq. RIO DE JANEIRO","lat":-34.87737799673476,"lng":-56.25495187977465,"code":"1143"},{"seq":63,"id":"1273","name":"BERNA esq. POLONIA","lat":-34.87765953052626,"lng":-56.25710027385916,"code":"1273"},{"seq":64,"id":"1274","name":"BERNA esq. CUBA","lat":-34.87796363862541,"lng":-56.25933159579069,"code":"1274"},{"seq":65,"id":"1275","name":"BERNA esq. PATAGONIA","lat":-34.878256744637426,"lng":-56.26147362460499,"code":"1275"},{"seq":66,"id":"4263","name":"BERNA esq. GIBRALTAR","lat":-34.87852098145437,"lng":-56.2636596692681,"code":"4263"},{"seq":67,"id":"1277","name":"BERNA esq. BULGARIA","lat":-34.87869654472289,"lng":-56.264742699235796,"code":"1277"},{"seq":68,"id":"1255","name":"BULGARIA esq. PERU","lat":-34.880416546974985,"lng":-56.264592081938396,"code":"1255"},{"seq":69,"id":"1256","name":"BULGARIA esq. CHINA","lat":-34.882069812637226,"lng":-56.26426840130556,"code":"1256"},{"seq":70,"id":"1235","name":"BULGARIA esq. RUSIA","lat":-34.88477210578384,"lng":-56.26371014901911,"code":"1235"},{"seq":71,"id":"5029","name":"CONT RUSIA esq. PSJE OMBU","lat":-34.88530579913672,"lng":-56.266231568445185,"code":"5029"},{"seq":72,"id":"1236","name":"UCRANIA esq. ETIOPIA","lat":-34.88700699042952,"lng":-56.266526283496724,"code":"1236"},{"seq":73,"id":"1237","name":"ETIOPIA esq. GUINEA","lat":-34.887424196144835,"lng":-56.26824969293666,"code":"1237"},{"seq":74,"id":"1243","name":"ETIOPIA esq. COSTA DE MARFIL","lat":-34.8878236107627,"lng":-56.270998020319055,"code":"1243"},{"seq":75,"id":"4976","name":"ETIOPIA esq. MARRUECOS","lat":-34.88821482456118,"lng":-56.273702058987276,"code":"4976"},{"seq":76,"id":"4660","name":"ETIOPIA esq. TANZANIA","lat":-34.88845546192972,"lng":-56.27565425219892,"code":"4660"},{"seq":77,"id":"6829","name":"COSTANERA CASABO esq. Nº 18 (CERVANTES)","lat":-34.88763318779921,"lng":-56.27875302874665,"code":"6829"},{"seq":78,"id":"6830","name":"COSTANERA CASABO esq. Nº 18 (CERVANTES)","lat":-34.88665698017149,"lng":-56.278496699535296,"code":"6830"},{"seq":79,"id":"6827","name":"COSTANERA CASABO esq. CONT RUSIA","lat":-34.88504925098799,"lng":-56.279411061424895,"code":"6827"}]}