{"0":[{"seq":1,"id":"5512","name":"AV DR MARTIN IGNACIO HARRETCHE esq. CALLE FICTICIA","lat":-34.903800144113916,"lng":-56.259723771370716,"code":"5512"},{"seq":2,"id":"4960","name":"AV DR MARTIN IGNACIO HARRETCHE esq. RBLA JOSE GURVICH","lat":-34.899713043646734,"lng":-56.26076517899303,"code":"4960"},{"seq":3,"id":"1123","name":"SUIZA esq. RIO DE JANEIRO","lat":-34.89527464708369,"lng":-56.25166754713159,"code":"1123"},{"seq":4,"id":"1124","name":"SUIZA esq. PORTUGAL","lat":-34.89501273315229,"lng":-56.249669745123974,"code":"1124"},{"seq":5,"id":"1126","name":"GRECIA esq. MEJICO","lat":-34.893948529206874,"lng":-56.24725072672022,"code":"1126"},{"seq":6,"id":"1127","name":"GRECIA esq. NORTE AMERICA","lat":-34.892047569782356,"lng":-56.247681482972034,"code":"1127"},{"seq":7,"id":"1128","name":"GRECIA esq. REPUBLICA ARGENTINA","lat":-34.89037338260611,"lng":-56.248048751485804,"code":"1128"},{"seq":8,"id":"1130","name":"GRECIA esq. BARCELONA","lat":-34.88797769689636,"lng":-56.248515132059296,"code":"1130"},{"seq":9,"id":"1131","name":"GRECIA esq. PRUSIA","lat":-34.88673934179078,"lng":-56.24878731546661,"code":"1131"},{"seq":10,"id":"1132","name":"GRECIA esq. HOLANDA","lat":-34.88501549068064,"lng":-56.249125417137016,"code":"1132"},{"seq":11,"id":"1133","name":"GRECIA esq. RUSIA","lat":-34.88319370956854,"lng":-56.24950207552952,"code":"1133"},{"seq":12,"id":"1134","name":"GRECIA esq. AUSTRIA","lat":-34.88149838222476,"lng":-56.24982278603355,"code":"1134"},{"seq":13,"id":"1135","name":"GRECIA esq. BELGICA","lat":-34.879641498458426,"lng":-56.25021466548597,"code":"1135"},{"seq":14,"id":"1136","name":"GRECIA esq. BURDEOS","lat":-34.87809569383029,"lng":-56.25049481234234,"code":"1136"},{"seq":15,"id":"5325","name":"BERNA esq. CHILE","lat":-34.87693287941155,"lng":-56.2516605849504,"code":"5325"},{"seq":16,"id":"5326","name":"PORTUGAL esq. JAPON","lat":-34.8755243495566,"lng":-56.25326209305592,"code":"5326"},{"seq":17,"id":"4775","name":"AV DR SANTIN CARLOS ROSSI esq. DR PEDRO CASTELLINO","lat":-34.87366351246541,"lng":-56.25252419496949,"code":"4775"},{"seq":18,"id":"4843","name":"DR PEDRO CASTELLINO esq. TURQUIA","lat":-34.87331449578367,"lng":-56.24994058065089,"code":"4843"},{"seq":19,"id":"4776","name":"JAPON esq. VIGO","lat":-34.87467209400156,"lng":-56.24788565268965,"code":"4776"},{"seq":20,"id":"1283","name":"AV CARLOS MARIA RAMIREZ esq. CONCORDIA","lat":-34.869051415570574,"lng":-56.23959388492736,"code":"1283"},{"seq":21,"id":"1284","name":"AV CARLOS MARIA RAMIREZ esq. HUMBOLDT","lat":-34.86785620603017,"lng":-56.23813490916223,"code":"1284"},{"seq":22,"id":"1533","name":"HUMBOLDT esq. DIONISIO CORONEL","lat":-34.86881293461891,"lng":-56.23657003035088,"code":"1533"},{"seq":23,"id":"1534","name":"HUMBOLDT esq. BALTASAR MONTERO VIDAURRETA","lat":-34.87013384160965,"lng":-56.2349342017769,"code":"1534"},{"seq":24,"id":"1501","name":"HUMBOLDT esq. EMILIO ROMERO","lat":-34.87139695773306,"lng":-56.23351221838868,"code":"1501"},{"seq":25,"id":"1502","name":"EMILIO ROMERO esq. HUMBOLDT","lat":-34.87142520191784,"lng":-56.232772281707646,"code":"1502"},{"seq":26,"id":"1503","name":"EMILIO ROMERO esq. JOSE CASTRO","lat":-34.869858267938596,"lng":-56.230927469158985,"code":"1503"},{"seq":27,"id":"1504","name":"EMILIO ROMERO esq. HILARIO ASCASUBI","lat":-34.86849261389847,"lng":-56.22927109280198,"code":"1504"},{"seq":28,"id":"1505","name":"EMILIO ROMERO esq. CARLOS TELLIER","lat":-34.86716925539146,"lng":-56.227653108923796,"code":"1505"},{"seq":29,"id":"1506","name":"EMILIO ROMERO esq. FLORENTINO AMEGHINO","lat":-34.86599362850947,"lng":-56.22617778437249,"code":"1506"},{"seq":30,"id":"1507","name":"EMILIO ROMERO esq. PEDRO CELESTINO BAUZA","lat":-34.86467361682303,"lng":-56.22451996685236,"code":"1507"},{"seq":31,"id":"1508","name":"EMILIO ROMERO esq. CONCILIACION","lat":-34.86325429332383,"lng":-56.22286019721557,"code":"1508"},{"seq":32,"id":"1512","name":"CONCILIACION esq. LUIS DE LA PEÑA","lat":-34.86435873505214,"lng":-56.221301934185334,"code":"1512"},{"seq":33,"id":"1513","name":"CONCILIACION esq. LA AURORA","lat":-34.86563326327385,"lng":-56.219816937728666,"code":"1513"},{"seq":34,"id":"1514","name":"CONCILIACION esq. DEL CID","lat":-34.866354778318616,"lng":-56.21890590420175,"code":"1514"},{"seq":35,"id":"1515","name":"JUAN MARIA GUTIERREZ esq. REPUBLICA FRANCESA","lat":-34.8684119055741,"lng":-56.216798871059225,"code":"1515"},{"seq":36,"id":"1516","name":"JUAN MARIA GUTIERREZ esq. FRANCISCO GOMEZ","lat":-34.87022794996986,"lng":-56.21516594362874,"code":"1516"},{"seq":37,"id":"1517","name":"JUAN MARIA GUTIERREZ esq. CAPURRO","lat":-34.87126787342821,"lng":-56.21386934695155,"code":"1517"},{"seq":38,"id":"1520","name":"CAPURRO esq. CORACEROS","lat":-34.87071897174046,"lng":-56.211206350529615,"code":"1520"},{"seq":39,"id":"1521","name":"CAPURRO esq. DRAGONES","lat":-34.87029647717083,"lng":-56.21004036238276,"code":"1521"},{"seq":40,"id":"1522","name":"CAPURRO esq. HERMANOS RUIZ","lat":-34.868174099567554,"lng":-56.20665450274806,"code":"1522"},{"seq":41,"id":"1573","name":"AV AGRACIADA esq. HERMANOS GIL","lat":-34.87038931543353,"lng":-56.20401810860312,"code":"1573"},{"seq":42,"id":"1574","name":"AV AGRACIADA esq. LARROBLA","lat":-34.87140512430482,"lng":-56.20298045302651,"code":"1574"},{"seq":43,"id":"2088","name":"BV GRAL ARTIGAS esq. BURICAYUPI","lat":-34.87225501690771,"lng":-56.2004623687258,"code":"2088"},{"seq":44,"id":"2089","name":"BV GRAL ARTIGAS esq. AV JOAQUIN SUAREZ","lat":-34.87200025455744,"lng":-56.19697148423904,"code":"2089"},{"seq":45,"id":"2090","name":"BV GRAL ARTIGAS esq. ESPINILLO","lat":-34.87182790462512,"lng":-56.19454959751821,"code":"2090"},{"seq":46,"id":"2091","name":"BV GRAL ARTIGAS esq. AV MILLAN","lat":-34.87156723094092,"lng":-56.1907084109759,"code":"2091"},{"seq":47,"id":"2092","name":"BV GRAL ARTIGAS esq. AV BURGUES","lat":-34.87118883724066,"lng":-56.1865248476313,"code":"2092"},{"seq":48,"id":"2453","name":"RAMON MARQUEZ esq. ANTONIO MACHADO","lat":-34.871828566054134,"lng":-56.18478499139667,"code":"2453"},{"seq":49,"id":"2454","name":"RAMON MARQUEZ esq. AV GRAL SAN MARTIN","lat":-34.87399642808498,"lng":-56.18439087722518,"code":"2454"},{"seq":50,"id":"3785","name":"AV GRAL GARIBALDI esq. ROCHA","lat":-34.875555931478196,"lng":-56.181504509094935,"code":"3785"},{"seq":51,"id":"3786","name":"AV GRAL GARIBALDI esq. AV GRAL FLORES","lat":-34.87633899494289,"lng":-56.179799010486434,"code":"3786"},{"seq":52,"id":"3787","name":"AV GRAL GARIBALDI esq. PORONGOS","lat":-34.87748175224486,"lng":-56.17653895475186,"code":"3787"},{"seq":53,"id":"3789","name":"AV GRAL GARIBALDI esq. DR JOAQUIN REQUENA","lat":-34.87915336416684,"lng":-56.17342060358638,"code":"3789"},{"seq":54,"id":"3790","name":"AV GRAL GARIBALDI esq. RIVADAVIA","lat":-34.8808376209141,"lng":-56.170626884095,"code":"3790"},{"seq":55,"id":"3809","name":"AV GRAL GARIBALDI esq. CUÑAPIRU","lat":-34.88382066028165,"lng":-56.16715249039396,"code":"3809"},{"seq":56,"id":"3237","name":"AV GRAL GARIBALDI esq. DR LUIS ALBERTO SURRACO","lat":-34.8854930574547,"lng":-56.16504705491041,"code":"3237"},{"seq":57,"id":"3238","name":"AV GRAL GARIBALDI esq. MONTE CASEROS","lat":-34.8861389247412,"lng":-56.164052345119266,"code":"3238"},{"seq":58,"id":"3239","name":"AV GRAL GARIBALDI esq. CARLOS ANAYA","lat":-34.887615924645544,"lng":-56.16233841309578,"code":"3239"},{"seq":59,"id":"3240","name":"AV GRAL GARIBALDI esq. GRAL URQUIZA","lat":-34.888991076986784,"lng":-56.16085586145938,"code":"3240"},{"seq":60,"id":"3793","name":"AV GRAL GARIBALDI esq. AV DR MANUEL ALBO","lat":-34.88964951508209,"lng":-56.15967995800237,"code":"3793"},{"seq":61,"id":"3183","name":"AV 8 DE OCTUBRE esq. JOAQUIN SECCO ILLA","lat":-34.88739153431955,"lng":-56.15839593233466,"code":"3183"},{"seq":62,"id":"3184","name":"AV 8 DE OCTUBRE esq. JAIME CIBILS","lat":-34.88536732469098,"lng":-56.156700248302236,"code":"3184"},{"seq":63,"id":"3185","name":"AV 8 DE OCTUBRE esq. MARIANO MORENO","lat":-34.88343695521986,"lng":-56.15474553472915,"code":"3185"},{"seq":64,"id":"3186","name":"AV 8 DE OCTUBRE esq. MARIANO MORENO","lat":-34.88254548493429,"lng":-56.15325661788515,"code":"3186"},{"seq":65,"id":"3487","name":"AV CENTENARIO esq. AV DR LUIS ALBERTO DE HERRERA","lat":-34.88356083680625,"lng":-56.152723308481356,"code":"3487"},{"seq":66,"id":"3488","name":"AV CENTENARIO esq. REPUBLICA DOMINICANA","lat":-34.88694135124848,"lng":-56.15359849343149,"code":"3488"},{"seq":67,"id":"3489","name":"AV CENTENARIO esq. ESTERO BELLACO","lat":-34.890359137613835,"lng":-56.15532246543694,"code":"3489"},{"seq":68,"id":"553","name":"AV DR AMERICO RICALDONI esq. AV FEDERICO R VIDIELLA","lat":-34.89202323950206,"lng":-56.15460523033937,"code":"553"},{"seq":69,"id":"554","name":"AV DR AMERICO RICALDONI esq. CIRC INT SIN DENOM","lat":-34.89329183243344,"lng":-56.15224312714718,"code":"554"},{"seq":70,"id":"3063","name":"AV DR AMERICO RICALDONI esq. DR ATILIO NARANCIO","lat":-34.895316290768626,"lng":-56.15114488392042,"code":"3063"},{"seq":71,"id":"3064","name":"AV DR AMERICO RICALDONI esq. FRANCISCO LLAMBI","lat":-34.898102543023576,"lng":-56.15211855941064,"code":"3064"},{"seq":72,"id":"3065","name":"AV DR AMERICO RICALDONI esq. SDA LEONEL ROCCA","lat":-34.898609876796606,"lng":-56.15487181838325,"code":"3065"},{"seq":73,"id":"3066","name":"AV DR AMERICO RICALDONI esq. AV RAMON V BENZANO","lat":-34.89829093014793,"lng":-56.15724255373629,"code":"3066"},{"seq":74,"id":"3863","name":"AV DR FRANCISCO SOCA esq. LEONOR HORTICOU","lat":-34.899726383434135,"lng":-56.15748967713047,"code":"3863"},{"seq":75,"id":"3864","name":"AV DR FRANCISCO SOCA esq. DR ENRIQUE POUEY","lat":-34.90116860399135,"lng":-56.15689306204609,"code":"3864"},{"seq":76,"id":"3865","name":"AV DR FRANCISCO SOCA esq. MENDEZ NUÑEZ","lat":-34.901970180209176,"lng":-56.15668895603919,"code":"3865"},{"seq":77,"id":"3866","name":"AV DR FRANCISCO SOCA esq. CHARRUA","lat":-34.90471545312658,"lng":-56.15548211010894,"code":"3866"},{"seq":78,"id":"3867","name":"AV DR FRANCISCO SOCA esq. BARTOLITO MITRE","lat":-34.90691619715935,"lng":-56.15446506454022,"code":"3867"},{"seq":79,"id":"3975","name":"AV BRASIL esq. SANTIAGO VAZQUEZ","lat":-34.909827346758824,"lng":-56.153010329952245,"code":"3975"},{"seq":80,"id":"4097","name":"AV BRASIL esq. 26 DE MARZO","lat":-34.91124653349806,"lng":-56.151841706773716,"code":"4097"},{"seq":81,"id":"4078","name":"26 DE MARZO esq. JOSE ELLAURI","lat":-34.91265419203733,"lng":-56.15325715948907,"code":"4078"},{"seq":82,"id":"3936","name":"JOSE ELLAURI esq. JAIME ZUDAÑEZ","lat":-34.915809374277956,"lng":-56.15431464468658,"code":"3936"},{"seq":83,"id":"3937","name":"JOSE ELLAURI esq. 21 DE SETIEMBRE","lat":-34.91870684997951,"lng":-56.155946134274465,"code":"3937"},{"seq":84,"id":"3379","name":"JOSE ELLAURI esq. GRAL GREGORIO SUAREZ","lat":-34.920389213493635,"lng":-56.156851176646946,"code":"3379"},{"seq":85,"id":"3380","name":"JOSE ELLAURI esq. DR JOSE MARIA MONTERO","lat":-34.92168523948615,"lng":-56.158038126301314,"code":"3380"},{"seq":86,"id":"3381","name":"JOSE ELLAURI esq. FRANCISCO GARCIA CORTINAS","lat":-34.92387811688432,"lng":-56.16019851892357,"code":"3381"},{"seq":87,"id":"4967","name":"BV GRAL ARTIGAS esq. PARVA DOMUS","lat":-34.9262016016945,"lng":-56.16165928152722,"code":"4967"}],"1":[{"seq":1,"id":"6806","name":"AV DR JUAN ANDRES CACHON esq. AV JULIO MARIA SOSA","lat":-34.918964539467105,"lng":-56.169029109875396,"code":"6806"},{"seq":2,"id":"3382","name":"JOSE ELLAURI esq. DR HECTOR MIRANDA","lat":-34.92367186286088,"lng":-56.15982123638708,"code":"3382"},{"seq":3,"id":"3383","name":"JOSE ELLAURI esq. JOAQUIN NUÑEZ","lat":-34.922252044815885,"lng":-56.15848262785312,"code":"3383"},{"seq":4,"id":"3384","name":"JOSE ELLAURI esq. GRAL GREGORIO SUAREZ","lat":-34.92058786589835,"lng":-56.1568911073426,"code":"3384"},{"seq":5,"id":"3385","name":"JOSE ELLAURI esq. JOSE VAZQUEZ LEDESMA","lat":-34.91941985874054,"lng":-56.15617698715321,"code":"3385"},{"seq":6,"id":"4472","name":"JOSE ELLAURI esq. JAIME ZUDAÑEZ","lat":-34.91565387973061,"lng":-56.154015736713625,"code":"4472"},{"seq":7,"id":"4473","name":"JOSE ELLAURI esq. 26 DE MARZO","lat":-34.91235848503139,"lng":-56.15349640972445,"code":"4473"},{"seq":8,"id":"4471","name":"JOSE ELLAURI esq. ATANASIO LAPIDO","lat":-34.911156972484534,"lng":-56.15258602819232,"code":"4471"},{"seq":9,"id":"3970","name":"AV BRASIL esq. SANTIAGO VAZQUEZ","lat":-34.910101564457946,"lng":-56.152565536372215,"code":"3970"},{"seq":10,"id":"3860","name":"AV DR FRANCISCO SOCA esq. BARTOLITO MITRE","lat":-34.906725710632934,"lng":-56.154417973539886,"code":"3860"},{"seq":11,"id":"3868","name":"AV DR FRANCISCO SOCA esq. CHARRUA","lat":-34.90520220362831,"lng":-56.15510406843387,"code":"3868"},{"seq":12,"id":"3861","name":"AV DR FRANCISCO SOCA esq. CAP VIDELA","lat":-34.90156155626243,"lng":-56.15654126128809,"code":"3861"},{"seq":13,"id":"3862","name":"AV DR FRANCISCO SOCA esq. DR PRUDENCIO DE PENA","lat":-34.89947862432039,"lng":-56.15747724955873,"code":"3862"},{"seq":14,"id":"3060","name":"AV DR AMERICO RICALDONI esq. PEDRO DE ALARCON","lat":-34.89891783513637,"lng":-56.1549602837001,"code":"3060"},{"seq":15,"id":"3061","name":"AV DR AMERICO RICALDONI esq. FRANCISCO LLAMBI","lat":-34.898650187717244,"lng":-56.15231162561973,"code":"3061"},{"seq":16,"id":"3062","name":"AV DR AMERICO RICALDONI esq. DR ALFREDO VIDAL Y FUENTES","lat":-34.89685606052606,"lng":-56.151101263339335,"code":"3062"},{"seq":17,"id":"3147","name":"AV DR AMERICO RICALDONI esq. AV DR ALFREDO NAVARRO","lat":-34.89329712601818,"lng":-56.151488775322164,"code":"3147"},{"seq":18,"id":"3148","name":"AV DR AMERICO RICALDONI esq. AV ITALIA","lat":-34.89192769461429,"lng":-56.154171704776466,"code":"3148"},{"seq":19,"id":"3149","name":"AV CENTENARIO esq. BELGRANO","lat":-34.89042522066208,"lng":-56.15500054258601,"code":"3149"},{"seq":20,"id":"3150","name":"AV CENTENARIO esq. DR JOSE BRITO FORESTI","lat":-34.88772471043564,"lng":-56.15349509860871,"code":"3150"},{"seq":21,"id":"3151","name":"AV CENTENARIO esq. PROF DR PABLO PURRIEL","lat":-34.883989847700676,"lng":-56.15226634349493,"code":"3151"},{"seq":22,"id":"3230","name":"AV 8 DE OCTUBRE esq. MARIANO MORENO","lat":-34.882479135755474,"lng":-56.153401305888806,"code":"3230"},{"seq":23,"id":"3231","name":"AV 8 DE OCTUBRE esq. PEDRO OLMIDA","lat":-34.88343983930426,"lng":-56.155028201356515,"code":"3231"},{"seq":24,"id":"3232","name":"AV 8 DE OCTUBRE esq. JAIME CIBILS","lat":-34.88480579537606,"lng":-56.15644040525935,"code":"3232"},{"seq":25,"id":"3233","name":"AV 8 DE OCTUBRE esq. JOAQUIN SECCO ILLA","lat":-34.88701094642693,"lng":-56.15826463748792,"code":"3233"},{"seq":26,"id":"4207","name":"AV 8 DE OCTUBRE esq. AV DR MANUEL ALBO","lat":-34.889267971340026,"lng":-56.160165085818605,"code":"4207"},{"seq":27,"id":"3234","name":"AV GRAL GARIBALDI esq. JUAN RAMON GOMEZ","lat":-34.88823286987818,"lng":-56.16149616306629,"code":"3234"},{"seq":28,"id":"3235","name":"AV GRAL GARIBALDI esq. TTE JUAN S WALCALDE","lat":-34.88651249713252,"lng":-56.16335925170198,"code":"3235"},{"seq":29,"id":"3236","name":"AV GRAL GARIBALDI esq. EMILIO RAÑA","lat":-34.88506793189853,"lng":-56.16550996572622,"code":"3236"},{"seq":30,"id":"3795","name":"AV GRAL GARIBALDI esq. CUÑAPIRU","lat":-34.88405574459319,"lng":-56.16681179125866,"code":"3795"},{"seq":31,"id":"3796","name":"AV GRAL GARIBALDI esq. RIVADAVIA","lat":-34.88146289690091,"lng":-56.16956138432544,"code":"3796"},{"seq":32,"id":"3797","name":"AV GRAL GARIBALDI esq. VILARDEBO","lat":-34.87960960641699,"lng":-56.17249209551409,"code":"3797"},{"seq":33,"id":"3798","name":"AV GRAL GARIBALDI esq. DR MARTIN C MARTINEZ","lat":-34.87823235597581,"lng":-56.17472818794658,"code":"3798"},{"seq":34,"id":"3799","name":"AV GRAL GARIBALDI esq. GUAVIYU","lat":-34.87711749916757,"lng":-56.17705064732681,"code":"3799"},{"seq":35,"id":"3800","name":"AV GRAL GARIBALDI esq. AV GRAL FLORES","lat":-34.87643112263441,"lng":-56.179338905175165,"code":"3800"},{"seq":36,"id":"3801","name":"AV GRAL GARIBALDI esq. PANDO","lat":-34.8753423709936,"lng":-56.18183734410359,"code":"3801"},{"seq":37,"id":"3802","name":"AV GRAL GARIBALDI esq. AV GRAL SAN MARTIN","lat":-34.87446192430866,"lng":-56.18372531604295,"code":"3802"},{"seq":38,"id":"2452","name":"RAMON MARQUEZ esq. ANTONIO MACHADO","lat":-34.87229327825882,"lng":-56.18463969080906,"code":"2452"},{"seq":39,"id":"2081","name":"BV GRAL ARTIGAS esq. AV BURGUES","lat":-34.8709381433172,"lng":-56.18557845495101,"code":"2081"},{"seq":40,"id":"2082","name":"BV GRAL ARTIGAS esq. AV MILLAN","lat":-34.87128047781396,"lng":-56.1897580044656,"code":"2082"},{"seq":41,"id":"2083","name":"BV GRAL ARTIGAS esq. ESPINILLO","lat":-34.87150456457751,"lng":-56.1932477303832,"code":"2083"},{"seq":42,"id":"2084","name":"BV GRAL ARTIGAS esq. AV JOAQUIN SUAREZ","lat":-34.87174233437738,"lng":-56.196243789267854,"code":"2084"},{"seq":43,"id":"2085","name":"BV GRAL ARTIGAS esq. BURICAYUPI","lat":-34.87192812828641,"lng":-56.20003572360022,"code":"2085"},{"seq":44,"id":"1576","name":"AV AGRACIADA esq. HERMANOS GIL","lat":-34.87025679763949,"lng":-56.20390121964999,"code":"1576"},{"seq":45,"id":"5126","name":"CAPURRO esq. MANUEL CORREA","lat":-34.86875232489266,"lng":-56.207572217647964,"code":"5126"},{"seq":46,"id":"1523","name":"CAPURRO esq. URUGUAYANA","lat":-34.86973785675669,"lng":-56.20871016202063,"code":"1523"},{"seq":47,"id":"1524","name":"CAPURRO esq. CORACEROS","lat":-34.870399933296085,"lng":-56.21075344455207,"code":"1524"},{"seq":48,"id":"1525","name":"CAPURRO esq. JUAN MARIA GUTIERREZ","lat":-34.87131941150933,"lng":-56.21343089205211,"code":"1525"},{"seq":49,"id":"1526","name":"JUAN MARIA GUTIERREZ esq. FRANCISCO GOMEZ","lat":-34.87046062768493,"lng":-56.2147462709324,"code":"1526"},{"seq":50,"id":"1527","name":"JUAN MARIA GUTIERREZ esq. REPUBLICA FRANCESA","lat":-34.868654460148925,"lng":-56.21643641020526,"code":"1527"},{"seq":51,"id":"1528","name":"CONCILIACION esq. DEL CID","lat":-34.86648803918026,"lng":-56.21866000123578,"code":"1528"},{"seq":52,"id":"1529","name":"CONCILIACION esq. LA AURORA","lat":-34.865846865995465,"lng":-56.219426031165405,"code":"1529"},{"seq":53,"id":"1530","name":"CONCILIACION esq. LUIS DE LA PEÑA","lat":-34.86453766339636,"lng":-56.22100998915744,"code":"1530"},{"seq":54,"id":"1511","name":"CONCILIACION esq. EMILIO ROMERO","lat":-34.86319072150959,"lng":-56.22260695702714,"code":"1511"},{"seq":55,"id":"1495","name":"DR MARTIN BERINDUAGUE esq. PEDRO CELESTINO BAUZA","lat":-34.86356075207296,"lng":-56.224941566518424,"code":"1495"},{"seq":56,"id":"1496","name":"DR MARTIN BERINDUAGUE esq. FLORENTINO AMEGHINO","lat":-34.86481444600308,"lng":-56.22648798995912,"code":"1496"},{"seq":57,"id":"1497","name":"DR MARTIN BERINDUAGUE esq. CARLOS TELLIER","lat":-34.866173526158924,"lng":-56.22817764056701,"code":"1497"},{"seq":58,"id":"1498","name":"DR MARTIN BERINDUAGUE esq. HILARIO ASCASUBI","lat":-34.86743170187089,"lng":-56.22971821524776,"code":"1498"},{"seq":59,"id":"1499","name":"DR MARTIN BERINDUAGUE esq. JOSE CASTRO","lat":-34.868766915292234,"lng":-56.23131436328087,"code":"1499"},{"seq":60,"id":"1500","name":"DR MARTIN BERINDUAGUE esq. HEREDIA","lat":-34.86996788712904,"lng":-56.23282777962494,"code":"1500"},{"seq":61,"id":"1531","name":"HEREDIA esq. BENITO RIQUE","lat":-34.869091147372565,"lng":-56.23458739145816,"code":"1531"},{"seq":62,"id":"1532","name":"HEREDIA esq. RUPERTO PEREZ MARTINEZ","lat":-34.867731898362194,"lng":-56.23617246357091,"code":"1532"},{"seq":63,"id":"1302","name":"AV CARLOS MARIA RAMIREZ esq. HUMBOLDT","lat":-34.867442409823596,"lng":-56.23789195503056,"code":"1302"},{"seq":64,"id":"1303","name":"AV CARLOS MARIA RAMIREZ esq. CONCORDIA","lat":-34.86905451535009,"lng":-56.23988630121367,"code":"1303"},{"seq":65,"id":"4815","name":"AV CARLOS MARIA RAMIREZ esq. VIGO","lat":-34.873577827708786,"lng":-56.247690116750995,"code":"4815"},{"seq":66,"id":"4925","name":"DR PEDRO CASTELLINO esq. DR RAUL MORETTI","lat":-34.87323947810137,"lng":-56.249403424783246,"code":"4925"},{"seq":67,"id":"4777","name":"HAITI esq. AV DR SANTIN CARLOS ROSSI","lat":-34.872259159795625,"lng":-56.25249953361408,"code":"4777"},{"seq":68,"id":"1109","name":"AV DR SANTIN CARLOS ROSSI esq. AV CARLOS MARIA RAMIREZ","lat":-34.87411525166118,"lng":-56.252674904759814,"code":"1109"},{"seq":69,"id":"1069","name":"AV CARLOS MARIA RAMIREZ esq. BOGOTA","lat":-34.87448886666334,"lng":-56.25426770949178,"code":"1069"},{"seq":70,"id":"1142","name":"BOGOTA esq. JAPON","lat":-34.87533184293842,"lng":-56.25446933792364,"code":"1142"},{"seq":71,"id":"1141","name":"BOGOTA esq. BERNA","lat":-34.877144766714025,"lng":-56.25408193082731,"code":"1141"},{"seq":72,"id":"3898","name":"BOGOTA esq. PERU","lat":-34.87884827799077,"lng":-56.25373904966049,"code":"3898"},{"seq":73,"id":"1222","name":"BOGOTA esq. CHINA","lat":-34.88059498528243,"lng":-56.2533899149423,"code":"1222"},{"seq":74,"id":"1223","name":"BOGOTA esq. SUECIA","lat":-34.88244196931878,"lng":-56.253000789620515,"code":"1223"},{"seq":75,"id":"1224","name":"BOGOTA esq. CHARCAS","lat":-34.884264395695276,"lng":-56.252649920866524,"code":"1224"},{"seq":76,"id":"1225","name":"BOGOTA esq. ECUADOR","lat":-34.88606416252092,"lng":-56.25230898903259,"code":"1225"},{"seq":77,"id":"1226","name":"BOGOTA esq. JUAN B VIACABA","lat":-34.88785094017187,"lng":-56.25197038544019,"code":"1226"},{"seq":78,"id":"1227","name":"BOGOTA esq. CENTRO AMERICA","lat":-34.88948527254472,"lng":-56.25158386663608,"code":"1227"},{"seq":79,"id":"1228","name":"BOGOTA esq. FRANCIA","lat":-34.89133739097636,"lng":-56.25121653326162,"code":"1228"},{"seq":80,"id":"1229","name":"BOGOTA esq. INGLATERRA","lat":-34.893076014111756,"lng":-56.25085963011785,"code":"1229"},{"seq":81,"id":"1121","name":"INGLATERRA esq. RIO DE JANEIRO","lat":-34.89341842607811,"lng":-56.25221088838629,"code":"1121"},{"seq":82,"id":"1122","name":"VIZCAYA esq. SUIZA","lat":-34.895162815043676,"lng":-56.252660048617244,"code":"1122"},{"seq":83,"id":"5510","name":"AV DR MARTIN IGNACIO HARRETCHE esq. RBLA JOSE GURVICH","lat":-34.90110123159019,"lng":-56.26117509355766,"code":"5510"},{"seq":84,"id":"5511","name":"AV DR MARTIN IGNACIO HARRETCHE esq. CALLE FICTICIA","lat":-34.903895761997674,"lng":-56.259823822920254,"code":"5511"}]}