{"0":[{"seq":1,"id":"4903","name":"CIRC INT SIN DENOM esq. CNO FAUQUET","lat":-34.78884500906482,"lng":-56.242318390814724,"code":"4903"},{"seq":2,"id":"956","name":"CIRC INT SIN DENOM esq. GUANAHANY","lat":-34.791684956273166,"lng":-56.24276964944626,"code":"956"},{"seq":3,"id":"958","name":"GUANAHANY esq. GIOIA","lat":-34.793820739981655,"lng":-56.24483573745431,"code":"958"},{"seq":4,"id":"971","name":"GUTTEMBERG esq. VERAGUAS","lat":-34.79403757544282,"lng":-56.24769093224913,"code":"971"},{"seq":5,"id":"931","name":"AV LEZICA esq. GUANAHANY","lat":-34.796250210239144,"lng":-56.2482607504938,"code":"931"},{"seq":6,"id":"928","name":"AV LEZICA esq. PINTA","lat":-34.79734978330257,"lng":-56.24702454084925,"code":"928"},{"seq":7,"id":"927","name":"AV LEZICA esq. SANTA MARIA","lat":-34.79873679999578,"lng":-56.245324452544864,"code":"927"},{"seq":8,"id":"925","name":"AV LEZICA esq. NIÑA","lat":-34.79996899484577,"lng":-56.24395333882298,"code":"925"},{"seq":9,"id":"923","name":"AV LEZICA esq. JUAN P LAMOLLE","lat":-34.801153756934994,"lng":-56.242635427112944,"code":"923"},{"seq":10,"id":"972","name":"AV LEZICA esq. VOLTA","lat":-34.801549740623926,"lng":-56.239874962068875,"code":"972"},{"seq":11,"id":"974","name":"AV LEZICA esq. CARLOS OTT","lat":-34.80187881047079,"lng":-56.236965415871204,"code":"974"},{"seq":12,"id":"976","name":"AV LEZICA esq. CAACUPE","lat":-34.80257359225043,"lng":-56.23394358177523,"code":"976"},{"seq":13,"id":"6189","name":"AV LEZICA esq. ITURBE","lat":-34.80299846238386,"lng":-56.232052254788485,"code":"6189"},{"seq":14,"id":"4626","name":"YEGROS esq. AV LEZICA","lat":-34.803127550087574,"lng":-56.22943103405866,"code":"4626"},{"seq":15,"id":"5222","name":"YEGROS esq. ANDRE GIOT DE BADET","lat":-34.801109668278166,"lng":-56.22888093494763,"code":"5222"},{"seq":16,"id":"6958","name":"YEGROS esq. CNO JOSE DURAN","lat":-34.79880558497025,"lng":-56.228136146513194,"code":"6958"},{"seq":17,"id":"5938","name":"CIRC INT SIN DENOM esq. CNO COLMAN","lat":-34.79974463512441,"lng":-56.2222269222132,"code":"5938"},{"seq":18,"id":"1191","name":"AV GRAL EUGENIO GARZON esq. MARGUERITE DE BADET","lat":-34.8024598904283,"lng":-56.22387124700392,"code":"1191"},{"seq":19,"id":"1192","name":"AV GRAL EUGENIO GARZON esq. PLAZA VIDIELLA","lat":-34.80566690281852,"lng":-56.22247740128226,"code":"1192"},{"seq":20,"id":"1193","name":"AV GRAL EUGENIO GARZON esq. CARVE","lat":-34.80828661846928,"lng":-56.22151217558333,"code":"1193"},{"seq":21,"id":"1194","name":"AV GRAL EUGENIO GARZON esq. CNO CASAVALLE","lat":-34.81201642852619,"lng":-56.22082546949571,"code":"1194"},{"seq":22,"id":"1195","name":"AV GRAL EUGENIO GARZON esq. BV APARICIO SARAVIA","lat":-34.81501281676395,"lng":-56.22052317721509,"code":"1195"},{"seq":23,"id":"1196","name":"AV GRAL EUGENIO GARZON esq. CNO EDISON","lat":-34.81937073428529,"lng":-56.22014703488728,"code":"1196"},{"seq":24,"id":"1198","name":"AV GRAL EUGENIO GARZON esq. CNO GRAL MAXIMO SANTOS","lat":-34.82348564609619,"lng":-56.21991905090336,"code":"1198"},{"seq":25,"id":"1199","name":"AV GRAL EUGENIO GARZON esq. BV JOSE BATLLE Y ORDOÑEZ","lat":-34.8272997704195,"lng":-56.21999711991504,"code":"1199"},{"seq":26,"id":"1200","name":"AV GRAL EUGENIO GARZON esq. CNO ARIEL","lat":-34.830838441716644,"lng":-56.22084781226806,"code":"1200"},{"seq":27,"id":"1432","name":"CNO ARIEL esq. QUICUYO","lat":-34.8321962480248,"lng":-56.21902518500401,"code":"1432"},{"seq":28,"id":"1433","name":"CNO ARIEL esq. IGNACIO RIVAS","lat":-34.83327759443875,"lng":-56.217166408650776,"code":"1433"},{"seq":29,"id":"1446","name":"AV SAYAGO esq. ELIAS REGULES","lat":-34.83168982338018,"lng":-56.21459094743339,"code":"1446"},{"seq":30,"id":"1681","name":"BV JOSE BATLLE Y ORDOÑEZ esq. BELL","lat":-34.83311194473031,"lng":-56.2107493560619,"code":"1681"},{"seq":31,"id":"1682","name":"BV JOSE BATLLE Y ORDOÑEZ esq. LAFAYETTE","lat":-34.8344190576479,"lng":-56.208555916339435,"code":"1682"},{"seq":32,"id":"1683","name":"BV JOSE BATLLE Y ORDOÑEZ esq. PASTOR","lat":-34.83548197071989,"lng":-56.20670683112458,"code":"1683"},{"seq":33,"id":"1684","name":"BV JOSE BATLLE Y ORDOÑEZ esq. EDUARDO PONDAL","lat":-34.83784965941108,"lng":-56.202761987719306,"code":"1684"},{"seq":34,"id":"1685","name":"BV JOSE BATLLE Y ORDOÑEZ esq. CNO CORONEL RAIZ","lat":-34.83868089189675,"lng":-56.201297838139766,"code":"1685"},{"seq":35,"id":"1686","name":"BV JOSE BATLLE Y ORDOÑEZ esq. AV DE LAS INSTRUCCIONES","lat":-34.84085188821296,"lng":-56.19768629170636,"code":"1686"},{"seq":36,"id":"3110","name":"BV JOSE BATLLE Y ORDOÑEZ esq. GAMBETTA","lat":-34.84228099725202,"lng":-56.195319386982796,"code":"3110"},{"seq":37,"id":"3111","name":"BV JOSE BATLLE Y ORDOÑEZ esq. DR ALBERTO ZUBIRIA","lat":-34.84357564266939,"lng":-56.19315694874627,"code":"3111"},{"seq":38,"id":"3112","name":"BV JOSE BATLLE Y ORDOÑEZ esq. TEODORO ALVAREZ","lat":-34.8459649082963,"lng":-56.19023165516402,"code":"3112"},{"seq":39,"id":"3113","name":"BV JOSE BATLLE Y ORDOÑEZ esq. ARECHAVALETA","lat":-34.848212057243856,"lng":-56.18795210077627,"code":"3113"},{"seq":40,"id":"3114","name":"BV JOSE BATLLE Y ORDOÑEZ esq. PANTALEON ARTIGAS","lat":-34.850655903840334,"lng":-56.18502970895282,"code":"3114"},{"seq":41,"id":"3115","name":"BV JOSE BATLLE Y ORDOÑEZ esq. CELEDONIO ROJAS","lat":-34.85303697981392,"lng":-56.182138202329874,"code":"3115"},{"seq":42,"id":"3116","name":"BV JOSE BATLLE Y ORDOÑEZ esq. GRAL MARIANO DE ACHA","lat":-34.8557605042108,"lng":-56.17872229232692,"code":"3116"},{"seq":43,"id":"3117","name":"BV JOSE BATLLE Y ORDOÑEZ esq. ING MANUEL RODRIGUEZ CORREA","lat":-34.85760645458029,"lng":-56.17631264354218,"code":"3117"},{"seq":44,"id":"3118","name":"BV JOSE BATLLE Y ORDOÑEZ esq. FRANCISCO ROMERO","lat":-34.85939675520107,"lng":-56.17398103989464,"code":"3118"},{"seq":45,"id":"3119","name":"BV JOSE BATLLE Y ORDOÑEZ esq. MARGARITA URIARTE DE HERRERA","lat":-34.86122551691372,"lng":-56.171672794507614,"code":"3119"},{"seq":46,"id":"3120","name":"BV JOSE BATLLE Y ORDOÑEZ esq. AV GRAL FLORES","lat":-34.86246920555178,"lng":-56.16997385173305,"code":"3120"},{"seq":47,"id":"5034","name":"BV JOSE BATLLE Y ORDOÑEZ esq. AV GRAL FLORES","lat":-34.86408849225422,"lng":-56.16786731434373,"code":"5034"},{"seq":48,"id":"3121","name":"BV JOSE BATLLE Y ORDOÑEZ esq. JUAN CRUZ VARELA","lat":-34.86558813125487,"lng":-56.165970480155664,"code":"3121"},{"seq":49,"id":"3122","name":"BV JOSE BATLLE Y ORDOÑEZ esq. AV JOSE PEDRO VARELA","lat":-34.86774600723824,"lng":-56.16314782501526,"code":"3122"},{"seq":50,"id":"3123","name":"BV JOSE BATLLE Y ORDOÑEZ esq. IGNACIO MANUEL ALTAMIRANO","lat":-34.86901747709855,"lng":-56.16146829695216,"code":"3123"},{"seq":51,"id":"3124","name":"BV JOSE BATLLE Y ORDOÑEZ esq. ING EDUARDO CANSTATT","lat":-34.871302252050796,"lng":-56.15850825036289,"code":"3124"},{"seq":52,"id":"3125","name":"BV JOSE BATLLE Y ORDOÑEZ esq. CADIZ","lat":-34.87278787913261,"lng":-56.156564436543775,"code":"3125"},{"seq":53,"id":"3126","name":"BV JOSE BATLLE Y ORDOÑEZ esq. EMILIO RAÑA","lat":-34.87468426414412,"lng":-56.15416204222459,"code":"3126"},{"seq":54,"id":"3485","name":"AV DAMASO ANTONIO LARRAÑAGA esq. TOMAS GOMENSORO","lat":-34.87694824562793,"lng":-56.15262149249546,"code":"3485"},{"seq":55,"id":"3486","name":"AV DAMASO ANTONIO LARRAÑAGA esq. FAMAILLA","lat":-34.88037409543749,"lng":-56.15261868233257,"code":"3486"},{"seq":56,"id":"3460","name":"JOANICO esq. GRAL URQUIZA","lat":-34.881943240500675,"lng":-56.15499960420521,"code":"3460"},{"seq":57,"id":"3186","name":"AV 8 DE OCTUBRE esq. MARIANO MORENO","lat":-34.88254548493429,"lng":-56.15325661788515,"code":"3186"},{"seq":58,"id":"4865","name":"AV 8 DE OCTUBRE esq. AGUSTIN ABREU","lat":-34.880096563761015,"lng":-56.14903749622189,"code":"4865"},{"seq":59,"id":"3190","name":"AV 8 DE OCTUBRE esq. MARIA STAGNERO DE MUNAR","lat":-34.87777810434094,"lng":-56.14517249376586,"code":"3190"},{"seq":60,"id":"3192","name":"AV 8 DE OCTUBRE esq. COMERCIO","lat":-34.87657278325702,"lng":-56.14307724477279,"code":"3192"},{"seq":61,"id":"3030","name":"COMERCIO esq. JOSE ANTONIO CABRERA","lat":-34.87751343730756,"lng":-56.14162010583269,"code":"3030"},{"seq":62,"id":"3031","name":"COMERCIO esq. AGUSTIN SOSA","lat":-34.879844353482916,"lng":-56.138723627696415,"code":"3031"},{"seq":63,"id":"3032","name":"COMERCIO esq. FELIX DE AZARA","lat":-34.88133689495937,"lng":-56.136884071121656,"code":"3032"},{"seq":64,"id":"3033","name":"COMERCIO esq. MATEO CABRAL","lat":-34.88252571200425,"lng":-56.135429183273665,"code":"3033"},{"seq":65,"id":"3034","name":"COMERCIO esq. PEDRO RICALDONI","lat":-34.88394641419546,"lng":-56.133709330398304,"code":"3034"},{"seq":66,"id":"3035","name":"COMERCIO esq. HERNANDARIAS","lat":-34.88548426637217,"lng":-56.13178391215348,"code":"3035"},{"seq":67,"id":"6423","name":"AV MCAL FRANCISCO SOLANO LOPEZ esq. BARROSO","lat":-34.88749110827124,"lng":-56.12930868183322,"code":"6423"},{"seq":68,"id":"3037","name":"AV MCAL FRANCISCO SOLANO LOPEZ esq. SOLFERINO","lat":-34.888261962774834,"lng":-56.12834013650585,"code":"3037"},{"seq":69,"id":"4860","name":"AV MCAL FRANCISCO SOLANO LOPEZ esq. HUMBERTO 1RO","lat":-34.889977563191174,"lng":-56.126929797521946,"code":"4860"},{"seq":70,"id":"3038","name":"AV MCAL FRANCISCO SOLANO LOPEZ esq. NANCY","lat":-34.89217377801673,"lng":-56.12512949439678,"code":"3038"},{"seq":71,"id":"3039","name":"AV MCAL FRANCISCO SOLANO LOPEZ esq. PEREZ GOMAR","lat":-34.893441109646126,"lng":-56.12396617914972,"code":"3039"},{"seq":72,"id":"3041","name":"AV MCAL FRANCISCO SOLANO LOPEZ esq. AV GRAL RIVERA","lat":-34.89568278093814,"lng":-56.12196245207587,"code":"3041"},{"seq":73,"id":"3244","name":"VERDI esq. ARRASCAETA","lat":-34.895784391456345,"lng":-56.119484853219056,"code":"3244"},{"seq":74,"id":"3246","name":"VERDI esq. AMBROSIO VELAZCO","lat":-34.89516214308317,"lng":-56.11786155033962,"code":"3246"},{"seq":75,"id":"3247","name":"VERDI esq. 9 DE JUNIO","lat":-34.89440369407456,"lng":-56.11612534209871,"code":"3247"},{"seq":76,"id":"3248","name":"AMSTERDAM esq. VELSEN","lat":-34.89484208491337,"lng":-56.113559882654215,"code":"3248"},{"seq":77,"id":"3249","name":"VELSEN esq. SANTIAGO DE ANCA","lat":-34.89435394425458,"lng":-56.112270744560774,"code":"3249"},{"seq":78,"id":"3250","name":"ALMERIA esq. YACO","lat":-34.89438500861266,"lng":-56.10990153472005,"code":"3250"},{"seq":79,"id":"3251","name":"ALMERIA esq. HIPOLITO YRIGOYEN","lat":-34.89454270481215,"lng":-56.108058292783646,"code":"3251"},{"seq":80,"id":"3252","name":"ALMERIA esq. AV 18 DE DICIEMBRE","lat":-34.894843653021994,"lng":-56.10475403807482,"code":"3252"},{"seq":81,"id":"3253","name":"ACONCAGUA esq. RIO DE LA PLATA","lat":-34.8949071393663,"lng":-56.10225435030693,"code":"3253"},{"seq":82,"id":"3254","name":"ACONCAGUA esq. MICHIGAN","lat":-34.894919371780176,"lng":-56.09987466844849,"code":"3254"},{"seq":83,"id":"3255","name":"ACONCAGUA esq. ENRIQUE ESTRAZULAS","lat":-34.89491120917754,"lng":-56.09804652990019,"code":"3255"},{"seq":84,"id":"3256","name":"ACONCAGUA esq. MISSOURI","lat":-34.894725040480786,"lng":-56.09610372813849,"code":"3256"},{"seq":85,"id":"3257","name":"ACONCAGUA esq. DR ALEJANDRO GALLINAL","lat":-34.89394374798879,"lng":-56.09322769194667,"code":"3257"},{"seq":86,"id":"3258","name":"CARAMURU esq. ING JOSE ACQUISTAPACE","lat":-34.89265772552346,"lng":-56.089834435306884,"code":"3258"},{"seq":87,"id":"3259","name":"CARAMURU esq. GRITO DE GLORIA","lat":-34.892706924028616,"lng":-56.0872380944183,"code":"3259"},{"seq":88,"id":"3260","name":"CARAMURU esq. MARIA ESPINOLA","lat":-34.89272442113462,"lng":-56.084827856007486,"code":"3260"},{"seq":89,"id":"3261","name":"CARAMURU esq. MOTIVOS DE PROTEO","lat":-34.892773495731404,"lng":-56.08210187076392,"code":"3261"},{"seq":90,"id":"3262","name":"CARAMURU esq. AV GRAL JOSE MARIA PAZ","lat":-34.892813844233565,"lng":-56.08031201932487,"code":"3262"},{"seq":91,"id":"3269","name":"CARAMURU esq. BELASTIQUI","lat":-34.892852095538316,"lng":-56.076266603040885,"code":"3269"},{"seq":92,"id":"3270","name":"CARAMURU esq. AV SAN MARINO","lat":-34.89155080330227,"lng":-56.0736313008942,"code":"3270"},{"seq":93,"id":"2964","name":"AV BOLIVIA esq. AV GRAL RIVERA","lat":-34.891059767842314,"lng":-56.072030592981385,"code":"2964"},{"seq":94,"id":"2960","name":"AV BOLIVIA esq. FRIBURGO","lat":-34.88894391873941,"lng":-56.07721758461364,"code":"2960"},{"seq":95,"id":"2959","name":"AV BOLIVIA esq. AV GRAL JOSE MARIA PAZ","lat":-34.887489125993916,"lng":-56.0798485054546,"code":"2959"},{"seq":96,"id":"2967","name":"AV BOLIVIA esq. AV DR JUAN BAUTISTA ALBERDI","lat":-34.88592240994123,"lng":-56.08189762585559,"code":"2967"},{"seq":97,"id":"2968","name":"AV BOLIVIA esq. AV ITALIA","lat":-34.88351082286622,"lng":-56.083098305901515,"code":"2968"},{"seq":98,"id":"4835","name":"AV ITALIA esq. AV BOLIVIA","lat":-34.882455782801124,"lng":-56.08317891772805,"code":"4835"}],"1":[{"seq":1,"id":"4836","name":"AV DRA MA LUISA SALDUN DE RODRIGUEZ esq. AV BOLIVIA","lat":-34.88181683901149,"lng":-56.08330093239711,"code":"4836"},{"seq":2,"id":"2958","name":"AV BOLIVIA esq. DR CARLOS TRAVIESO","lat":-34.88490189994123,"lng":-56.08281030140304,"code":"2958"},{"seq":3,"id":"2966","name":"AV BOLIVIA esq. MONES ROSES","lat":-34.88719580627941,"lng":-56.08064056357913,"code":"2966"},{"seq":4,"id":"2965","name":"AV BOLIVIA esq. HORACIO QUIROGA","lat":-34.8896243043034,"lng":-56.07625719532868,"code":"2965"},{"seq":5,"id":"5615","name":"AV GRAL RIVERA esq. CIUDAD DE GUAYAQUIL","lat":-34.89070230080807,"lng":-56.0767595373365,"code":"5615"},{"seq":6,"id":"5612","name":"AV GRAL RIVERA esq. AV GRAL JOSE MARIA PAZ","lat":-34.89069414335544,"lng":-56.07970365157583,"code":"5612"},{"seq":7,"id":"5616","name":"AV GRAL RIVERA esq. VICENTE ROCAFUERTE","lat":-34.8906817954311,"lng":-56.08297306682932,"code":"5616"},{"seq":8,"id":"6171","name":"AV GRAL RIVERA esq. MARIA ESPINOLA","lat":-34.89059496856401,"lng":-56.0849221905763,"code":"6171"},{"seq":9,"id":"5613","name":"AV GRAL RIVERA esq. GRITO DE GLORIA","lat":-34.89060368972717,"lng":-56.08654511867027,"code":"5613"},{"seq":10,"id":"5614","name":"AV GRAL RIVERA esq. ING JOSE ACQUISTAPACE","lat":-34.890582074818624,"lng":-56.08935252073365,"code":"5614"},{"seq":11,"id":"5617","name":"AV GRAL RIVERA esq. ALEJANDRO FLEMING","lat":-34.89086648390797,"lng":-56.09258335205096,"code":"5617"},{"seq":12,"id":"2989","name":"DR ALEJANDRO GALLINAL esq. PILCOMAYO","lat":-34.892452628394565,"lng":-56.09358344475614,"code":"2989"},{"seq":13,"id":"3309","name":"ACONCAGUA esq. MISSOURI","lat":-34.89455547428881,"lng":-56.09581123173408,"code":"3309"},{"seq":14,"id":"3310","name":"ACONCAGUA esq. ENRIQUE ESTRAZULAS","lat":-34.89489255244883,"lng":-56.097742771688374,"code":"3310"},{"seq":15,"id":"3311","name":"ACONCAGUA esq. MICHIGAN","lat":-34.89487111009814,"lng":-56.09928905273102,"code":"3311"},{"seq":16,"id":"3312","name":"ACONCAGUA esq. RIO DE LA PLATA","lat":-34.89485862317006,"lng":-56.101796350298876,"code":"3312"},{"seq":17,"id":"3313","name":"ACONCAGUA esq. ALMERIA","lat":-34.89478164739358,"lng":-56.1040427932684,"code":"3313"},{"seq":18,"id":"3314","name":"ALMERIA esq. HIPOLITO YRIGOYEN","lat":-34.894532778240624,"lng":-56.10760566578508,"code":"3314"},{"seq":19,"id":"3010","name":"HIPOLITO YRIGOYEN esq. AV GRAL RIVERA","lat":-34.891466373316426,"lng":-56.108793962131955,"code":"3010"},{"seq":20,"id":"3012","name":"AV GRAL RIVERA esq. ATLANTICO","lat":-34.89149134724971,"lng":-56.1119974966865,"code":"3012"},{"seq":21,"id":"3013","name":"AV GRAL RIVERA esq. AV COLOMBES","lat":-34.8931032433923,"lng":-56.11577853344623,"code":"3013"},{"seq":22,"id":"3014","name":"AV GRAL RIVERA esq. ASTURIAS","lat":-34.89451133268975,"lng":-56.11897845795507,"code":"3014"},{"seq":23,"id":"3015","name":"AV GRAL RIVERA esq. AV MCAL FRANCISCO SOLANO LOPEZ","lat":-34.895742379439575,"lng":-56.12147366653549,"code":"3015"},{"seq":24,"id":"3019","name":"AV MCAL FRANCISCO SOLANO LOPEZ esq. PEREZ GOMAR","lat":-34.89379358484845,"lng":-56.123511073952436,"code":"3019"},{"seq":25,"id":"3020","name":"AV MCAL FRANCISCO SOLANO LOPEZ esq. NANCY","lat":-34.89242095307666,"lng":-56.12477326215911,"code":"3020"},{"seq":26,"id":"3021","name":"AV MCAL FRANCISCO SOLANO LOPEZ esq. MARCO AURELIO","lat":-34.89031950060884,"lng":-56.126546659345124,"code":"3021"},{"seq":27,"id":"3022","name":"AV MCAL FRANCISCO SOLANO LOPEZ esq. SOLFERINO","lat":-34.88850624791254,"lng":-56.12802734447884,"code":"3022"},{"seq":28,"id":"3023","name":"AV MCAL FRANCISCO SOLANO LOPEZ esq. AV ITALIA","lat":-34.8872389461918,"lng":-56.1295089743289,"code":"3023"},{"seq":29,"id":"3024","name":"COMERCIO esq. HERNANDARIAS","lat":-34.885577899158406,"lng":-56.13152585904821,"code":"3024"},{"seq":30,"id":"3025","name":"COMERCIO esq. PEDRO RICALDONI","lat":-34.884177025856104,"lng":-56.1332871680308,"code":"3025"},{"seq":31,"id":"3026","name":"COMERCIO esq. MATEO CABRAL","lat":-34.88266000305568,"lng":-56.13513431427939,"code":"3026"},{"seq":32,"id":"3027","name":"COMERCIO esq. FELIX DE AZARA","lat":-34.88149437218053,"lng":-56.13658218079246,"code":"3027"},{"seq":33,"id":"3028","name":"COMERCIO esq. AGUSTIN SOSA","lat":-34.88004745575666,"lng":-56.138417533403455,"code":"3028"},{"seq":34,"id":"5663","name":"COMERCIO esq. ANTONIO F SARAVIA","lat":-34.87828833221822,"lng":-56.14053846257544,"code":"5663"},{"seq":35,"id":"3029","name":"GDOR VIANA esq. ASILO","lat":-34.87634957558455,"lng":-56.14097628766262,"code":"3029"},{"seq":36,"id":"3223","name":"AV 8 DE OCTUBRE esq. COMERCIO","lat":-34.87627522778565,"lng":-56.14278599084306,"code":"3223"},{"seq":37,"id":"3225","name":"AV 8 DE OCTUBRE esq. MARIA STAGNERO DE MUNAR","lat":-34.87745571536765,"lng":-56.14489930041462,"code":"3225"},{"seq":38,"id":"3227","name":"AV 8 DE OCTUBRE esq. BV JOSE BATLLE Y ORDOÑEZ","lat":-34.879068802905614,"lng":-56.14764013374304,"code":"3227"},{"seq":39,"id":"3228","name":"AV 8 DE OCTUBRE esq. AGUSTIN ABREU","lat":-34.88029138219354,"lng":-56.149720706157645,"code":"3228"},{"seq":40,"id":"3229","name":"AV 8 DE OCTUBRE esq. AV DAMASO ANTONIO LARRAÑAGA","lat":-34.88140882858598,"lng":-56.15158513373364,"code":"3229"},{"seq":41,"id":"3153","name":"AV DAMASO ANTONIO LARRAÑAGA esq. JUAN JACOBO ROUSSEAU","lat":-34.87940316405573,"lng":-56.152220074095325,"code":"3153"},{"seq":42,"id":"3093","name":"BV JOSE BATLLE Y ORDOÑEZ esq. GRAL JULIO AMADEO ROLETTI","lat":-34.876102105502625,"lng":-56.151894519522806,"code":"3093"},{"seq":43,"id":"3094","name":"BV JOSE BATLLE Y ORDOÑEZ esq. EMILIO RAÑA","lat":-34.875077277499386,"lng":-56.15321585276963,"code":"3094"},{"seq":44,"id":"3095","name":"BV JOSE BATLLE Y ORDOÑEZ esq. CADIZ","lat":-34.8730139080955,"lng":-56.155903221506414,"code":"3095"},{"seq":45,"id":"3096","name":"BV JOSE BATLLE Y ORDOÑEZ esq. ING EDUARDO CANSTATT","lat":-34.870811803806845,"lng":-56.158742000490626,"code":"3096"},{"seq":46,"id":"3097","name":"BV JOSE BATLLE Y ORDOÑEZ esq. IGNACIO MANUEL ALTAMIRANO","lat":-34.86885437462595,"lng":-56.16134698785371,"code":"3097"},{"seq":47,"id":"3098","name":"BV JOSE BATLLE Y ORDOÑEZ esq. AV JOSE PEDRO VARELA","lat":-34.867610528200416,"lng":-56.16294125718912,"code":"3098"},{"seq":48,"id":"3099","name":"BV JOSE BATLLE Y ORDOÑEZ esq. AV JACOBO A VARELA","lat":-34.86537415648043,"lng":-56.16589637454296,"code":"3099"},{"seq":49,"id":"3100","name":"BV JOSE BATLLE Y ORDOÑEZ esq. AV 15 DE FEBRERO DE 1985","lat":-34.8639993057757,"lng":-56.16771136369642,"code":"3100"},{"seq":50,"id":"3101","name":"BV JOSE BATLLE Y ORDOÑEZ esq. DR HOMERO DE GREGORIO","lat":-34.86188089994773,"lng":-56.170435230238006,"code":"3101"},{"seq":51,"id":"3102","name":"BV JOSE BATLLE Y ORDOÑEZ esq. FRANCISCO ROMERO","lat":-34.859726844771835,"lng":-56.17328433823633,"code":"3102"},{"seq":52,"id":"3911","name":"BV JOSE BATLLE Y ORDOÑEZ esq. AV GRAL SAN MARTIN","lat":-34.85785653761426,"lng":-56.175746525638665,"code":"3911"},{"seq":53,"id":"3103","name":"BV JOSE BATLLE Y ORDOÑEZ esq. CARABELA","lat":-34.85611982651999,"lng":-56.177968184388774,"code":"3103"},{"seq":54,"id":"3104","name":"BV JOSE BATLLE Y ORDOÑEZ esq. RAMON MARQUEZ","lat":-34.85340245852557,"lng":-56.18134288382264,"code":"3104"},{"seq":55,"id":"4939","name":"BV JOSE BATLLE Y ORDOÑEZ esq. GREGORIO SANABRIA","lat":-34.85113719735946,"lng":-56.18414551448006,"code":"4939"},{"seq":56,"id":"4940","name":"BV JOSE BATLLE Y ORDOÑEZ esq. ARECHAVALETA","lat":-34.84855841303355,"lng":-56.18728676797135,"code":"4940"},{"seq":57,"id":"4941","name":"BV JOSE BATLLE Y ORDOÑEZ esq. RBLA DR JOSE PEDRO CARDOSO","lat":-34.84594797876763,"lng":-56.18982971636757,"code":"4941"},{"seq":58,"id":"4942","name":"BV JOSE BATLLE Y ORDOÑEZ esq. DR ALBERTO ZUBIRIA","lat":-34.8436454046678,"lng":-56.19253244202069,"code":"4942"},{"seq":59,"id":"4943","name":"BV JOSE BATLLE Y ORDOÑEZ esq. GAMBETTA","lat":-34.84247627413973,"lng":-56.19458756035078,"code":"4943"},{"seq":60,"id":"4944","name":"BV JOSE BATLLE Y ORDOÑEZ esq. VICTOR HUGO","lat":-34.84133505505212,"lng":-56.19648528531737,"code":"4944"},{"seq":61,"id":"4453","name":"BV JOSE BATLLE Y ORDOÑEZ esq. SORIA","lat":-34.839206543785366,"lng":-56.19991893312002,"code":"4453"},{"seq":62,"id":"4454","name":"BV JOSE BATLLE Y ORDOÑEZ esq. EDUARDO PONDAL","lat":-34.83763681937241,"lng":-56.202689269097,"code":"4454"},{"seq":63,"id":"1691","name":"BV JOSE BATLLE Y ORDOÑEZ esq. PASTOR","lat":-34.83599094363137,"lng":-56.20552726127143,"code":"1691"},{"seq":64,"id":"1692","name":"BV JOSE BATLLE Y ORDOÑEZ esq. LAFAYETTE","lat":-34.83414100763868,"lng":-56.20869784661091,"code":"1692"},{"seq":65,"id":"4452","name":"BV JOSE BATLLE Y ORDOÑEZ esq. VEDIA","lat":-34.83229816077722,"lng":-56.2118462376147,"code":"4452"},{"seq":66,"id":"1459","name":"AV SAYAGO esq. CERRO","lat":-34.83151490155613,"lng":-56.21462526060557,"code":"1459"},{"seq":67,"id":"1460","name":"AV SAYAGO esq. CNO ARIEL","lat":-34.8334321612766,"lng":-56.21584621502984,"code":"1460"},{"seq":68,"id":"1441","name":"CNO ARIEL esq. 28 DE FEBRERO","lat":-34.83275733676736,"lng":-56.21783912636787,"code":"1441"},{"seq":69,"id":"1443","name":"CNO ARIEL esq. AV GRAL EUGENIO GARZON","lat":-34.83139709060848,"lng":-56.220167031509476,"code":"1443"},{"seq":70,"id":"4897","name":"AV GRAL EUGENIO GARZON esq. BV JOSE BATLLE Y ORDOÑEZ","lat":-34.82792023527521,"lng":-56.22007344606728,"code":"4897"},{"seq":71,"id":"1157","name":"AV GRAL EUGENIO GARZON esq. CNO GRAL MAXIMO SANTOS","lat":-34.8240582030457,"lng":-56.21979534413378,"code":"1157"},{"seq":72,"id":"1159","name":"AV GRAL EUGENIO GARZON esq. CNO EDISON","lat":-34.819934682914855,"lng":-56.22002611718232,"code":"1159"},{"seq":73,"id":"1160","name":"AV GRAL EUGENIO GARZON esq. BV APARICIO SARAVIA","lat":-34.81578430100813,"lng":-56.22038637899736,"code":"1160"},{"seq":74,"id":"1161","name":"AV GRAL EUGENIO GARZON esq. CNO CASAVALLE","lat":-34.812626240234906,"lng":-56.22065477446227,"code":"1161"},{"seq":75,"id":"1162","name":"AV GRAL EUGENIO GARZON esq. CARVE","lat":-34.8086534959177,"lng":-56.221377061499325,"code":"1162"},{"seq":76,"id":"1163","name":"AV GRAL EUGENIO GARZON esq. PLAZA VIDIELLA","lat":-34.805889326709355,"lng":-56.22204918493653,"code":"1163"},{"seq":77,"id":"1164","name":"AV GRAL EUGENIO GARZON esq. MARGUERITE DE BADET","lat":-34.802738239753836,"lng":-56.22360573394893,"code":"1164"},{"seq":78,"id":"5881","name":"CIRC INT SIN DENOM esq. AV GRAL EUGENIO GARZON","lat":-34.79939327266423,"lng":-56.222396562953456,"code":"5881"},{"seq":79,"id":"5009","name":"CNO JOSE DURAN esq. CARLOS GIUCCI","lat":-34.798731170716174,"lng":-56.227628875400484,"code":"5009"},{"seq":80,"id":"985","name":"YEGROS esq. CIRC INT SIN DENOM","lat":-34.79950839192315,"lng":-56.22848302946239,"code":"985"},{"seq":81,"id":"1420","name":"YEGROS esq. CIRC INT 13","lat":-34.80064047933999,"lng":-56.22879265555958,"code":"1420"},{"seq":82,"id":"1419","name":"YEGROS esq. AV LEZICA","lat":-34.80308671793445,"lng":-56.229501177890114,"code":"1419"},{"seq":83,"id":"6187","name":"AV LEZICA esq. ITURBE","lat":-34.80283977466311,"lng":-56.23136562860247,"code":"6187"},{"seq":84,"id":"977","name":"AV LEZICA esq. CAACUPE","lat":-34.80237277648723,"lng":-56.23390089599557,"code":"977"},{"seq":85,"id":"975","name":"AV LEZICA esq. CNO DEL APERO","lat":-34.801887120106606,"lng":-56.236476899098086,"code":"975"},{"seq":86,"id":"973","name":"AV LEZICA esq. GIOIA","lat":-34.801406369387024,"lng":-56.23903508872382,"code":"973"},{"seq":87,"id":"922","name":"AV LEZICA esq. JUAN P LAMOLLE","lat":-34.80138124067483,"lng":-56.24215988143256,"code":"922"},{"seq":88,"id":"924","name":"AV LEZICA esq. NIÑA","lat":-34.80019556579006,"lng":-56.24344956912532,"code":"924"},{"seq":89,"id":"926","name":"AV LEZICA esq. SANTA MARIA","lat":-34.7989024965081,"lng":-56.244931942186575,"code":"926"},{"seq":90,"id":"4898","name":"AV LEZICA esq. PINTA","lat":-34.797694630271046,"lng":-56.24638127505369,"code":"4898"},{"seq":91,"id":"930","name":"AV LEZICA esq. GUANAHANY","lat":-34.79643889137379,"lng":-56.24776656449029,"code":"930"},{"seq":92,"id":"959","name":"GUANAHANY esq. GIOIA","lat":-34.79415481958241,"lng":-56.24507945886074,"code":"959"},{"seq":93,"id":"957","name":"GUANAHANY esq. CNO FAUQUET","lat":-34.792593837034055,"lng":-56.24317676423934,"code":"957"},{"seq":94,"id":"4903","name":"CIRC INT SIN DENOM esq. CNO FAUQUET","lat":-34.78884500906482,"lng":-56.242318390814724,"code":"4903"}]}