{"0":[{"seq":1,"id":"6444","name":"AV JULIO MARIA SOSA esq. AV DR JUAN ANDRES CACHON","lat":-34.918491698374574,"lng":-56.16875310235672,"code":"6444"},{"seq":2,"id":"4076","name":"DR JOAQUIN DE SALTERAIN esq. AV GONZALO RAMIREZ","lat":-34.91206342282567,"lng":-56.169065064784746,"code":"4076"},{"seq":3,"id":"4085","name":"AV GONZALO RAMIREZ esq. DR JOAQUIN REQUENA","lat":-34.91155892393931,"lng":-56.168038274030934,"code":"4085"},{"seq":4,"id":"4367","name":"ACEVEDO DIAZ esq. SAN SALVADOR","lat":-34.91074930152792,"lng":-56.16556361717844,"code":"4367"},{"seq":5,"id":"2069","name":"BV GRAL ARTIGAS esq. GUANA","lat":-34.90420189476347,"lng":-56.1637435348658,"code":"2069"},{"seq":6,"id":"2070","name":"BV GRAL ARTIGAS esq. PALMAR","lat":-34.901038716714986,"lng":-56.164139465163466,"code":"2070"},{"seq":7,"id":"2109","name":"BV GRAL ARTIGAS esq. LORD PONSOMBY","lat":-34.898224381777595,"lng":-56.16445798706647,"code":"2109"}],"1":[{"seq":1,"id":"5693","name":"BV GRAL ARTIGAS esq. GOES","lat":-34.89341147679409,"lng":-56.16531471196839,"code":"5693"},{"seq":2,"id":"2110","name":"BV GRAL ARTIGAS esq. FRANCISCO CANARO","lat":-34.89864526354498,"lng":-56.16468838889825,"code":"2110"},{"seq":3,"id":"556","name":"BV GRAL ARTIGAS esq. PALMAR","lat":-34.90140993306445,"lng":-56.1644039264089,"code":"556"},{"seq":4,"id":"2112","name":"BV GRAL ARTIGAS esq. CHANA","lat":-34.90399509395529,"lng":-56.16411515019811,"code":"2112"},{"seq":5,"id":"2113","name":"BV GRAL ARTIGAS esq. CANELONES","lat":-34.90647972098986,"lng":-56.16383565971896,"code":"2113"},{"seq":6,"id":"2055","name":"BV GRAL ARTIGAS esq. EDIL HUGO PRATO","lat":-34.90924014540296,"lng":-56.16352478198571,"code":"2055"},{"seq":7,"id":"3963","name":"BV ESPAÑA esq. ACEVEDO DIAZ","lat":-34.910100972123374,"lng":-56.16554312134598,"code":"3963"},{"seq":8,"id":"3940","name":"BV ESPAÑA esq. EDIL HUGO PRATO","lat":-34.909363715544906,"lng":-56.16762352270307,"code":"3940"},{"seq":9,"id":"3942","name":"BV ESPAÑA esq. DR PABLO DE MARIA","lat":-34.90840719494246,"lng":-56.1704900048461,"code":"3942"},{"seq":10,"id":"3852","name":"EDUARDO ACEVEDO esq. ISLA DE FLORES","lat":-34.91010896697955,"lng":-56.17407458263567,"code":"3852"},{"seq":11,"id":"4074","name":"AV GONZALO RAMIREZ esq. JUAN D JACKSON","lat":-34.911926583619874,"lng":-56.17307615063786,"code":"4074"},{"seq":12,"id":"4085","name":"AV GONZALO RAMIREZ esq. DR JOAQUIN REQUENA","lat":-34.91155892393931,"lng":-56.168038274030934,"code":"4085"},{"seq":13,"id":"2118","name":"AV JULIO HERRERA Y REISSIG esq. AV TOMAS GIRIBALDI","lat":-34.913943262562995,"lng":-56.165899709551255,"code":"2118"},{"seq":14,"id":"2119","name":"AV JULIO HERRERA Y REISSIG esq. IBIRAY","lat":-34.91674196338047,"lng":-56.16586793900819,"code":"2119"},{"seq":15,"id":"4457","name":"AV JULIO HERRERA Y REISSIG esq. ING EDUARDO GARCIA DE ZUÑIGA","lat":-34.91863616243336,"lng":-56.16578981288909,"code":"4457"},{"seq":16,"id":"6444","name":"AV JULIO MARIA SOSA esq. AV DR JUAN ANDRES CACHON","lat":-34.918491698374574,"lng":-56.16875310235672,"code":"6444"}]}