{"0":[{"seq":1,"id":"6566","name":"CNO EL AGUILA esq. LOS ASTROS","lat":-34.79733296787118,"lng":-56.116814564295325,"code":"6566"},{"seq":2,"id":"6567","name":"CNO EL AGUILA esq. CALLE 9373","lat":-34.79775123663495,"lng":-56.11788549016793,"code":"6567"},{"seq":3,"id":"6569","name":"CNO EL AGUILA esq. 17 DICIEMBRE","lat":-34.79828299515277,"lng":-56.11900848678246,"code":"6569"},{"seq":4,"id":"2386","name":"CNO PASO DE LA ESPAÑOLA esq. WENCESLAO VARELA","lat":-34.800281717762154,"lng":-56.12280977144289,"code":"2386"},{"seq":5,"id":"2387","name":"CNO PASO DE LA ESPAÑOLA esq. TOLON","lat":-34.801271733685496,"lng":-56.12484651011175,"code":"2387"},{"seq":6,"id":"2388","name":"CNO PASO DE LA ESPAÑOLA esq. CNO CARLOS A LOPEZ","lat":-34.80367139411344,"lng":-56.127176708495,"code":"2388"},{"seq":7,"id":"4216","name":"CNO PASO DE LA ESPAÑOLA esq. AV DE LA ALJABA","lat":-34.80598301687422,"lng":-56.12873512577884,"code":"4216"},{"seq":8,"id":"6570","name":"CNO PASO DE LA ESPAÑOLA esq. CNO LA CRUZ DEL SUR","lat":-34.807230822259115,"lng":-56.12951380982821,"code":"6570"},{"seq":9,"id":"6571","name":"CNO PASO DE LA ESPAÑOLA esq. CNO CAP CORALIO C LACOSTA","lat":-34.810065776468626,"lng":-56.132287288138556,"code":"6571"},{"seq":10,"id":"6921","name":"CNO PASO DE LA ESPAÑOLA esq. PUNTA DEL ESTE","lat":-34.81198124773468,"lng":-56.133685744802406,"code":"6921"},{"seq":11,"id":"6572","name":"CNO PASO DE LA ESPAÑOLA esq. PREVISION","lat":-34.81425204690978,"lng":-56.13517030338296,"code":"6572"},{"seq":12,"id":"2377","name":"CNO REPETTO esq. AV JOSE BELLONI","lat":-34.81682051501841,"lng":-56.13880650337589,"code":"2377"}],"1":[{"seq":1,"id":"2243","name":"AV JOSE BELLONI esq. PREVISION","lat":-34.81408072606001,"lng":-56.13850155983632,"code":"2243"},{"seq":2,"id":"6573","name":"CNO PASO DE LA ESPAÑOLA esq. PREVISION","lat":-34.813681668170254,"lng":-56.1344984462643,"code":"6573"},{"seq":3,"id":"6922","name":"CNO PASO DE LA ESPAÑOLA esq. PUNTA DEL ESTE","lat":-34.81235689256591,"lng":-56.13356323651172,"code":"6922"},{"seq":4,"id":"6574","name":"CNO PASO DE LA ESPAÑOLA esq. CNO CAP CORALIO C LACOSTA","lat":-34.810542549575864,"lng":-56.132370312362134,"code":"6574"},{"seq":5,"id":"6575","name":"CNO PASO DE LA ESPAÑOLA esq. CNO BOISO LANZA","lat":-34.807727248107575,"lng":-56.12954521985286,"code":"6575"},{"seq":6,"id":"2380","name":"CNO PASO DE LA ESPAÑOLA esq. CNO CARLOS A LOPEZ","lat":-34.80434544038169,"lng":-56.127387389558656,"code":"2380"},{"seq":7,"id":"2381","name":"CNO PASO DE LA ESPAÑOLA esq. TOLON","lat":-34.801651579780994,"lng":-56.12522623743042,"code":"2381"},{"seq":8,"id":"2382","name":"CNO PASO DE LA ESPAÑOLA esq. ARGOS","lat":-34.80062020488519,"lng":-56.12312382458109,"code":"2382"},{"seq":9,"id":"6576","name":"CNO EL AGUILA esq. 17 DICIEMBRE","lat":-34.79844547660842,"lng":-56.119074115995765,"code":"6576"},{"seq":10,"id":"6577","name":"CNO EL AGUILA esq. CALLE 9373","lat":-34.797858985958,"lng":-56.117869377629354,"code":"6577"},{"seq":11,"id":"6566","name":"CNO EL AGUILA esq. LOS ASTROS","lat":-34.79733296787118,"lng":-56.116814564295325,"code":"6566"}]}