{"0":[{"seq":1,"id":"6908","name":"LAS ACHIRAS esq. CLAVELES","lat":-34.89097672067817,"lng":-56.29426000981831,"code":"6908"},{"seq":2,"id":"1045","name":"LAS ACHIRAS esq. CNO SANTA CATALINA","lat":-34.890387283952386,"lng":-56.29259423108805,"code":"1045"},{"seq":3,"id":"1046","name":"CNO SANTA CATALINA esq. TAMBERA","lat":-34.88821091721396,"lng":-56.29283325451117,"code":"1046"},{"seq":4,"id":"4819","name":"CNO SANTA CATALINA esq. BURDEOS","lat":-34.886283637362915,"lng":-56.29317019587841,"code":"4819"},{"seq":5,"id":"1047","name":"BURDEOS esq. CNO DELLAZOPPA","lat":-34.885489677383,"lng":-56.289867192441,"code":"1047"},{"seq":6,"id":"1048","name":"BURDEOS esq. CARLOS PEDRELL","lat":-34.883569709861014,"lng":-56.28086229464672,"code":"1048"},{"seq":7,"id":"6920","name":"BURDEOS esq. REPUBLICA DE MALI","lat":-34.88286594879938,"lng":-56.27846638150142,"code":"6920"},{"seq":8,"id":"1049","name":"BURDEOS esq. PSJE 18 MTS","lat":-34.88236228840267,"lng":-56.27677903228966,"code":"1049"},{"seq":9,"id":"1050","name":"BURDEOS esq. PROY 17 MTS","lat":-34.88171794484735,"lng":-56.274780932750865,"code":"1050"},{"seq":10,"id":"1037","name":"BURDEOS esq. 12 MTS","lat":-34.88097498765108,"lng":-56.27258761555566,"code":"1037"},{"seq":11,"id":"4636","name":"BURDEOS esq. GUINEA","lat":-34.88047681602747,"lng":-56.270039912666526,"code":"4636"},{"seq":12,"id":"4635","name":"BURDEOS esq. CALLE 7813 (ALDERETE)","lat":-34.879890035010305,"lng":-56.267887994668584,"code":"4635"},{"seq":13,"id":"1051","name":"BURDEOS esq. BULGARIA","lat":-34.87968823880251,"lng":-56.264854785717915,"code":"1051"},{"seq":14,"id":"4274","name":"BURDEOS esq. GIBRALTAR","lat":-34.87957675938606,"lng":-56.26407385671338,"code":"4274"},{"seq":15,"id":"1252","name":"GIBRALTAR esq. BERNA","lat":-34.87880470344117,"lng":-56.26376152923848,"code":"1252"},{"seq":16,"id":"5991","name":"GIBRALTAR esq. JAPON","lat":-34.87700950019994,"lng":-56.264067760005815,"code":"5991"},{"seq":17,"id":"1060","name":"AV CARLOS MARIA RAMIREZ esq. DINAMARCA","lat":-34.87580957574045,"lng":-56.26343999545671,"code":"1060"},{"seq":18,"id":"1061","name":"AV CARLOS MARIA RAMIREZ esq. FILIPINAS","lat":-34.87553424979873,"lng":-56.2612750347582,"code":"1061"},{"seq":19,"id":"1062","name":"AV CARLOS MARIA RAMIREZ esq. PUERTO RICO","lat":-34.87524622337117,"lng":-56.25914896228572,"code":"1062"},{"seq":20,"id":"1063","name":"AV CARLOS MARIA RAMIREZ esq. VIZCAYA","lat":-34.874999773262616,"lng":-56.25717543648007,"code":"1063"},{"seq":21,"id":"1064","name":"AV CARLOS MARIA RAMIREZ esq. BOGOTA","lat":-34.874694071295146,"lng":-56.25494367903302,"code":"1064"},{"seq":22,"id":"4775","name":"AV DR SANTIN CARLOS ROSSI esq. DR PEDRO CASTELLINO","lat":-34.87366351246541,"lng":-56.25252419496949,"code":"4775"},{"seq":23,"id":"4843","name":"DR PEDRO CASTELLINO esq. TURQUIA","lat":-34.87331449578367,"lng":-56.24994058065089,"code":"4843"},{"seq":24,"id":"1562","name":"RUTA NAL DR HUGO BATALLA esq. LEONARDO OLIVERA","lat":-34.87246487178433,"lng":-56.2397000645094,"code":"1562"},{"seq":25,"id":"566","name":"PARAGUAY esq. GUATEMALA","lat":-34.89213620014495,"lng":-56.19399472759762,"code":"566"},{"seq":26,"id":"3924","name":"PARAGUAY esq. NICARAGUA","lat":-34.89379840681412,"lng":-56.19383126303531,"code":"3924"},{"seq":27,"id":"570","name":"PARAGUAY esq. NUEVA YORK","lat":-34.896909905039806,"lng":-56.19348221101063,"code":"570"},{"seq":28,"id":"3925","name":"PARAGUAY esq. LA PAZ","lat":-34.899148764425064,"lng":-56.193262907711244,"code":"3925"},{"seq":29,"id":"4580","name":"PARAGUAY esq. PAYSANDU","lat":-34.902021362889556,"lng":-56.19297880451833,"code":"4580"},{"seq":30,"id":"4615","name":"AV URUGUAY esq. JULIO HERRERA Y OBES","lat":-34.9032354661676,"lng":-56.19465136934147,"code":"4615"},{"seq":31,"id":"4909","name":"AV URUGUAY esq. CONVENCION","lat":-34.90341932776122,"lng":-56.19707970448174,"code":"4909"},{"seq":32,"id":"4040","name":"AV URUGUAY esq. FLORIDA","lat":-34.90356323442288,"lng":-56.199201708016666,"code":"4040"}],"1":[{"seq":1,"id":"6987","name":"25 DE MAYO esq. JUNCAL","lat":-34.904319303555496,"lng":-56.20136421430059,"code":"6987"},{"seq":2,"id":"4763","name":"CERRITO esq. BARTOLOME MITRE","lat":-34.90400477623158,"lng":-56.203070088466596,"code":"4763"},{"seq":3,"id":"4764","name":"CERRITO esq. TREINTA Y TRES","lat":-34.904920052752594,"lng":-56.20578257890794,"code":"4764"},{"seq":4,"id":"4765","name":"CERRITO esq. ZABALA","lat":-34.90561830689571,"lng":-56.207879137519804,"code":"4765"},{"seq":5,"id":"4773","name":"CERRITO esq. PEREZ CASTELLANO","lat":-34.906624007542774,"lng":-56.21085086685308,"code":"4773"},{"seq":6,"id":"4774","name":"CERRITO esq. JUAN LINDOLFO CUESTAS","lat":-34.90753583985315,"lng":-56.2136045742601,"code":"4774"},{"seq":7,"id":"4929","name":"JUAN LINDOLFO CUESTAS esq. WASHINGTON","lat":-34.90912286787016,"lng":-56.21332952460498,"code":"4929"},{"seq":8,"id":"4769","name":"BUENOS AIRES esq. GUARANI","lat":-34.91047979456778,"lng":-56.21094004617812,"code":"4769"},{"seq":9,"id":"4770","name":"BUENOS AIRES esq. COLON","lat":-34.909782251374686,"lng":-56.20880318576354,"code":"4770"},{"seq":10,"id":"4771","name":"BUENOS AIRES esq. MISIONES","lat":-34.908738679799676,"lng":-56.20565920081309,"code":"4771"},{"seq":11,"id":"4772","name":"BUENOS AIRES esq. ITUZAINGO","lat":-34.908139826603445,"lng":-56.20369061101104,"code":"4772"},{"seq":12,"id":"5109","name":"ANDES esq. AV 18 DE JULIO","lat":-34.9066402089398,"lng":-56.197978248579226,"code":"5109"},{"seq":13,"id":"4549","name":"MERCEDES esq. RIO BRANCO","lat":-34.90439719259269,"lng":-56.196358022256135,"code":"4549"},{"seq":14,"id":"4023","name":"MERCEDES esq. PARAGUAY","lat":-34.904162748218404,"lng":-56.19293791477653,"code":"4023"},{"seq":15,"id":"3927","name":"AV GRAL RONDEAU esq. PAYSANDU","lat":-34.902411549872404,"lng":-56.19173672634738,"code":"3927"},{"seq":16,"id":"3928","name":"AV GRAL RONDEAU esq. VALPARAISO","lat":-34.89853357452957,"lng":-56.192107780621484,"code":"3928"},{"seq":17,"id":"3929","name":"AV GRAL RONDEAU esq. ASUNCION","lat":-34.89625161393297,"lng":-56.1923531162126,"code":"3929"},{"seq":18,"id":"3930","name":"AV GRAL RONDEAU esq. VENEZUELA","lat":-34.89343316443118,"lng":-56.19260979262458,"code":"3930"},{"seq":19,"id":"567","name":"AV GRAL RONDEAU esq. PANAMA","lat":-34.89100892843425,"lng":-56.192903604799696,"code":"567"},{"seq":20,"id":"1556","name":"CAMAMBU esq. DIONISIO CORONEL","lat":-34.871009516393926,"lng":-56.238574784221214,"code":"1556"},{"seq":21,"id":"4815","name":"AV CARLOS MARIA RAMIREZ esq. VIGO","lat":-34.873577827708786,"lng":-56.247690116750995,"code":"4815"},{"seq":22,"id":"4816","name":"AV CARLOS MARIA RAMIREZ esq. TURQUIA","lat":-34.87400931094092,"lng":-56.250790573274884,"code":"4816"},{"seq":23,"id":"1069","name":"AV CARLOS MARIA RAMIREZ esq. BOGOTA","lat":-34.87448886666334,"lng":-56.25426770949178,"code":"1069"},{"seq":24,"id":"1070","name":"AV CARLOS MARIA RAMIREZ esq. VIZCAYA","lat":-34.87477629905185,"lng":-56.25640314183071,"code":"1070"},{"seq":25,"id":"1071","name":"AV CARLOS MARIA RAMIREZ esq. PUERTO RICO","lat":-34.875146457511654,"lng":-56.25879999150518,"code":"1071"},{"seq":26,"id":"1072","name":"AV CARLOS MARIA RAMIREZ esq. FILIPINAS","lat":-34.87543730279701,"lng":-56.260973324849196,"code":"1072"},{"seq":27,"id":"1073","name":"AV CARLOS MARIA RAMIREZ esq. DINAMARCA","lat":-34.875720619083616,"lng":-56.26314915066202,"code":"1073"},{"seq":28,"id":"1074","name":"AV CARLOS MARIA RAMIREZ esq. BULGARIA","lat":-34.87593173417382,"lng":-56.265296686126106,"code":"1074"},{"seq":29,"id":"1254","name":"BULGARIA esq. BERNA","lat":-34.87851489331454,"lng":-56.26498383239116,"code":"1254"},{"seq":30,"id":"4272","name":"BURDEOS esq. AV CIBILS","lat":-34.87966733701493,"lng":-56.265226095323385,"code":"4272"},{"seq":31,"id":"4634","name":"BURDEOS esq. CALLE 7813 (ALDERETE)","lat":-34.8798025674363,"lng":-56.26766464223751,"code":"4634"},{"seq":32,"id":"1036","name":"BURDEOS esq. SENEGAL","lat":-34.880362150848185,"lng":-56.269931629754765,"code":"1036"},{"seq":33,"id":"4818","name":"BURDEOS esq. 15 MTS","lat":-34.88128150907389,"lng":-56.27366928231837,"code":"4818"},{"seq":34,"id":"4637","name":"BURDEOS esq. PSJE 17 MTS","lat":-34.88189458021841,"lng":-56.27561394980893,"code":"4637"},{"seq":35,"id":"1039","name":"BURDEOS esq. PSJE 18 MTS","lat":-34.88219819155365,"lng":-56.27674594790633,"code":"1039"},{"seq":36,"id":"6919","name":"BURDEOS esq. REPUBLICA DE MALI","lat":-34.88281464458321,"lng":-56.27867896884933,"code":"6919"},{"seq":37,"id":"1040","name":"BURDEOS esq. CARLOS PEDRELL","lat":-34.88336166531667,"lng":-56.280545883362734,"code":"1040"},{"seq":38,"id":"1041","name":"BURDEOS esq. CNO DELLAZOPPA","lat":-34.88538664827864,"lng":-56.28974101389543,"code":"1041"},{"seq":39,"id":"4277","name":"BURDEOS esq. CNO SANTA CATALINA","lat":-34.885819234488956,"lng":-56.293171042211505,"code":"4277"},{"seq":40,"id":"1042","name":"CNO SANTA CATALINA esq. TAMBERA","lat":-34.88822897980023,"lng":-56.292861916926164,"code":"1042"},{"seq":41,"id":"1043","name":"CNO SANTA CATALINA esq. LAS ACHIRAS","lat":-34.890167930085255,"lng":-56.292484848622436,"code":"1043"},{"seq":42,"id":"1044","name":"LAS ACHIRAS esq. LAS ROSAS","lat":-34.89106813395031,"lng":-56.29423236653821,"code":"1044"}]}