{"0":[{"seq":1,"id":"3530","name":"COMERCIO esq. AV 8 DE OCTUBRE","lat":-34.876247853851666,"lng":-56.14306830451114,"code":"3530"},{"seq":2,"id":"3030","name":"COMERCIO esq. JOSE ANTONIO CABRERA","lat":-34.87751343730756,"lng":-56.14162010583269,"code":"3030"},{"seq":3,"id":"3031","name":"COMERCIO esq. AGUSTIN SOSA","lat":-34.879844353482916,"lng":-56.138723627696415,"code":"3031"},{"seq":4,"id":"3032","name":"COMERCIO esq. FELIX DE AZARA","lat":-34.88133689495937,"lng":-56.136884071121656,"code":"3032"},{"seq":5,"id":"3033","name":"COMERCIO esq. MATEO CABRAL","lat":-34.88252571200425,"lng":-56.135429183273665,"code":"3033"},{"seq":6,"id":"3034","name":"COMERCIO esq. PEDRO RICALDONI","lat":-34.88394641419546,"lng":-56.133709330398304,"code":"3034"},{"seq":7,"id":"3035","name":"COMERCIO esq. HERNANDARIAS","lat":-34.88548426637217,"lng":-56.13178391215348,"code":"3035"},{"seq":8,"id":"6423","name":"AV MCAL FRANCISCO SOLANO LOPEZ esq. BARROSO","lat":-34.88749110827124,"lng":-56.12930868183322,"code":"6423"},{"seq":9,"id":"3037","name":"AV MCAL FRANCISCO SOLANO LOPEZ esq. SOLFERINO","lat":-34.888261962774834,"lng":-56.12834013650585,"code":"3037"},{"seq":10,"id":"4860","name":"AV MCAL FRANCISCO SOLANO LOPEZ esq. HUMBERTO 1RO","lat":-34.889977563191174,"lng":-56.126929797521946,"code":"4860"},{"seq":11,"id":"3038","name":"AV MCAL FRANCISCO SOLANO LOPEZ esq. NANCY","lat":-34.89217377801673,"lng":-56.12512949439678,"code":"3038"},{"seq":12,"id":"3039","name":"AV MCAL FRANCISCO SOLANO LOPEZ esq. PEREZ GOMAR","lat":-34.893441109646126,"lng":-56.12396617914972,"code":"3039"},{"seq":13,"id":"3041","name":"AV MCAL FRANCISCO SOLANO LOPEZ esq. AV GRAL RIVERA","lat":-34.89568278093814,"lng":-56.12196245207587,"code":"3041"},{"seq":14,"id":"3042","name":"AV GRAL RIVERA esq. BV JOSE BATLLE Y ORDOÑEZ","lat":-34.89704445876083,"lng":-56.12397037718708,"code":"3042"},{"seq":15,"id":"3043","name":"AV GRAL RIVERA esq. JOSE GESTAL","lat":-34.89796994809469,"lng":-56.12579418640679,"code":"3043"},{"seq":16,"id":"3044","name":"AV GRAL RIVERA esq. AV TOMAS BASAÑEZ","lat":-34.899110997650624,"lng":-56.12790972707785,"code":"3044"},{"seq":17,"id":"3046","name":"AV GRAL RIVERA esq. TOMAS DE TEZANOS","lat":-34.89956989411421,"lng":-56.13164915388603,"code":"3046"},{"seq":18,"id":"3047","name":"AV GRAL RIVERA esq. TIBURCIO GOMEZ","lat":-34.90009116781687,"lng":-56.13541938042712,"code":"3047"},{"seq":19,"id":"3048","name":"AV GRAL RIVERA esq. AV DR LUIS ALBERTO DE HERRERA","lat":-34.90103512583684,"lng":-56.13816022314074,"code":"3048"},{"seq":20,"id":"3049","name":"AV GRAL RIVERA esq. FRANCISCO JOAQUIN MUÑOZ","lat":-34.90177982682855,"lng":-56.14073752616651,"code":"3049"},{"seq":21,"id":"3888","name":"AV GRAL RIVERA esq. DOLORES PEREIRA DE ROSELL","lat":-34.90243715700076,"lng":-56.143363148462285,"code":"3888"},{"seq":22,"id":"3050","name":"AV GRAL RIVERA esq. LA GACETA","lat":-34.902802230340015,"lng":-56.14591411310105,"code":"3050"},{"seq":23,"id":"4882","name":"AV GRAL RIVERA esq. 14 DE JULIO","lat":-34.90290044088655,"lng":-56.14848828112145,"code":"4882"},{"seq":24,"id":"3051","name":"AV GRAL RIVERA esq. FRANCISCO LLAMBI","lat":-34.902995970544296,"lng":-56.15047520080279,"code":"3051"},{"seq":25,"id":"3889","name":"AV GRAL RIVERA esq. BRIG GRAL DIEGO LAMAS","lat":-34.90305246041319,"lng":-56.15252588845266,"code":"3889"},{"seq":26,"id":"3052","name":"AV GRAL RIVERA esq. GABRIEL A PEREIRA","lat":-34.90309201175386,"lng":-56.155439899978376,"code":"3052"},{"seq":27,"id":"3053","name":"AV GRAL RIVERA esq. SIMON BOLIVAR","lat":-34.903067720392585,"lng":-56.1588567738956,"code":"3053"},{"seq":28,"id":"3054","name":"AV GRAL RIVERA esq. AV ING LUIS P PONCE","lat":-34.90286354202732,"lng":-56.160981555342836,"code":"3054"},{"seq":29,"id":"3055","name":"AV GRAL RIVERA esq. PEDRO CAMPBELL","lat":-34.90261056623694,"lng":-56.16226087950346,"code":"3055"},{"seq":30,"id":"3056","name":"AV GRAL RIVERA esq. ACEVEDO DIAZ","lat":-34.901989604178105,"lng":-56.16620164071824,"code":"3056"},{"seq":31,"id":"3057","name":"AV GRAL RIVERA esq. DR JOAQUIN DE SALTERAIN","lat":-34.90218854086084,"lng":-56.17007764439145,"code":"3057"},{"seq":32,"id":"4439","name":"GUAYABOS esq. DR JUAN A RODRIGUEZ","lat":-34.90256175568311,"lng":-56.17467118496945,"code":"4439"},{"seq":33,"id":"4438","name":"GUAYABOS esq. JOSE ARISMENDI","lat":-34.90353298890942,"lng":-56.17768898205769,"code":"4438"},{"seq":34,"id":"4437","name":"GUAYABOS esq. CARLOS ROXLO","lat":-34.9047732774362,"lng":-56.18086793391653,"code":"4437"},{"seq":35,"id":"4824","name":"Q F ANDRES MARTINEZ TRUEBA esq. BERNABE RIVERA","lat":-34.90661615511964,"lng":-56.183254783160734,"code":"4824"},{"seq":36,"id":"4611","name":"SORIANO esq. DR JAVIER BARRIOS AMORIN","lat":-34.90722301030577,"lng":-56.18425245560246,"code":"4611"},{"seq":37,"id":"3174","name":"SORIANO esq. CARLOS QUIJANO","lat":-34.90749676110008,"lng":-56.188535075026024,"code":"3174"},{"seq":38,"id":"3175","name":"SORIANO esq. HECTOR GUTIERREZ RUIZ","lat":-34.907740373658655,"lng":-56.1909401545585,"code":"3175"},{"seq":39,"id":"3176","name":"SORIANO esq. WILSON FERREIRA ALDUNATE","lat":-34.90806701659087,"lng":-56.195390440504156,"code":"3176"},{"seq":40,"id":"5033","name":"SORIANO esq. ANDES","lat":-34.9082147512774,"lng":-56.197643464507415,"code":"5033"}],"1":[{"seq":1,"id":"574","name":"SAN JOSE esq. ANDES","lat":-34.90739436261954,"lng":-56.198255004630475,"code":"574"},{"seq":2,"id":"575","name":"SAN JOSE esq. JULIO HERRERA Y OBES","lat":-34.907180431370236,"lng":-56.19497870426089,"code":"575"},{"seq":3,"id":"577","name":"SAN JOSE esq. HECTOR GUTIERREZ RUIZ","lat":-34.906916984502736,"lng":-56.191511440167034,"code":"577"},{"seq":4,"id":"579","name":"SAN JOSE esq. DR AQUILES R LANZA","lat":-34.90665488002691,"lng":-56.188135832767166,"code":"579"},{"seq":5,"id":"3915","name":"CONSTITUYENTE esq. Q F ANDRES MARTINEZ TRUEBA","lat":-34.90578371828748,"lng":-56.1838944242571,"code":"3915"},{"seq":6,"id":"3916","name":"CONSTITUYENTE esq. TACUAREMBO","lat":-34.90598475396528,"lng":-56.18190087527458,"code":"3916"},{"seq":7,"id":"3857","name":"JOSE ENRIQUE RODO esq. MAGALLANES","lat":-34.90524643358369,"lng":-56.178761421739274,"code":"3857"},{"seq":8,"id":"3858","name":"JOSE ENRIQUE RODO esq. EDUARDO ACEVEDO","lat":-34.90402802362052,"lng":-56.17559368464075,"code":"3858"},{"seq":9,"id":"4002","name":"JOSE ENRIQUE RODO esq. DR PABLO DE MARIA","lat":-34.90343488053395,"lng":-56.171807647708874,"code":"4002"},{"seq":10,"id":"4087","name":"JOSE ENRIQUE RODO esq. DR JOAQUIN REQUENA","lat":-34.903259624997354,"lng":-56.16948600357515,"code":"4087"},{"seq":11,"id":"4003","name":"JOSE ENRIQUE RODO esq. ACEVEDO DIAZ","lat":-34.90307837002189,"lng":-56.166849941038826,"code":"4003"},{"seq":12,"id":"2969","name":"AV GRAL RIVERA esq. AV ING LUIS P PONCE","lat":-34.90277709660882,"lng":-56.16177785625483,"code":"2969"},{"seq":13,"id":"2970","name":"AV GRAL RIVERA esq. SIMON BOLIVAR","lat":-34.90315288094026,"lng":-56.15931750841267,"code":"2970"},{"seq":14,"id":"3890","name":"AV GRAL RIVERA esq. AV DR FRANCISCO SOCA","lat":-34.9031775360753,"lng":-56.156431832931226,"code":"3890"},{"seq":15,"id":"3891","name":"AV GRAL RIVERA esq. BRIG GRAL DIEGO LAMAS","lat":-34.90316115741242,"lng":-56.1530352897326,"code":"3891"},{"seq":16,"id":"2971","name":"AV GRAL RIVERA esq. FRANCISCO LLAMBI","lat":-34.90312705108915,"lng":-56.15097707510887,"code":"2971"},{"seq":17,"id":"4881","name":"AV GRAL RIVERA esq. 14 DE JULIO","lat":-34.90308314991294,"lng":-56.14834681876097,"code":"4881"},{"seq":18,"id":"2972","name":"AV GRAL RIVERA esq. ALEJO ROSELL Y RIUS","lat":-34.90292659005501,"lng":-56.14640869843527,"code":"2972"},{"seq":19,"id":"2973","name":"AV GRAL RIVERA esq. DOLORES PEREIRA DE ROSELL","lat":-34.90254756708267,"lng":-56.14369692763453,"code":"2973"},{"seq":20,"id":"3887","name":"AV GRAL RIVERA esq. JULIO CESAR","lat":-34.90211145873505,"lng":-56.141572211866745,"code":"3887"},{"seq":21,"id":"2974","name":"AV GRAL RIVERA esq. AV DR LUIS ALBERTO DE HERRERA","lat":-34.90137586257185,"lng":-56.13885822537604,"code":"2974"},{"seq":22,"id":"2975","name":"AV GRAL RIVERA esq. TIBURCIO GOMEZ","lat":-34.90035707336237,"lng":-56.1358397802778,"code":"2975"},{"seq":23,"id":"2976","name":"AV GRAL RIVERA esq. TOMAS DE TEZANOS","lat":-34.89960725989435,"lng":-56.132263699629554,"code":"2976"},{"seq":24,"id":"2977","name":"AV GRAL RIVERA esq. NICOLAS PIAGGIO","lat":-34.89984895536484,"lng":-56.12991695846844,"code":"2977"},{"seq":25,"id":"2978","name":"AV GRAL RIVERA esq. AV TOMAS BASAÑEZ","lat":-34.89949060923523,"lng":-56.12839603776521,"code":"2978"},{"seq":26,"id":"2979","name":"AV GRAL RIVERA esq. BV JOSE BATLLE Y ORDOÑEZ","lat":-34.89763456006381,"lng":-56.1249399770868,"code":"2979"},{"seq":27,"id":"3078","name":"VERDI esq. DONIZETTI","lat":-34.897471249415005,"lng":-56.12245799265326,"code":"3078"},{"seq":28,"id":"3017","name":"AV MCAL FRANCISCO SOLANO LOPEZ esq. AV GRAL RIVERA","lat":-34.89603200384979,"lng":-56.12144730538142,"code":"3017"},{"seq":29,"id":"3019","name":"AV MCAL FRANCISCO SOLANO LOPEZ esq. PEREZ GOMAR","lat":-34.89379358484845,"lng":-56.123511073952436,"code":"3019"},{"seq":30,"id":"3020","name":"AV MCAL FRANCISCO SOLANO LOPEZ esq. NANCY","lat":-34.89242095307666,"lng":-56.12477326215911,"code":"3020"},{"seq":31,"id":"3021","name":"AV MCAL FRANCISCO SOLANO LOPEZ esq. MARCO AURELIO","lat":-34.89031950060884,"lng":-56.126546659345124,"code":"3021"},{"seq":32,"id":"3022","name":"AV MCAL FRANCISCO SOLANO LOPEZ esq. SOLFERINO","lat":-34.88850624791254,"lng":-56.12802734447884,"code":"3022"},{"seq":33,"id":"3023","name":"AV MCAL FRANCISCO SOLANO LOPEZ esq. AV ITALIA","lat":-34.8872389461918,"lng":-56.1295089743289,"code":"3023"},{"seq":34,"id":"3024","name":"COMERCIO esq. HERNANDARIAS","lat":-34.885577899158406,"lng":-56.13152585904821,"code":"3024"},{"seq":35,"id":"3025","name":"COMERCIO esq. PEDRO RICALDONI","lat":-34.884177025856104,"lng":-56.1332871680308,"code":"3025"},{"seq":36,"id":"3026","name":"COMERCIO esq. MATEO CABRAL","lat":-34.88266000305568,"lng":-56.13513431427939,"code":"3026"},{"seq":37,"id":"3027","name":"COMERCIO esq. FELIX DE AZARA","lat":-34.88149437218053,"lng":-56.13658218079246,"code":"3027"},{"seq":38,"id":"3028","name":"COMERCIO esq. AGUSTIN SOSA","lat":-34.88004745575666,"lng":-56.138417533403455,"code":"3028"},{"seq":39,"id":"5663","name":"COMERCIO esq. ANTONIO F SARAVIA","lat":-34.87828833221822,"lng":-56.14053846257544,"code":"5663"},{"seq":40,"id":"3029","name":"GDOR VIANA esq. ASILO","lat":-34.87634957558455,"lng":-56.14097628766262,"code":"3029"},{"seq":41,"id":"3524","name":"GDOR VIANA esq. JOANICO","lat":-34.875070655949834,"lng":-56.14203088505227,"code":"3524"},{"seq":42,"id":"4464","name":"JOANICO esq. COMERCIO","lat":-34.87548011945645,"lng":-56.14339505269551,"code":"4464"}]}