{"0":[{"seq":1,"id":"5370","name":"JULIO SOSA esq. PILARICA","lat":-34.74189377035566,"lng":-56.215818126236925,"code":"5370"},{"seq":2,"id":"5371","name":"JULIO SOSA esq. D CASTILLA","lat":-34.74422325757602,"lng":-56.215625705742085,"code":"5371"},{"seq":3,"id":"5372","name":"JULIO SOSA esq. ZENONA DE LAS HERAS","lat":-34.74567796975946,"lng":-56.21549145419877,"code":"5372"},{"seq":4,"id":"5373","name":"JULIO SOSA esq. CALLE FICTICIA","lat":-34.74749543597242,"lng":-56.21518036027221,"code":"5373"},{"seq":5,"id":"4181","name":"CNO PASO CALPINO esq. CNO OSIRIS RODRIGUEZ CASTILLOS","lat":-34.74963156984417,"lng":-56.214399707533204,"code":"4181"},{"seq":6,"id":"4179","name":"CNO PASO CALPINO esq. CNO RUSSI","lat":-34.752311517101475,"lng":-56.214775090157865,"code":"4179"},{"seq":7,"id":"4712","name":"CNO PASO CALPINO esq. CNO RUSSI","lat":-34.75628230680616,"lng":-56.21478214173971,"code":"4712"},{"seq":8,"id":"4177","name":"CNO TALICE esq. SATURNO","lat":-34.758507869695734,"lng":-56.21430968466756,"code":"4177"},{"seq":9,"id":"4175","name":"CNO PASO CALPINO esq. CNO TALICE","lat":-34.76289479118114,"lng":-56.213990651464364,"code":"4175"},{"seq":10,"id":"4173","name":"CNO PASO CALPINO esq. MERCURIO","lat":-34.7641550573578,"lng":-56.21453101287688,"code":"4173"},{"seq":11,"id":"1801","name":"CNO A LA CUCHILLA PEREIRA esq. CNO PASO CALPINO","lat":-34.76603331514457,"lng":-56.21544890518143,"code":"1801"},{"seq":12,"id":"1799","name":"CNO A LA CUCHILLA PEREIRA esq. CNO DE LA JUSTICIA","lat":-34.769575358360164,"lng":-56.218631729776874,"code":"1799"},{"seq":13,"id":"5823","name":"CNO AL PASO CALPINO esq. CNO VILLARON","lat":-34.77493035678834,"lng":-56.219883635350385,"code":"5823"},{"seq":14,"id":"1796","name":"CNO AL PASO CALPINO esq. DR VICTOR ARMAND UGON","lat":-34.77715876474719,"lng":-56.219318453118746,"code":"1796"},{"seq":15,"id":"1794","name":"CNO AL PASO CALPINO esq. CNO OSVALDO RODRIGUEZ","lat":-34.77891705255678,"lng":-56.220095510815945,"code":"1794"},{"seq":16,"id":"1792","name":"CNO OSVALDO RODRIGUEZ esq. CNO AL PASO CALPINO","lat":-34.780586841366265,"lng":-56.21740938075161,"code":"1792"},{"seq":17,"id":"5825","name":"CNO OSVALDO RODRIGUEZ esq. CNO AL PASO CALPINO","lat":-34.78191580890558,"lng":-56.214988009582875,"code":"5825"},{"seq":18,"id":"5826","name":"CNO OSVALDO RODRIGUEZ esq. CNO AL PASO CALPINO","lat":-34.78339700778233,"lng":-56.2121944102026,"code":"5826"},{"seq":19,"id":"5827","name":"CNO OSVALDO RODRIGUEZ esq. CNO MANUEL FORTET","lat":-34.78506841261791,"lng":-56.20906411140416,"code":"5827"},{"seq":20,"id":"5829","name":"CNO OSVALDO RODRIGUEZ esq. CNO CORONEL RAIZ","lat":-34.787722831753904,"lng":-56.2042119595702,"code":"5829"},{"seq":21,"id":"7053","name":"CNO OSVALDO RODRIGUEZ esq. CNO CORONEL RAIZ","lat":-34.79028406768395,"lng":-56.1994839437733,"code":"7053"},{"seq":22,"id":"1787","name":"CNO OSVALDO RODRIGUEZ esq. CNO CORONEL RAIZ","lat":-34.79139374080353,"lng":-56.19725368801217,"code":"1787"},{"seq":23,"id":"1785","name":"CNO CORONEL RAIZ esq. CNO VARZI","lat":-34.795900439549634,"lng":-56.19545613217544,"code":"1785"},{"seq":24,"id":"6438","name":"CNO CORONEL RAIZ esq. CNO AL PASO DE LA CRUZ","lat":-34.79963700916096,"lng":-56.193249349242585,"code":"6438"},{"seq":25,"id":"1782","name":"CNO CORONEL RAIZ esq. CNO AL PASO DE LA CRUZ","lat":-34.80217586948545,"lng":-56.19029850596483,"code":"1782"},{"seq":26,"id":"1780","name":"CNO CORONEL RAIZ esq. CNO AL PASO DE LA CRUZ","lat":-34.80339037891222,"lng":-56.18750696830326,"code":"1780"},{"seq":27,"id":"1778","name":"CNO CORONEL RAIZ esq. CNO AL PASO DE LA CRUZ","lat":-34.80500887510769,"lng":-56.187430204229855,"code":"1778"},{"seq":28,"id":"1776","name":"CNO CORONEL RAIZ esq. CNO CARLOS A LOPEZ","lat":-34.806110257106205,"lng":-56.188179838791925,"code":"1776"},{"seq":29,"id":"4308","name":"CNO CORONEL RAIZ esq. CNO CARLOS A LOPEZ","lat":-34.808896286326956,"lng":-56.19017075648083,"code":"4308"},{"seq":30,"id":"5194","name":"CNO COLMAN esq. CNO CORONEL RAIZ","lat":-34.81139674740009,"lng":-56.19276817320874,"code":"5194"},{"seq":31,"id":"1721","name":"CNO CORONEL RAIZ esq. SBRE 6601","lat":-34.81407156310638,"lng":-56.194407035362914,"code":"1721"},{"seq":32,"id":"1722","name":"CNO CORONEL RAIZ esq. CNO JOSE DURAN","lat":-34.81637774315697,"lng":-56.19615912574989,"code":"1722"},{"seq":33,"id":"1723","name":"CNO CORONEL RAIZ esq. BESNES E IRIGOYEN","lat":-34.8178755236667,"lng":-56.197367459088156,"code":"1723"},{"seq":34,"id":"4325","name":"CNO CORONEL RAIZ esq. ING ALBERTO CAUBARRERE","lat":-34.818936875067294,"lng":-56.19820729098034,"code":"4325"},{"seq":35,"id":"1724","name":"CNO CORONEL RAIZ esq. HUDSON","lat":-34.82015139404866,"lng":-56.19913082829034,"code":"1724"},{"seq":36,"id":"1725","name":"CNO CORONEL RAIZ esq. SENEN RODRIGUEZ","lat":-34.82203914282496,"lng":-56.20019289883916,"code":"1725"},{"seq":37,"id":"1726","name":"CNO CORONEL RAIZ esq. CIRC INT SIN DENOM","lat":-34.8236651721342,"lng":-56.20047408928626,"code":"1726"},{"seq":38,"id":"1738","name":"CNO CORONEL RAIZ esq. BV APARICIO SARAVIA","lat":-34.826809630463494,"lng":-56.20058239862223,"code":"1738"},{"seq":39,"id":"1753","name":"BV APARICIO SARAVIA esq. DANTE ALIGHIERI","lat":-34.82831653240921,"lng":-56.19877926775969,"code":"1753"},{"seq":40,"id":"1754","name":"BV APARICIO SARAVIA esq. HAMBURGO","lat":-34.829882045659495,"lng":-56.19608537912837,"code":"1754"},{"seq":41,"id":"1755","name":"BV APARICIO SARAVIA esq. BALTIMORE","lat":-34.830974501281,"lng":-56.19440866403781,"code":"1755"},{"seq":42,"id":"1756","name":"BV APARICIO SARAVIA esq. JULIO J CASAL","lat":-34.832048308094464,"lng":-56.192593490422055,"code":"1756"},{"seq":43,"id":"1757","name":"BV APARICIO SARAVIA esq. AV DE LAS INSTRUCCIONES","lat":-34.833603442402826,"lng":-56.18995195068913,"code":"1757"},{"seq":44,"id":"1758","name":"AV DE LAS INSTRUCCIONES esq. CNO EDISON","lat":-34.835769280140234,"lng":-56.19196981620966,"code":"1758"},{"seq":45,"id":"1759","name":"AV DE LAS INSTRUCCIONES esq. DR JOSE MARIA SILVA","lat":-34.83704531235269,"lng":-56.19327915545162,"code":"1759"},{"seq":46,"id":"1760","name":"AV DE LAS INSTRUCCIONES esq. CNO GRAL MAXIMO SANTOS","lat":-34.83819120976418,"lng":-56.194433230721344,"code":"1760"},{"seq":47,"id":"1761","name":"AV DE LAS INSTRUCCIONES esq. BV JOSE BATLLE Y ORDOÑEZ","lat":-34.840421955021846,"lng":-56.19671195895841,"code":"1761"},{"seq":48,"id":"3110","name":"BV JOSE BATLLE Y ORDOÑEZ esq. GAMBETTA","lat":-34.84228099725202,"lng":-56.195319386982796,"code":"3110"},{"seq":49,"id":"3111","name":"BV JOSE BATLLE Y ORDOÑEZ esq. DR ALBERTO ZUBIRIA","lat":-34.84357564266939,"lng":-56.19315694874627,"code":"3111"},{"seq":50,"id":"3112","name":"BV JOSE BATLLE Y ORDOÑEZ esq. TEODORO ALVAREZ","lat":-34.8459649082963,"lng":-56.19023165516402,"code":"3112"},{"seq":51,"id":"3113","name":"BV JOSE BATLLE Y ORDOÑEZ esq. ARECHAVALETA","lat":-34.848212057243856,"lng":-56.18795210077627,"code":"3113"},{"seq":52,"id":"4240","name":"ATAHONA esq. BV JOSE BATLLE Y ORDOÑEZ","lat":-34.85008105080076,"lng":-56.186927421515286,"code":"4240"},{"seq":53,"id":"3617","name":"ATAHONA esq. VAIMACA","lat":-34.8516551685085,"lng":-56.18885157116563,"code":"3617"},{"seq":54,"id":"5959","name":"VAIMACA esq. BAYONA","lat":-34.85313906995268,"lng":-56.188380133177596,"code":"5959"},{"seq":55,"id":"3612","name":"MAXIMO GOMEZ esq. PANTALEON ARTIGAS","lat":-34.854122485155756,"lng":-56.18700507938643,"code":"3612"},{"seq":56,"id":"6380","name":"ING MANUEL RODRIGUEZ CORREA esq. AV BURGUES","lat":-34.85567336705311,"lng":-56.18412536450763,"code":"6380"},{"seq":57,"id":"3655","name":"AV BURGUES esq. ROBERTO KOCH","lat":-34.857523857452684,"lng":-56.18449448366068,"code":"3655"},{"seq":58,"id":"3656","name":"AV BURGUES esq. DR PABLO EHRLICH","lat":-34.85864589374382,"lng":-56.18500236387245,"code":"3656"},{"seq":59,"id":"2427","name":"AV BURGUES esq. AV DR LUIS ALBERTO DE HERRERA","lat":-34.86155709217695,"lng":-56.18650291724689,"code":"2427"},{"seq":60,"id":"2428","name":"AV BURGUES esq. DR MAGESTED","lat":-34.86419363265027,"lng":-56.186833272459495,"code":"2428"},{"seq":61,"id":"2429","name":"AV BURGUES esq. LUISA LUISI","lat":-34.86612086986212,"lng":-56.1866939229421,"code":"2429"},{"seq":62,"id":"2430","name":"AV BURGUES esq. ESPINILLO","lat":-34.86847929102493,"lng":-56.1864173880958,"code":"2430"},{"seq":63,"id":"2431","name":"AV BURGUES esq. BV GRAL ARTIGAS","lat":-34.87074685732132,"lng":-56.186113285359056,"code":"2431"},{"seq":64,"id":"2432","name":"AV BURGUES esq. GRAL ENRIQUE MARTINEZ","lat":-34.8729082889952,"lng":-56.18576854428118,"code":"2432"},{"seq":65,"id":"2423","name":"AV GRAL SAN MARTIN esq. VILARDEBO","lat":-34.87619115789834,"lng":-56.18563663573321,"code":"2423"},{"seq":66,"id":"2424","name":"AV GRAL SAN MARTIN esq. RIVADAVIA","lat":-34.87807747905353,"lng":-56.186377956275365,"code":"2424"},{"seq":67,"id":"2455","name":"AV GRAL SAN MARTIN esq. DR DOMINGO ARAMBURU","lat":-34.88063731085275,"lng":-56.186383507521576,"code":"2455"},{"seq":68,"id":"2456","name":"AV GRAL SAN MARTIN esq. CLEMENTE CESAR","lat":-34.883780719224504,"lng":-56.18686561578479,"code":"2456"},{"seq":69,"id":"4434","name":"AV GRAL SAN MARTIN esq. MARTIN GARCIA","lat":-34.88581418706864,"lng":-56.18766859856454,"code":"4434"},{"seq":70,"id":"3746","name":"AV AGRACIADA esq. GRAL CESAR DIAZ","lat":-34.88901705487735,"lng":-56.18829439130915,"code":"3746"},{"seq":71,"id":"3663","name":"AV DE LAS LEYES esq. GUATEMALA","lat":-34.891684021777536,"lng":-56.18872660096357,"code":"3663"},{"seq":72,"id":"3877","name":"MAGALLANES esq. LIMA","lat":-34.894156165683185,"lng":-56.18510033316632,"code":"3877"},{"seq":73,"id":"3878","name":"MAGALLANES esq. NUEVA YORK","lat":-34.89588333503353,"lng":-56.184078830408026,"code":"3878"},{"seq":74,"id":"3822","name":"MIGUELETE esq. AV DANIEL FERNANDEZ CRESPO","lat":-34.89594960179222,"lng":-56.181943538129026,"code":"3822"},{"seq":75,"id":"3830","name":"ARENAL GRANDE esq. LA PAZ","lat":-34.8960236277724,"lng":-56.179785201096344,"code":"3830"},{"seq":76,"id":"3831","name":"ARENAL GRANDE esq. CERRO LARGO","lat":-34.89705316339779,"lng":-56.1783211706736,"code":"3831"},{"seq":77,"id":"3832","name":"ARENAL GRANDE esq. AV URUGUAY","lat":-34.898473686360106,"lng":-56.176467221183195,"code":"3832"},{"seq":78,"id":"4031","name":"AV URUGUAY esq. EDUARDO ACEVEDO","lat":-34.899596366633894,"lng":-56.17804216147024,"code":"4031"},{"seq":79,"id":"4045","name":"AV URUGUAY esq. MAGALLANES","lat":-34.90062199336393,"lng":-56.18058879857864,"code":"4045"},{"seq":80,"id":"4033","name":"AV URUGUAY esq. TACUAREMBO","lat":-34.90173133482853,"lng":-56.1833734344285,"code":"4033"},{"seq":81,"id":"4034","name":"AV URUGUAY esq. DR JAVIER BARRIOS AMORIN","lat":-34.902477786939514,"lng":-56.18531876018565,"code":"4034"},{"seq":82,"id":"4046","name":"AV URUGUAY esq. EJIDO","lat":-34.90267340970044,"lng":-56.18684587273082,"code":"4046"},{"seq":83,"id":"4035","name":"AV URUGUAY esq. YI","lat":-34.902816514953564,"lng":-56.189049903919376,"code":"4035"},{"seq":84,"id":"4036","name":"AV URUGUAY esq. AV GRAL RONDEAU","lat":-34.9029789489459,"lng":-56.19144629690975,"code":"4036"},{"seq":85,"id":"4615","name":"AV URUGUAY esq. JULIO HERRERA Y OBES","lat":-34.9032354661676,"lng":-56.19465136934147,"code":"4615"},{"seq":86,"id":"4909","name":"AV URUGUAY esq. CONVENCION","lat":-34.90341932776122,"lng":-56.19707970448174,"code":"4909"},{"seq":87,"id":"4040","name":"AV URUGUAY esq. FLORIDA","lat":-34.90356323442288,"lng":-56.199201708016666,"code":"4040"},{"seq":88,"id":"4041","name":"JUNCAL esq. CERRITO","lat":-34.90405713088382,"lng":-56.20172418575614,"code":"4041"}],"1":[{"seq":1,"id":"4020","name":"JUNCAL esq. PIEDRAS","lat":-34.90259324845392,"lng":-56.202462812387665,"code":"4020"},{"seq":2,"id":"6884","name":"CERRO LARGO esq. FLORIDA","lat":-34.90220102147156,"lng":-56.200205541630595,"code":"6884"},{"seq":3,"id":"573","name":"FLORIDA esq. AV URUGUAY","lat":-34.90337911943784,"lng":-56.19962201898019,"code":"573"},{"seq":4,"id":"4827","name":"MERCEDES esq. ANDES","lat":-34.90456356483672,"lng":-56.198480023365704,"code":"4827"},{"seq":5,"id":"4549","name":"MERCEDES esq. RIO BRANCO","lat":-34.90439719259269,"lng":-56.196358022256135,"code":"4549"},{"seq":6,"id":"4023","name":"MERCEDES esq. PARAGUAY","lat":-34.904162748218404,"lng":-56.19293791477653,"code":"4023"},{"seq":7,"id":"4552","name":"MERCEDES esq. YI","lat":-34.903900820161134,"lng":-56.18955373699588,"code":"4552"},{"seq":8,"id":"4043","name":"MERCEDES esq. EJIDO","lat":-34.903756881307345,"lng":-56.18728509392396,"code":"4043"},{"seq":9,"id":"4550","name":"MERCEDES esq. VAZQUEZ","lat":-34.90320961240496,"lng":-56.18445196523541,"code":"4550"},{"seq":10,"id":"4027","name":"MERCEDES esq. CARLOS ROXLO","lat":-34.90248164510963,"lng":-56.182602541920396,"code":"4027"},{"seq":11,"id":"4547","name":"MERCEDES esq. GABOTO","lat":-34.90130205860922,"lng":-56.17968728139629,"code":"4547"},{"seq":12,"id":"4546","name":"MERCEDES esq. EDUARDO ACEVEDO","lat":-34.900517866007554,"lng":-56.17759738809082,"code":"4546"},{"seq":13,"id":"3834","name":"AV DANIEL FERNANDEZ CRESPO esq. AV URUGUAY","lat":-34.89929880015499,"lng":-56.17680259324791,"code":"3834"},{"seq":14,"id":"3836","name":"AV DANIEL FERNANDEZ CRESPO esq. LA PAZ","lat":-34.89691510862053,"lng":-56.18008238388338,"code":"3836"},{"seq":15,"id":"3838","name":"AV DANIEL FERNANDEZ CRESPO esq. LIMA","lat":-34.894232603971,"lng":-56.18373846355934,"code":"3838"},{"seq":16,"id":"3738","name":"AV DANIEL FERNANDEZ CRESPO esq. AV DE LAS LEYES","lat":-34.891868152767245,"lng":-56.18571213056046,"code":"3738"},{"seq":17,"id":"3666","name":"AV DE LAS LEYES esq. BATOVI","lat":-34.89010771130561,"lng":-56.18533826927376,"code":"3666"},{"seq":18,"id":"3667","name":"YATAY esq. MARCELINO SOSA","lat":-34.888660223354194,"lng":-56.18672574558212,"code":"3667"},{"seq":19,"id":"4433","name":"AV GRAL SAN MARTIN esq. MARTIN GARCIA","lat":-34.88634692195809,"lng":-56.18773340951671,"code":"4433"},{"seq":20,"id":"3988","name":"AV GRAL SAN MARTIN esq. DR JUAN J DE AMEZAGA","lat":-34.88462972069693,"lng":-56.186924835125126,"code":"3988"},{"seq":21,"id":"3989","name":"AV GRAL SAN MARTIN esq. DR DOMINGO ARAMBURU","lat":-34.88131757584907,"lng":-56.18621116533369,"code":"3989"},{"seq":22,"id":"3990","name":"AV GRAL SAN MARTIN esq. RIVADAVIA","lat":-34.87855803224238,"lng":-56.18621179849872,"code":"3990"},{"seq":23,"id":"3991","name":"AV GRAL SAN MARTIN esq. VILARDEBO","lat":-34.87658381666349,"lng":-56.185696008898205,"code":"3991"},{"seq":24,"id":"2433","name":"AV BURGUES esq. GRAL ENRIQUE MARTINEZ","lat":-34.873225306083995,"lng":-56.18564057474265,"code":"2433"},{"seq":25,"id":"2434","name":"AV BURGUES esq. BV GRAL ARTIGAS","lat":-34.871528067757325,"lng":-56.185892882345435,"code":"2434"},{"seq":26,"id":"2435","name":"AV BURGUES esq. RAMON DE SANTIAGO","lat":-34.86920575235349,"lng":-56.186188933514146,"code":"2435"},{"seq":27,"id":"2436","name":"AV BURGUES esq. PEDRO MARGAT","lat":-34.86679318053791,"lng":-56.18650293345646,"code":"2436"},{"seq":28,"id":"2437","name":"AV BURGUES esq. DR MAGESTED","lat":-34.864602904211125,"lng":-56.186690829073655,"code":"2437"},{"seq":29,"id":"3657","name":"AV BURGUES esq. AV DR LUIS ALBERTO DE HERRERA","lat":-34.86059622921174,"lng":-56.18595029957392,"code":"3657"},{"seq":30,"id":"3658","name":"AV BURGUES esq. DR PABLO EHRLICH","lat":-34.8589396241999,"lng":-56.184972036402996,"code":"3658"},{"seq":31,"id":"6015","name":"AV BURGUES esq. HUASCAR","lat":-34.85731469525548,"lng":-56.184273420169944,"code":"6015"},{"seq":32,"id":"3659","name":"AV BURGUES esq. GRAL MARIANO DE ACHA","lat":-34.854827590684344,"lng":-56.18301812846301,"code":"3659"},{"seq":33,"id":"3614","name":"MAXIMO GOMEZ esq. GREGORIO SANABRIA","lat":-34.85421769307534,"lng":-56.185441873578526,"code":"3614"},{"seq":34,"id":"3615","name":"MAXIMO GOMEZ esq. VAIMACA","lat":-34.853751472263575,"lng":-56.18788568874478,"code":"3615"},{"seq":35,"id":"6013","name":"ANDRES SPIKERMAN esq. CELEDONIO ROJAS","lat":-34.85179841015975,"lng":-56.18721517748837,"code":"6013"},{"seq":36,"id":"3616","name":"ANDRES SPIKERMAN esq. BV JOSE BATLLE Y ORDOÑEZ","lat":-34.85043783935396,"lng":-56.185812012758184,"code":"3616"},{"seq":37,"id":"4940","name":"BV JOSE BATLLE Y ORDOÑEZ esq. ARECHAVALETA","lat":-34.84855841303355,"lng":-56.18728676797135,"code":"4940"},{"seq":38,"id":"4941","name":"BV JOSE BATLLE Y ORDOÑEZ esq. RBLA DR JOSE PEDRO CARDOSO","lat":-34.84594797876763,"lng":-56.18982971636757,"code":"4941"},{"seq":39,"id":"4942","name":"BV JOSE BATLLE Y ORDOÑEZ esq. DR ALBERTO ZUBIRIA","lat":-34.8436454046678,"lng":-56.19253244202069,"code":"4942"},{"seq":40,"id":"4943","name":"BV JOSE BATLLE Y ORDOÑEZ esq. GAMBETTA","lat":-34.84247627413973,"lng":-56.19458756035078,"code":"4943"},{"seq":41,"id":"4944","name":"BV JOSE BATLLE Y ORDOÑEZ esq. VICTOR HUGO","lat":-34.84133505505212,"lng":-56.19648528531737,"code":"4944"},{"seq":42,"id":"1762","name":"AV DE LAS INSTRUCCIONES esq. CNO GRAL MAXIMO SANTOS","lat":-34.839025874237144,"lng":-56.19507548041137,"code":"1762"},{"seq":43,"id":"1763","name":"AV DE LAS INSTRUCCIONES esq. DR JOSE MARIA SILVA","lat":-34.83751473627087,"lng":-56.19359790384903,"code":"1763"},{"seq":44,"id":"1764","name":"AV DE LAS INSTRUCCIONES esq. CNO EDISON","lat":-34.836308045424936,"lng":-56.19235145566927,"code":"1764"},{"seq":45,"id":"1765","name":"AV DE LAS INSTRUCCIONES esq. BV APARICIO SARAVIA","lat":-34.83405232611858,"lng":-56.19006266369703,"code":"1765"},{"seq":46,"id":"1766","name":"BV APARICIO SARAVIA esq. JULIO J CASAL","lat":-34.83225026233487,"lng":-56.192123274907225,"code":"1766"},{"seq":47,"id":"1767","name":"BV APARICIO SARAVIA esq. BALTIMORE","lat":-34.83107012253403,"lng":-56.19400914087273,"code":"1767"},{"seq":48,"id":"1768","name":"BV APARICIO SARAVIA esq. CINCINNATI","lat":-34.830210642892965,"lng":-56.19553336680907,"code":"1768"},{"seq":49,"id":"1769","name":"BV APARICIO SARAVIA esq. DANTE ALIGHIERI","lat":-34.82844475608034,"lng":-56.19848488773603,"code":"1769"},{"seq":50,"id":"1770","name":"BV APARICIO SARAVIA esq. CNO CORONEL RAIZ","lat":-34.827205075601626,"lng":-56.200400055531034,"code":"1770"},{"seq":51,"id":"1715","name":"CNO CORONEL RAIZ esq. CNO CASAVALLE","lat":-34.82468623030895,"lng":-56.200356550090866,"code":"1715"},{"seq":52,"id":"1716","name":"CNO CORONEL RAIZ esq. SENEN RODRIGUEZ","lat":-34.822454671828396,"lng":-56.20016222221774,"code":"1716"},{"seq":53,"id":"1717","name":"CNO CORONEL RAIZ esq. HUDSON","lat":-34.82050907002271,"lng":-56.19928143842745,"code":"1717"},{"seq":54,"id":"4324","name":"CNO CORONEL RAIZ esq. ING ALBERTO CAUBARRERE","lat":-34.819351397491104,"lng":-56.198365227373706,"code":"4324"},{"seq":55,"id":"1718","name":"CNO CORONEL RAIZ esq. BESNES E IRIGOYEN","lat":-34.818176138003885,"lng":-56.197492359046706,"code":"1718"},{"seq":56,"id":"5134","name":"CNO CORONEL RAIZ esq. CNO JOSE DURAN","lat":-34.81677059895926,"lng":-56.196343640469635,"code":"5134"},{"seq":57,"id":"1719","name":"CNO CORONEL RAIZ esq. SBRE 6601","lat":-34.81390226224499,"lng":-56.19409592281371,"code":"1719"},{"seq":58,"id":"1720","name":"CNO CORONEL RAIZ esq. CNO COLMAN","lat":-34.81177328790504,"lng":-56.19257800851484,"code":"1720"},{"seq":59,"id":"1773","name":"CNO COLMAN esq. CNO CORONEL RAIZ","lat":-34.81085127928851,"lng":-56.19370831460094,"code":"1773"},{"seq":60,"id":"1774","name":"CNO CORONEL RAIZ esq. CNO CARLOS A LOPEZ","lat":-34.80894489063223,"lng":-56.19006109736714,"code":"1774"},{"seq":61,"id":"1775","name":"CNO CORONEL RAIZ esq. CNO CARLOS A LOPEZ","lat":-34.80620497886602,"lng":-56.1882171700221,"code":"1775"},{"seq":62,"id":"1777","name":"CNO CORONEL RAIZ esq. CNO AL PASO DE LA CRUZ","lat":-34.805120839459306,"lng":-56.18745938263155,"code":"1777"},{"seq":63,"id":"1779","name":"CNO CORONEL RAIZ esq. CNO AL PASO DE LA CRUZ","lat":-34.803403957096016,"lng":-56.18739064037507,"code":"1779"},{"seq":64,"id":"1781","name":"CNO CORONEL RAIZ esq. CNO AL PASO DE LA CRUZ","lat":-34.8022556759558,"lng":-56.1900647625617,"code":"1781"},{"seq":65,"id":"6439","name":"CNO CORONEL RAIZ esq. CNO AL PASO DE LA CRUZ","lat":-34.799920048340006,"lng":-56.19271405513247,"code":"6439"},{"seq":66,"id":"1784","name":"CNO CORONEL RAIZ esq. CNO VARZI","lat":-34.796057757887205,"lng":-56.195353974334246,"code":"1784"},{"seq":67,"id":"1786","name":"CNO CORONEL RAIZ esq. CNO OSVALDO RODRIGUEZ","lat":-34.79166597442158,"lng":-56.19693874199638,"code":"1786"},{"seq":68,"id":"5831","name":"CNO OSVALDO RODRIGUEZ esq. CNO CORONEL RAIZ","lat":-34.790073068586466,"lng":-56.19980260770973,"code":"5831"},{"seq":69,"id":"5828","name":"CNO OSVALDO RODRIGUEZ esq. CNO CORONEL RAIZ","lat":-34.787781233789325,"lng":-56.20400568587313,"code":"5828"},{"seq":70,"id":"1788","name":"CNO OSVALDO RODRIGUEZ esq. BERNARDO ETCHEVARNE","lat":-34.78506631489594,"lng":-56.208818356075824,"code":"1788"},{"seq":71,"id":"1789","name":"CNO OSVALDO RODRIGUEZ esq. CNO AL PASO CALPINO","lat":-34.78340524845272,"lng":-56.21210450743947,"code":"1789"},{"seq":72,"id":"1790","name":"CNO OSVALDO RODRIGUEZ esq. CNO AL PASO CALPINO","lat":-34.781930024965625,"lng":-56.21491230966445,"code":"1790"},{"seq":73,"id":"1791","name":"CNO OSVALDO RODRIGUEZ esq. CNO AL PASO CALPINO","lat":-34.78064206953095,"lng":-56.21723710534109,"code":"1791"},{"seq":74,"id":"1793","name":"CNO OSVALDO RODRIGUEZ esq. CNO AL PASO CALPINO","lat":-34.77912172610023,"lng":-56.21997918728809,"code":"1793"},{"seq":75,"id":"1795","name":"CNO AL PASO CALPINO esq. DR VICTOR ARMAND UGON","lat":-34.777197632085596,"lng":-56.21910989063384,"code":"1795"},{"seq":76,"id":"5824","name":"CNO AL PASO CALPINO esq. CNO VILLARON","lat":-34.775435156028344,"lng":-56.21956059862737,"code":"5824"},{"seq":77,"id":"6402","name":"CNO A LA CUCHILLA PEREIRA esq. ABREVADERO","lat":-34.77292356029026,"lng":-56.21976293161818,"code":"6402"},{"seq":78,"id":"1798","name":"CNO A LA CUCHILLA PEREIRA esq. CNO DE LA JUSTICIA","lat":-34.76976727667794,"lng":-56.21834182136905,"code":"1798"},{"seq":79,"id":"1800","name":"CNO A LA CUCHILLA PEREIRA esq. CNO DE LA PAZ A MENDOZA","lat":-34.76649925984957,"lng":-56.21556488682893,"code":"1800"},{"seq":80,"id":"4172","name":"CNO PASO CALPINO esq. MERCURIO","lat":-34.76448617193204,"lng":-56.21459335752036,"code":"4172"},{"seq":81,"id":"4174","name":"CNO PASO CALPINO esq. CNO TALICE","lat":-34.76309932037963,"lng":-56.213727954401,"code":"4174"},{"seq":82,"id":"4176","name":"CNO PASO CALPINO esq. CNO RIGEL","lat":-34.75867083850036,"lng":-56.21401177629328,"code":"4176"},{"seq":83,"id":"4711","name":"CNO PASO CALPINO esq. CNO RUSSI","lat":-34.75538276617278,"lng":-56.214459161035364,"code":"4711"},{"seq":84,"id":"4178","name":"CNO PASO CALPINO esq. CNO RUSSI","lat":-34.75288445819973,"lng":-56.21454278034851,"code":"4178"},{"seq":85,"id":"4180","name":"CNO PASO CALPINO esq. CNO OSIRIS RODRIGUEZ CASTILLOS","lat":-34.74976828358282,"lng":-56.21417920849327,"code":"4180"},{"seq":86,"id":"5366","name":"JULIO SOSA esq. CALLE FICTICIA","lat":-34.74783766086559,"lng":-56.21500228347066,"code":"5366"},{"seq":87,"id":"5367","name":"JULIO SOSA esq. CARMELO","lat":-34.74614522400099,"lng":-56.21534302306081,"code":"5367"},{"seq":88,"id":"5368","name":"JULIO SOSA esq. PASO DE LOS TOROS","lat":-34.74382047777583,"lng":-56.21561481818225,"code":"5368"},{"seq":89,"id":"5369","name":"JULIO SOSA esq. PILARICA","lat":-34.74218382882133,"lng":-56.21575078328414,"code":"5369"}]}