{"0":[{"seq":1,"id":"5238","name":"CNO LUIS EDUARDO PEREZ esq. LAS PITAS","lat":-34.81801212121297,"lng":-56.26817868001982,"code":"5238"},{"seq":2,"id":"6578","name":"AV IDEARIO ARTIGUISTA esq. CALLE E","lat":-34.819013232543256,"lng":-56.27303873223938,"code":"6578"},{"seq":3,"id":"5658","name":"AV IDEARIO ARTIGUISTA esq. PSJE LINCOLN PRESNO","lat":-34.81947185854439,"lng":-56.27510970765182,"code":"5658"},{"seq":4,"id":"6720","name":"AV IDEARIO ARTIGUISTA esq. VIOLETA AMORETTI","lat":-34.81990364807055,"lng":-56.27677732348395,"code":"6720"},{"seq":5,"id":"4145","name":"AV IDEARIO ARTIGUISTA esq. LA CARRETA","lat":-34.82064071052957,"lng":-56.27905410650268,"code":"4145"},{"seq":6,"id":"6980","name":"AV IDEARIO ARTIGUISTA esq. LIGA FEDERAL","lat":-34.82119755963186,"lng":-56.28142345487757,"code":"6980"},{"seq":7,"id":"4143","name":"AV IDEARIO ARTIGUISTA esq. LIGA FEDERAL","lat":-34.82170109915463,"lng":-56.2832714224324,"code":"4143"},{"seq":8,"id":"4142","name":"AV IDEARIO ARTIGUISTA esq. ZANJA REYUNA","lat":-34.82235774388101,"lng":-56.28602072838878,"code":"4142"},{"seq":9,"id":"5015","name":"AV IDEARIO ARTIGUISTA esq. ZANJA REYUNA","lat":-34.8227096309995,"lng":-56.28743739109482,"code":"5015"},{"seq":10,"id":"5016","name":"AV IDEARIO ARTIGUISTA esq. ZANJA REYUNA","lat":-34.823622420372104,"lng":-56.2906552001183,"code":"5016"},{"seq":11,"id":"6129","name":"AV IDEARIO ARTIGUISTA esq. CNO CAMPAMENTOS ORIENTALES","lat":-34.82423965852855,"lng":-56.29294802151725,"code":"6129"},{"seq":12,"id":"4139","name":"AV IDEARIO ARTIGUISTA esq. CNO DEL TAPIR","lat":-34.82488609493707,"lng":-56.29526274552404,"code":"4139"},{"seq":13,"id":"4127","name":"AV LUIS BATLLE BERRES esq. ZANJA REYUNA","lat":-34.82722744793422,"lng":-56.29152665123479,"code":"4127"},{"seq":14,"id":"4129","name":"AV LUIS BATLLE BERRES esq. CNO SOSA","lat":-34.829337634762766,"lng":-56.287178366496946,"code":"4129"},{"seq":15,"id":"4131","name":"AV LUIS BATLLE BERRES esq. CALLE 6575","lat":-34.83093668023151,"lng":-56.283901407242716,"code":"4131"},{"seq":16,"id":"5043","name":"AV LUIS BATLLE BERRES esq. LAS ARTES","lat":-34.832279614141584,"lng":-56.2811196588032,"code":"5043"},{"seq":17,"id":"4134","name":"AV LUIS BATLLE BERRES esq. ANATOLE FRANCE","lat":-34.833997945729394,"lng":-56.277499659850704,"code":"4134"},{"seq":18,"id":"4135","name":"AV LUIS BATLLE BERRES esq. ING CARLOS A AROCENA","lat":-34.834932390272506,"lng":-56.27557785851192,"code":"4135"},{"seq":19,"id":"4136","name":"AV LUIS BATLLE BERRES esq. CNO TOMKINSON","lat":-34.83621012430118,"lng":-56.272781531868425,"code":"4136"},{"seq":20,"id":"868","name":"AV LUIS BATLLE BERRES esq. CAP MANUEL ARTIGAS","lat":-34.83738980068858,"lng":-56.26842595994399,"code":"868"},{"seq":21,"id":"869","name":"AV LUIS BATLLE BERRES esq. MARTIN ARTIGAS","lat":-34.83783934981959,"lng":-56.26669552590408,"code":"869"},{"seq":22,"id":"883","name":"EDUARDO PAZ AGUIRRE esq. AV LUIS BATLLE BERRES","lat":-34.83797808079163,"lng":-56.26313951589166,"code":"883"},{"seq":23,"id":"878","name":"EDUARDO PAZ AGUIRRE esq. ABREVADERO","lat":-34.83753788768654,"lng":-56.26144580266473,"code":"878"},{"seq":24,"id":"879","name":"EDUARDO PAZ AGUIRRE esq. CARLOS DE LA VEGA","lat":-34.83694716723134,"lng":-56.2590660054665,"code":"879"},{"seq":25,"id":"880","name":"EDUARDO PAZ AGUIRRE esq. JULIAN LAGUNA","lat":-34.83624666451857,"lng":-56.256703929847134,"code":"880"},{"seq":26,"id":"903","name":"SANTA LUCIA esq. ACCESO RUTA 5 SANTA LUCIA","lat":-34.83694677393281,"lng":-56.25193823663688,"code":"903"},{"seq":27,"id":"5949","name":"JOSE LLUPES esq. TUCUMAN","lat":-34.838718597547214,"lng":-56.25077996721263,"code":"5949"},{"seq":28,"id":"5969","name":"JOSE LLUPES esq. PARAGUARY","lat":-34.83992073205946,"lng":-56.24873130334708,"code":"5969"},{"seq":29,"id":"5950","name":"ANAGUALPO esq. JOSE LLUPES","lat":-34.84106032897173,"lng":-56.246704857272604,"code":"5950"},{"seq":30,"id":"5951","name":"JOSE LLUPES esq. YUGOESLAVIA","lat":-34.842814969751274,"lng":-56.243576480658774,"code":"5951"},{"seq":31,"id":"1319","name":"YUGOESLAVIA esq. CARLOS DE LA VEGA","lat":-34.84464557937138,"lng":-56.245104053911355,"code":"1319"},{"seq":32,"id":"1342","name":"CARLOS DE LA VEGA esq. TURUBI","lat":-34.84596683061431,"lng":-56.24342126623566,"code":"1342"},{"seq":33,"id":"1343","name":"CARLOS DE LA VEGA esq. CORDOBES","lat":-34.8470115021387,"lng":-56.24155979287494,"code":"1343"},{"seq":34,"id":"1344","name":"CARLOS DE LA VEGA esq. CAÑAS","lat":-34.84783949153909,"lng":-56.24007412958131,"code":"1344"},{"seq":35,"id":"1345","name":"CARLOS DE LA VEGA esq. FERREIRA Y ARTIGAS","lat":-34.84912678526015,"lng":-56.237776397629105,"code":"1345"},{"seq":36,"id":"1346","name":"CARLOS DE LA VEGA esq. CAMPICHUELO","lat":-34.84980972913408,"lng":-56.236544265630684,"code":"1346"},{"seq":37,"id":"6044","name":"CARLOS DE LA VEGA esq. RODOLFO RINCON","lat":-34.85086313702687,"lng":-56.234696883119845,"code":"6044"},{"seq":38,"id":"4309","name":"CARLOS DE LA VEGA esq. ADOLFO VAILLANT","lat":-34.85215451464138,"lng":-56.232344970312944,"code":"4309"},{"seq":39,"id":"1347","name":"CARLOS DE LA VEGA esq. GREGORIO CAMINO","lat":-34.853317922238624,"lng":-56.23020501938855,"code":"1347"},{"seq":40,"id":"1348","name":"CARLOS DE LA VEGA esq. INCLUSA","lat":-34.85440418592021,"lng":-56.228181680453474,"code":"1348"},{"seq":41,"id":"4749","name":"DR VICENTE BASAGOITY esq. JOSE MARMOL","lat":-34.85582577117938,"lng":-56.227641725426864,"code":"4749"},{"seq":42,"id":"1349","name":"DR VICENTE BASAGOITY esq. AV CARLOS MARIA RAMIREZ","lat":-34.857015435382394,"lng":-56.22539538505875,"code":"1349"},{"seq":43,"id":"1293","name":"AV CARLOS MARIA RAMIREZ esq. BELVEDERE","lat":-34.855752487211376,"lng":-56.22325673633675,"code":"1293"},{"seq":44,"id":"1568","name":"AV AGRACIADA esq. JOSE B FREIRE","lat":-34.856091460818575,"lng":-56.220543735711516,"code":"1568"},{"seq":45,"id":"1569","name":"AV AGRACIADA esq. JUAN ANTONIO ARTIGAS","lat":-34.857792380402444,"lng":-56.2184672267529,"code":"1569"},{"seq":46,"id":"4912","name":"AV AGRACIADA esq. AV ARQ JUAN P TERRA","lat":-34.862228718341576,"lng":-56.21223992378567,"code":"4912"},{"seq":47,"id":"4213","name":"AV AGRACIADA esq. VALENTIN GOMEZ","lat":-34.864243184164664,"lng":-56.21014592695116,"code":"4213"},{"seq":48,"id":"1571","name":"AV AGRACIADA esq. ENRIQUE TURINI","lat":-34.86600630462336,"lng":-56.20875481263234,"code":"1571"},{"seq":49,"id":"1572","name":"AV AGRACIADA esq. CAPURRO","lat":-34.867653589020016,"lng":-56.20690834602407,"code":"1572"},{"seq":50,"id":"1573","name":"AV AGRACIADA esq. HERMANOS GIL","lat":-34.87038931543353,"lng":-56.20401810860312,"code":"1573"},{"seq":51,"id":"1574","name":"AV AGRACIADA esq. LARROBLA","lat":-34.87140512430482,"lng":-56.20298045302651,"code":"1574"},{"seq":52,"id":"1575","name":"AV AGRACIADA esq. JOSE NASAZZI","lat":-34.87323308793604,"lng":-56.20152126751111,"code":"1575"},{"seq":53,"id":"3733","name":"AV AGRACIADA esq. CAP MANUEL ANTONIO ARTIGAS","lat":-34.87494383162382,"lng":-56.2001682498744,"code":"3733"},{"seq":54,"id":"3734","name":"AV AGRACIADA esq. DR EVARISTO CIGANDA","lat":-34.876577355578085,"lng":-56.19793249614579,"code":"3734"},{"seq":55,"id":"3735","name":"AV AGRACIADA esq. DR SALVADOR GARCIA PINTOS","lat":-34.87908312480839,"lng":-56.19619126474365,"code":"3735"},{"seq":56,"id":"563","name":"PARAGUAY esq. SANTA FE","lat":-34.88291005344947,"lng":-56.19498608707918,"code":"563"},{"seq":57,"id":"564","name":"PARAGUAY esq. GRAL FAUSTO AGUILAR","lat":-34.88467932986444,"lng":-56.19476994201156,"code":"564"},{"seq":58,"id":"565","name":"PARAGUAY esq. GRAL PACHECO","lat":-34.88656189316725,"lng":-56.194582146354215,"code":"565"},{"seq":59,"id":"4578","name":"PARAGUAY esq. GRAL CESAR DIAZ","lat":-34.88952288120733,"lng":-56.19429039376007,"code":"4578"},{"seq":60,"id":"566","name":"PARAGUAY esq. GUATEMALA","lat":-34.89213620014495,"lng":-56.19399472759762,"code":"566"},{"seq":61,"id":"3924","name":"PARAGUAY esq. NICARAGUA","lat":-34.89379840681412,"lng":-56.19383126303531,"code":"3924"},{"seq":62,"id":"570","name":"PARAGUAY esq. NUEVA YORK","lat":-34.896909905039806,"lng":-56.19348221101063,"code":"570"},{"seq":63,"id":"3925","name":"PARAGUAY esq. LA PAZ","lat":-34.899148764425064,"lng":-56.193262907711244,"code":"3925"},{"seq":64,"id":"4580","name":"PARAGUAY esq. PAYSANDU","lat":-34.902021362889556,"lng":-56.19297880451833,"code":"4580"},{"seq":65,"id":"3846","name":"AV LIB BRIG GRAL LAVALLEJA esq. RIO NEGRO","lat":-34.903787806275204,"lng":-56.19351244402751,"code":"3846"},{"seq":66,"id":"4600","name":"RIO NEGRO esq. AV 18 DE JULIO","lat":-34.90587276723119,"lng":-56.1936807989345,"code":"4600"},{"seq":67,"id":"577","name":"SAN JOSE esq. HECTOR GUTIERREZ RUIZ","lat":-34.906916984502736,"lng":-56.191511440167034,"code":"577"},{"seq":68,"id":"579","name":"SAN JOSE esq. DR AQUILES R LANZA","lat":-34.90665488002691,"lng":-56.188135832767166,"code":"579"},{"seq":69,"id":"3915","name":"CONSTITUYENTE esq. Q F ANDRES MARTINEZ TRUEBA","lat":-34.90578371828748,"lng":-56.1838944242571,"code":"3915"},{"seq":70,"id":"3916","name":"CONSTITUYENTE esq. TACUAREMBO","lat":-34.90598475396528,"lng":-56.18190087527458,"code":"3916"},{"seq":71,"id":"3857","name":"JOSE ENRIQUE RODO esq. MAGALLANES","lat":-34.90524643358369,"lng":-56.178761421739274,"code":"3857"},{"seq":72,"id":"3858","name":"JOSE ENRIQUE RODO esq. EDUARDO ACEVEDO","lat":-34.90402802362052,"lng":-56.17559368464075,"code":"3858"},{"seq":73,"id":"4002","name":"JOSE ENRIQUE RODO esq. DR PABLO DE MARIA","lat":-34.90343488053395,"lng":-56.171807647708874,"code":"4002"},{"seq":74,"id":"4087","name":"JOSE ENRIQUE RODO esq. DR JOAQUIN REQUENA","lat":-34.903259624997354,"lng":-56.16948600357515,"code":"4087"},{"seq":75,"id":"4003","name":"JOSE ENRIQUE RODO esq. ACEVEDO DIAZ","lat":-34.90307837002189,"lng":-56.166849941038826,"code":"4003"},{"seq":76,"id":"2112","name":"BV GRAL ARTIGAS esq. CHANA","lat":-34.90399509395529,"lng":-56.16411515019811,"code":"2112"},{"seq":77,"id":"2113","name":"BV GRAL ARTIGAS esq. CANELONES","lat":-34.90647972098986,"lng":-56.16383565971896,"code":"2113"},{"seq":78,"id":"2055","name":"BV GRAL ARTIGAS esq. EDIL HUGO PRATO","lat":-34.90924014540296,"lng":-56.16352478198571,"code":"2055"},{"seq":79,"id":"4855","name":"BV ESPAÑA esq. OBLIGADO","lat":-34.91192146857489,"lng":-56.160658164255324,"code":"4855"},{"seq":80,"id":"3966","name":"BV ESPAÑA esq. DR ENRIQUE MUÑOZ","lat":-34.91279529102902,"lng":-56.157844123148756,"code":"3966"},{"seq":81,"id":"3967","name":"BV ESPAÑA esq. AV SARMIENTO","lat":-34.913884304914724,"lng":-56.15441388561559,"code":"3967"},{"seq":82,"id":"4098","name":"BV ESPAÑA esq. ROQUE GRASERAS","lat":-34.91481152162435,"lng":-56.1508017422415,"code":"4098"},{"seq":83,"id":"3949","name":"JUAN BENITO BLANCO esq. JOSE MARTI","lat":-34.91331286515487,"lng":-56.1485095991571,"code":"3949"},{"seq":84,"id":"3950","name":"JUAN BENITO BLANCO esq. GUAYAQUI","lat":-34.91202883507486,"lng":-56.14711823997253,"code":"3950"},{"seq":85,"id":"3951","name":"JUAN BENITO BLANCO esq. MANUEL V PAGOLA","lat":-34.91028906890789,"lng":-56.144557142331486,"code":"3951"},{"seq":86,"id":"3952","name":"JUAN BENITO BLANCO esq. FELIX BUXAREO","lat":-34.90923060653747,"lng":-56.14297094547107,"code":"3952"},{"seq":87,"id":"3953","name":"BV 26 DE MARZO esq. MARCO BRUTO","lat":-34.906210074464134,"lng":-56.138601959933666,"code":"3953"},{"seq":88,"id":"3419","name":"AV DR LUIS ALBERTO DE HERRERA esq. CR LUIS E LECUEDER","lat":-34.90395628939104,"lng":-56.1373899322753,"code":"3419"},{"seq":89,"id":"3429","name":"TTE GRAL PABLO GALARZA esq. MAGARIÑOS CERVANTES","lat":-34.90203046018539,"lng":-56.13700773490121,"code":"3429"},{"seq":90,"id":"3423","name":"MIGUEL GRAU esq. MELITON GONZALEZ","lat":-34.90312322872281,"lng":-56.13212377509389,"code":"3423"},{"seq":91,"id":"3424","name":"NICOLAS PIAGGIO esq. SALDANHA DA GAMA","lat":-34.902482359787946,"lng":-56.13030014777207,"code":"3424"},{"seq":92,"id":"3426","name":"SALDANHA DA GAMA esq. PSJE OSVALDO GIORDANI","lat":-34.90281416203904,"lng":-56.12715585328076,"code":"3426"},{"seq":93,"id":"2978","name":"AV GRAL RIVERA esq. AV TOMAS BASAÑEZ","lat":-34.89949060923523,"lng":-56.12839603776521,"code":"2978"},{"seq":94,"id":"2979","name":"AV GRAL RIVERA esq. BV JOSE BATLLE Y ORDOÑEZ","lat":-34.89763456006381,"lng":-56.1249399770868,"code":"2979"},{"seq":95,"id":"2980","name":"AV GRAL RIVERA esq. AV MCAL FRANCISCO SOLANO LOPEZ","lat":-34.89608123833262,"lng":-56.121975763689704,"code":"2980"},{"seq":96,"id":"2981","name":"AV GRAL RIVERA esq. ASTURIAS","lat":-34.89478199128189,"lng":-56.11939005357218,"code":"2981"},{"seq":97,"id":"2982","name":"AV GRAL RIVERA esq. AV COLOMBES","lat":-34.89334855923533,"lng":-56.11616081820508,"code":"2982"},{"seq":98,"id":"2983","name":"AV GRAL RIVERA esq. ATLANTICO","lat":-34.891724210875815,"lng":-56.11248462050081,"code":"2983"},{"seq":99,"id":"3416","name":"CANDELARIA esq. AV GRAL RIVERA","lat":-34.8916661633362,"lng":-56.10997713919784,"code":"3416"},{"seq":100,"id":"3417","name":"VERDI esq. VELSEN","lat":-34.89281263403417,"lng":-56.11006265703788,"code":"3417"},{"seq":101,"id":"3010","name":"HIPOLITO YRIGOYEN esq. AV GRAL RIVERA","lat":-34.891466373316426,"lng":-56.108793962131955,"code":"3010"},{"seq":102,"id":"3011","name":"HIPOLITO YRIGOYEN esq. AV ESTANISLAO LOPEZ","lat":-34.8885470550027,"lng":-56.10970150092171,"code":"3011"},{"seq":103,"id":"4839","name":"HIPOLITO YRIGOYEN esq. OVIEDO","lat":-34.88733564383804,"lng":-56.11000280848157,"code":"4839"},{"seq":104,"id":"2913","name":"HIPOLITO YRIGOYEN esq. JULIO SOSA","lat":-34.88561537108714,"lng":-56.11055977113019,"code":"2913"},{"seq":105,"id":"4840","name":"HIPOLITO YRIGOYEN esq. GODOY","lat":-34.88274504308894,"lng":-56.111346934088075,"code":"4840"},{"seq":106,"id":"4893","name":"HIPOLITO YRIGOYEN esq. IGUA","lat":-34.88133956360484,"lng":-56.111452144525614,"code":"4893"},{"seq":107,"id":"2904","name":"IGUA esq. CAP LUIS DUARTE","lat":-34.87968694523215,"lng":-56.108712752343905,"code":"2904"},{"seq":108,"id":"2903","name":"IGUA esq. DR ALEJANDRO GALLINAL","lat":-34.877905543395585,"lng":-56.10543356539923,"code":"2903"},{"seq":109,"id":"2946","name":"DR ALEJANDRO GALLINAL esq. PITAGORAS","lat":-34.87977028094041,"lng":-56.103704800730746,"code":"2946"},{"seq":110,"id":"2942","name":"ALBERTO ZUM FELDE esq. PRUDENCIO MURGUIONDO","lat":-34.878292087612216,"lng":-56.10084832763216,"code":"2942"},{"seq":111,"id":"2943","name":"ALBERTO ZUM FELDE esq. OFICIAL 17 MTS","lat":-34.87623922529962,"lng":-56.10251542093559,"code":"2943"},{"seq":112,"id":"2944","name":"ALBERTO ZUM FELDE esq. FLAMMARION","lat":-34.874942531369754,"lng":-56.103575638593725,"code":"2944"},{"seq":113,"id":"2934","name":"FLAMMARION esq. DR ALEJANDRO GALLINAL","lat":-34.875848052962745,"lng":-56.10645503486834,"code":"2934"},{"seq":114,"id":"2930","name":"DR ALEJANDRO GALLINAL esq. LUIS CLUZEAU MORTET","lat":-34.87406686780457,"lng":-56.10827389775263,"code":"2930"},{"seq":115,"id":"2931","name":"DR ALEJANDRO GALLINAL esq. DR JOSE A DE FREITAS","lat":-34.87216733776879,"lng":-56.10981116268959,"code":"2931"},{"seq":116,"id":"2932","name":"DR ALEJANDRO GALLINAL esq. CNO CARRASCO","lat":-34.87055302962211,"lng":-56.11112636315946,"code":"2932"},{"seq":117,"id":"2794","name":"CNO CARRASCO esq. PEDRO COSIO","lat":-34.87023411320248,"lng":-56.11006382154808,"code":"2794"},{"seq":118,"id":"4313","name":"CNO CARRASCO esq. ALBERTO ZUM FELDE","lat":-34.870441905148446,"lng":-56.1065493395563,"code":"4313"},{"seq":119,"id":"5197","name":"CNO CARRASCO esq. ANA MARIA RUBENS","lat":-34.87121363077576,"lng":-56.10423177186062,"code":"5197"},{"seq":120,"id":"2795","name":"CNO CARRASCO esq. CNO ONCATIVO","lat":-34.871977478893676,"lng":-56.10105440054849,"code":"2795"},{"seq":121,"id":"2796","name":"CNO CARRASCO esq. AV BOLIVIA","lat":-34.87242505868203,"lng":-56.097693020859644,"code":"2796"},{"seq":122,"id":"2947","name":"AV BOLIVIA esq. CIRC INT CALLE 1","lat":-34.87342861752248,"lng":-56.094885281048015,"code":"2947"},{"seq":123,"id":"2948","name":"AV BOLIVIA esq. DR ELIAS REGULES","lat":-34.87520064157675,"lng":-56.091979619240526,"code":"2948"},{"seq":124,"id":"2949","name":"AV BOLIVIA esq. VERONA","lat":-34.87698773796738,"lng":-56.08912997199404,"code":"2949"},{"seq":125,"id":"2950","name":"AV BOLIVIA esq. VILLA DE MASNOU","lat":-34.878836693811145,"lng":-56.08618926817431,"code":"2950"},{"seq":126,"id":"2951","name":"AV BOLIVIA esq. GUILLERMO ARROSPIDE","lat":-34.8805485947074,"lng":-56.08457107629153,"code":"2951"},{"seq":127,"id":"5386","name":"MESSINA esq. AV BOLIVIA","lat":-34.88198987987213,"lng":-56.083965829362796,"code":"5386"}],"1":[{"seq":1,"id":"4836","name":"AV DRA MA LUISA SALDUN DE RODRIGUEZ esq. AV BOLIVIA","lat":-34.88181683901149,"lng":-56.08330093239711,"code":"4836"},{"seq":2,"id":"2953","name":"AV BOLIVIA esq. JOSE ORDEIG","lat":-34.87904491147755,"lng":-56.08574300066822,"code":"2953"},{"seq":3,"id":"2954","name":"AV BOLIVIA esq. VERONA","lat":-34.87714045991454,"lng":-56.08875820810445,"code":"2954"},{"seq":4,"id":"2955","name":"AV BOLIVIA esq. DR ELIAS REGULES","lat":-34.87537684697229,"lng":-56.0914997891282,"code":"2955"},{"seq":5,"id":"2956","name":"AV BOLIVIA esq. CIRC INT CALLE 1","lat":-34.87371286115263,"lng":-56.09413289546742,"code":"2956"},{"seq":6,"id":"2957","name":"AV BOLIVIA esq. MANUEL TECHERA","lat":-34.87292741077339,"lng":-56.09578357725344,"code":"2957"},{"seq":7,"id":"2816","name":"CNO CARRASCO esq. CNO ONCATIVO","lat":-34.87200352376785,"lng":-56.100368272726016,"code":"2816"},{"seq":8,"id":"2817","name":"CNO CARRASCO esq. LUGO","lat":-34.87116391984084,"lng":-56.10409544703362,"code":"2817"},{"seq":9,"id":"2818","name":"CNO CARRASCO esq. ALBERTO ZUM FELDE","lat":-34.870210697369615,"lng":-56.1067790138637,"code":"2818"},{"seq":10,"id":"4745","name":"PEDRO COSIO esq. CNO CARRASCO","lat":-34.871154563720054,"lng":-56.10864694880027,"code":"4745"},{"seq":11,"id":"4746","name":"PEDRO COSIO esq. LUIS CLUZEAU MORTET","lat":-34.873460059698374,"lng":-56.10678800688064,"code":"4746"},{"seq":12,"id":"4747","name":"PEDRO COSIO esq. FLAMMARION","lat":-34.874901742922574,"lng":-56.10560859215412,"code":"4747"},{"seq":13,"id":"2933","name":"FLAMMARION esq. ALBERTO ZUM FELDE","lat":-34.87480430462924,"lng":-56.10445339126525,"code":"2933"},{"seq":14,"id":"2935","name":"ALBERTO ZUM FELDE esq. OFICIAL 17 MTS","lat":-34.87576052281054,"lng":-56.10298546741223,"code":"2935"},{"seq":15,"id":"2936","name":"ALBERTO ZUM FELDE esq. PITAGORAS","lat":-34.87889292776321,"lng":-56.10043115121442,"code":"2936"},{"seq":16,"id":"2945","name":"PITAGORAS esq. DR ALEJANDRO GALLINAL","lat":-34.88038808199448,"lng":-56.102892782438325,"code":"2945"},{"seq":17,"id":"4222","name":"DR ALEJANDRO GALLINAL esq. IGUA","lat":-34.878131488346575,"lng":-56.10492284667621,"code":"4222"},{"seq":18,"id":"5053","name":"IGUA esq. CAP LUIS DUARTE","lat":-34.8795146467593,"lng":-56.10867816002687,"code":"5053"},{"seq":19,"id":"2905","name":"IGUA esq. HIPOLITO YRIGOYEN","lat":-34.88083967276558,"lng":-56.111245966841686,"code":"2905"},{"seq":20,"id":"2914","name":"HIPOLITO YRIGOYEN esq. GODOY","lat":-34.882353954383966,"lng":-56.111615944655405,"code":"2914"},{"seq":21,"id":"2912","name":"HIPOLITO YRIGOYEN esq. AV ITALIA","lat":-34.886399363391426,"lng":-56.11046295138317,"code":"2912"},{"seq":22,"id":"3414","name":"CANDELARIA esq. AV ESTANISLAO LOPEZ","lat":-34.88826833980701,"lng":-56.11089988668965,"code":"3414"},{"seq":23,"id":"3415","name":"CANDELARIA esq. ASAMBLEA","lat":-34.89010894043318,"lng":-56.11079347625769,"code":"3415"},{"seq":24,"id":"3012","name":"AV GRAL RIVERA esq. ATLANTICO","lat":-34.89149134724971,"lng":-56.1119974966865,"code":"3012"},{"seq":25,"id":"3013","name":"AV GRAL RIVERA esq. AV COLOMBES","lat":-34.8931032433923,"lng":-56.11577853344623,"code":"3013"},{"seq":26,"id":"3014","name":"AV GRAL RIVERA esq. ASTURIAS","lat":-34.89451133268975,"lng":-56.11897845795507,"code":"3014"},{"seq":27,"id":"3015","name":"AV GRAL RIVERA esq. AV MCAL FRANCISCO SOLANO LOPEZ","lat":-34.895742379439575,"lng":-56.12147366653549,"code":"3015"},{"seq":28,"id":"3042","name":"AV GRAL RIVERA esq. BV JOSE BATLLE Y ORDOÑEZ","lat":-34.89704445876083,"lng":-56.12397037718708,"code":"3042"},{"seq":29,"id":"3043","name":"AV GRAL RIVERA esq. JOSE GESTAL","lat":-34.89796994809469,"lng":-56.12579418640679,"code":"3043"},{"seq":30,"id":"3044","name":"AV GRAL RIVERA esq. AV TOMAS BASAÑEZ","lat":-34.899110997650624,"lng":-56.12790972707785,"code":"3044"},{"seq":31,"id":"3427","name":"AV TOMAS BASAÑEZ esq. SALDANHA DA GAMA","lat":-34.902582216362916,"lng":-56.12675793886365,"code":"3427"},{"seq":32,"id":"3425","name":"SALDANHA DA GAMA esq. CALLE FICTICIA","lat":-34.90241473197575,"lng":-56.129503939910165,"code":"3425"},{"seq":33,"id":"3422","name":"SALDANHA DA GAMA esq. TOMAS DE TEZANOS","lat":-34.90192771190546,"lng":-56.13225622540792,"code":"3422"},{"seq":34,"id":"5657","name":"PEDRO BUSTAMANTE esq. TOMAS DE TEZANOS","lat":-34.90367029016283,"lng":-56.13317662259473,"code":"5657"},{"seq":35,"id":"3933","name":"BV 26 DE MARZO esq. AV DR LUIS ALBERTO DE HERRERA","lat":-34.90553260989128,"lng":-56.13633787994625,"code":"3933"},{"seq":36,"id":"3934","name":"BV 26 DE MARZO esq. JULIO CESAR","lat":-34.9061276882192,"lng":-56.13913415091652,"code":"3934"},{"seq":37,"id":"4079","name":"26 DE MARZO esq. FELIX BUXAREO","lat":-34.907070517648066,"lng":-56.14370742160238,"code":"4079"},{"seq":38,"id":"4193","name":"26 DE MARZO esq. MANUEL V PAGOLA","lat":-34.90778190770789,"lng":-56.14631963246543,"code":"4193"},{"seq":39,"id":"4080","name":"26 DE MARZO esq. GUAYAQUI","lat":-34.9095100825354,"lng":-56.148929790955094,"code":"4080"},{"seq":40,"id":"3935","name":"26 DE MARZO esq. AV BRASIL","lat":-34.911006117135955,"lng":-56.15119358373511,"code":"3935"},{"seq":41,"id":"4078","name":"26 DE MARZO esq. JOSE ELLAURI","lat":-34.91265419203733,"lng":-56.15325715948907,"code":"4078"},{"seq":42,"id":"3960","name":"BV ESPAÑA esq. CARLOS BERG","lat":-34.913229286966555,"lng":-56.15599882551783,"code":"3960"},{"seq":43,"id":"3961","name":"BV ESPAÑA esq. LUIS FRANZINI","lat":-34.912139896874294,"lng":-56.15935535771176,"code":"3961"},{"seq":44,"id":"3962","name":"BV ESPAÑA esq. PRUDENCIO VAZQUEZ Y VEGA","lat":-34.91123132223349,"lng":-56.162210206929444,"code":"3962"},{"seq":45,"id":"2067","name":"BV GRAL ARTIGAS esq. GRAL ARQ ALFREDO BALDOMIR","lat":-34.909102728894695,"lng":-56.163232862612126,"code":"2067"},{"seq":46,"id":"2068","name":"BV GRAL ARTIGAS esq. MALDONADO","lat":-34.90730804811423,"lng":-56.16342703160549,"code":"2068"},{"seq":47,"id":"2069","name":"BV GRAL ARTIGAS esq. GUANA","lat":-34.90420189476347,"lng":-56.1637435348658,"code":"2069"},{"seq":48,"id":"3056","name":"AV GRAL RIVERA esq. ACEVEDO DIAZ","lat":-34.901989604178105,"lng":-56.16620164071824,"code":"3056"},{"seq":49,"id":"3057","name":"AV GRAL RIVERA esq. DR JOAQUIN DE SALTERAIN","lat":-34.90218854086084,"lng":-56.17007764439145,"code":"3057"},{"seq":50,"id":"4439","name":"GUAYABOS esq. DR JUAN A RODRIGUEZ","lat":-34.90256175568311,"lng":-56.17467118496945,"code":"4439"},{"seq":51,"id":"4438","name":"GUAYABOS esq. JOSE ARISMENDI","lat":-34.90353298890942,"lng":-56.17768898205769,"code":"4438"},{"seq":52,"id":"4437","name":"GUAYABOS esq. CARLOS ROXLO","lat":-34.9047732774362,"lng":-56.18086793391653,"code":"4437"},{"seq":53,"id":"4824","name":"Q F ANDRES MARTINEZ TRUEBA esq. BERNABE RIVERA","lat":-34.90661615511964,"lng":-56.183254783160734,"code":"4824"},{"seq":54,"id":"4611","name":"SORIANO esq. DR JAVIER BARRIOS AMORIN","lat":-34.90722301030577,"lng":-56.18425245560246,"code":"4611"},{"seq":55,"id":"3174","name":"SORIANO esq. CARLOS QUIJANO","lat":-34.90749676110008,"lng":-56.188535075026024,"code":"3174"},{"seq":56,"id":"3175","name":"SORIANO esq. HECTOR GUTIERREZ RUIZ","lat":-34.907740373658655,"lng":-56.1909401545585,"code":"3175"},{"seq":57,"id":"4576","name":"PARAGUAY esq. AV 18 DE JULIO","lat":-34.90626797526722,"lng":-56.19241353490952,"code":"4576"},{"seq":58,"id":"4579","name":"PARAGUAY esq. MERCEDES","lat":-34.90439027933741,"lng":-56.19262610259601,"code":"4579"},{"seq":59,"id":"3927","name":"AV GRAL RONDEAU esq. PAYSANDU","lat":-34.902411549872404,"lng":-56.19173672634738,"code":"3927"},{"seq":60,"id":"3928","name":"AV GRAL RONDEAU esq. VALPARAISO","lat":-34.89853357452957,"lng":-56.192107780621484,"code":"3928"},{"seq":61,"id":"3929","name":"AV GRAL RONDEAU esq. ASUNCION","lat":-34.89625161393297,"lng":-56.1923531162126,"code":"3929"},{"seq":62,"id":"3930","name":"AV GRAL RONDEAU esq. VENEZUELA","lat":-34.89343316443118,"lng":-56.19260979262458,"code":"3930"},{"seq":63,"id":"567","name":"AV GRAL RONDEAU esq. PANAMA","lat":-34.89100892843425,"lng":-56.192903604799696,"code":"567"},{"seq":64,"id":"568","name":"AV GRAL RONDEAU esq. CNEL FRANCISCO TAJES","lat":-34.88785903107096,"lng":-56.19321859855205,"code":"568"},{"seq":65,"id":"569","name":"AV GRAL RONDEAU esq. GRAL FRANCISCO CARABALLO","lat":-34.88602361943587,"lng":-56.19340971766379,"code":"569"},{"seq":66,"id":"3728","name":"AV AGRACIADA esq. AV GRAL RONDEAU","lat":-34.88424950782731,"lng":-56.19356482092001,"code":"3728"},{"seq":67,"id":"3729","name":"AV AGRACIADA esq. ENTRE RIOS","lat":-34.882623332363856,"lng":-56.1946583162895,"code":"3729"},{"seq":68,"id":"3730","name":"AV AGRACIADA esq. DR ALFREDO GARCIA MORALES","lat":-34.879981139842194,"lng":-56.19570891740889,"code":"3730"},{"seq":69,"id":"3742","name":"AV AGRACIADA esq. DR EVARISTO CIGANDA","lat":-34.87683511471819,"lng":-56.19744894546475,"code":"3742"},{"seq":70,"id":"3743","name":"AV AGRACIADA esq. GRITO DE ASENCIO","lat":-34.87583125336255,"lng":-56.19876564614716,"code":"3743"},{"seq":71,"id":"3745","name":"AV AGRACIADA esq. BV GRAL ARTIGAS","lat":-34.87265513115647,"lng":-56.20178849093739,"code":"3745"},{"seq":72,"id":"1576","name":"AV AGRACIADA esq. HERMANOS GIL","lat":-34.87025679763949,"lng":-56.20390121964999,"code":"1576"},{"seq":73,"id":"1577","name":"AV AGRACIADA esq. HERMANOS RUIZ","lat":-34.868515759258926,"lng":-56.20570363345551,"code":"1577"},{"seq":74,"id":"4211","name":"AV AGRACIADA esq. ENRIQUE TURINI","lat":-34.86631576339337,"lng":-56.20813824853131,"code":"4211"},{"seq":75,"id":"4255","name":"AV AGRACIADA esq. VALENTIN GOMEZ","lat":-34.86445664202587,"lng":-56.20980482290738,"code":"4255"},{"seq":76,"id":"1565","name":"AV AGRACIADA esq. INOCENCIO RAFFO ARROSA","lat":-34.86280913222565,"lng":-56.21122309756084,"code":"1565"},{"seq":77,"id":"1567","name":"AV AGRACIADA esq. JUAN ANTONIO ARTIGAS","lat":-34.85791889811781,"lng":-56.218021744301836,"code":"1567"},{"seq":78,"id":"1145","name":"AV AGRACIADA esq. JOSE B FREIRE","lat":-34.85623986691799,"lng":-56.220152389011396,"code":"1145"},{"seq":79,"id":"1211","name":"AV CARLOS MARIA RAMIREZ esq. BELVEDERE","lat":-34.85607891114537,"lng":-56.22381772616454,"code":"1211"},{"seq":80,"id":"1332","name":"CARLOS DE LA VEGA esq. INCLUSA","lat":-34.854647750113585,"lng":-56.22762057982126,"code":"1332"},{"seq":81,"id":"1333","name":"CARLOS DE LA VEGA esq. VITORIA","lat":-34.85343821027968,"lng":-56.229739697488846,"code":"1333"},{"seq":82,"id":"1334","name":"CARLOS DE LA VEGA esq. ADOLFO VAILLANT","lat":-34.85231134155885,"lng":-56.23187822698779,"code":"1334"},{"seq":83,"id":"1335","name":"CARLOS DE LA VEGA esq. RODOLFO RINCON","lat":-34.8510236912344,"lng":-56.234199885162916,"code":"1335"},{"seq":84,"id":"1336","name":"CARLOS DE LA VEGA esq. CAMPICHUELO","lat":-34.849959571919044,"lng":-56.23614259694359,"code":"1336"},{"seq":85,"id":"1337","name":"CARLOS DE LA VEGA esq. FERREIRA Y ARTIGAS","lat":-34.849271833048704,"lng":-56.23739381152827,"code":"1337"},{"seq":86,"id":"1338","name":"CARLOS DE LA VEGA esq. TRIUNFO","lat":-34.847929636117534,"lng":-56.23972698864524,"code":"1338"},{"seq":87,"id":"1339","name":"CARLOS DE LA VEGA esq. CORDOBES","lat":-34.847114143656455,"lng":-56.24129175071892,"code":"1339"},{"seq":88,"id":"1340","name":"CARLOS DE LA VEGA esq. TURUBI","lat":-34.84620068983273,"lng":-56.24286083650796,"code":"1340"},{"seq":89,"id":"1341","name":"CARLOS DE LA VEGA esq. YUGOESLAVIA","lat":-34.84499133537585,"lng":-56.24507047940451,"code":"1341"},{"seq":90,"id":"4630","name":"YUGOESLAVIA esq. JULIAN LAGUNA","lat":-34.84369124081538,"lng":-56.244142484883234,"code":"4630"},{"seq":91,"id":"4631","name":"YUGOESLAVIA esq. SANTA LUCIA","lat":-34.84231268455109,"lng":-56.24289936042293,"code":"4631"},{"seq":92,"id":"1314","name":"SANTA LUCIA esq. CARLOS MARIA HERRERA","lat":-34.84130427188875,"lng":-56.24413946920479,"code":"1314"},{"seq":93,"id":"6522","name":"SANTA LUCIA esq. ABIARU","lat":-34.8407104059136,"lng":-56.24520618647876,"code":"6522"},{"seq":94,"id":"1315","name":"SANTA LUCIA esq. CAPIATA","lat":-34.83966211365851,"lng":-56.24706912182778,"code":"1315"},{"seq":95,"id":"1317","name":"SANTA LUCIA esq. TUCUMAN","lat":-34.83814293091418,"lng":-56.249831935361186,"code":"1317"},{"seq":96,"id":"1318","name":"SANTA LUCIA esq. CORDOBA","lat":-34.83742505033695,"lng":-56.250983425940674,"code":"1318"},{"seq":97,"id":"860","name":"EDUARDO PAZ AGUIRRE esq. JOSE LLUPES","lat":-34.835935468215894,"lng":-56.25592148592582,"code":"860"},{"seq":98,"id":"881","name":"EDUARDO PAZ AGUIRRE esq. CARLOS DE LA VEGA","lat":-34.8367320512063,"lng":-56.25877804866575,"code":"881"},{"seq":99,"id":"884","name":"EDUARDO PAZ AGUIRRE esq. ABREVADERO","lat":-34.83732992132057,"lng":-56.261013400185064,"code":"884"},{"seq":100,"id":"882","name":"EDUARDO PAZ AGUIRRE esq. CNO PASO DE LA ARENA","lat":-34.83790130869906,"lng":-56.263079435345304,"code":"882"},{"seq":101,"id":"885","name":"AV LUIS BATLLE BERRES esq. MARTIN ARTIGAS","lat":-34.837832648238916,"lng":-56.26623084619921,"code":"885"},{"seq":102,"id":"886","name":"AV LUIS BATLLE BERRES esq. CNEL SANTIAGO ARTIGAS","lat":-34.83744632330756,"lng":-56.267966604512736,"code":"886"},{"seq":103,"id":"4137","name":"AV LUIS BATLLE BERRES esq. PEARL S BUCK","lat":-34.8351737313489,"lng":-56.27487934349352,"code":"4137"},{"seq":104,"id":"4138","name":"AV LUIS BATLLE BERRES esq. AV CIBILS","lat":-34.8341307048403,"lng":-56.27709859995176,"code":"4138"},{"seq":105,"id":"4133","name":"AV LUIS BATLLE BERRES esq. LAS ARTES","lat":-34.832277685411874,"lng":-56.28081842233647,"code":"4133"},{"seq":106,"id":"4132","name":"AV LUIS BATLLE BERRES esq. CALLE 6575","lat":-34.83084982511004,"lng":-56.28379075480857,"code":"4132"},{"seq":107,"id":"4130","name":"AV LUIS BATLLE BERRES esq. CNO SOSA","lat":-34.82932602594135,"lng":-56.28702438947964,"code":"4130"},{"seq":108,"id":"4128","name":"AV LUIS BATLLE BERRES esq. ZANJA REYUNA","lat":-34.82720533810491,"lng":-56.29106139926479,"code":"4128"},{"seq":109,"id":"4126","name":"AV LUIS BATLLE BERRES esq. PROY S/E DE PASO","lat":-34.825460202321324,"lng":-56.29447594366562,"code":"4126"},{"seq":110,"id":"6128","name":"AV IDEARIO ARTIGUISTA esq. CNO CAMPAMENTOS ORIENTALES","lat":-34.82420866593881,"lng":-56.292472974785895,"code":"6128"},{"seq":111,"id":"5013","name":"AV IDEARIO ARTIGUISTA esq. ZANJA REYUNA","lat":-34.82384212025199,"lng":-56.29078898815718,"code":"5013"},{"seq":112,"id":"4140","name":"AV IDEARIO ARTIGUISTA esq. ZANJA REYUNA","lat":-34.82336117099693,"lng":-56.28883093474316,"code":"4140"},{"seq":113,"id":"4141","name":"AV IDEARIO ARTIGUISTA esq. ZANJA REYUNA","lat":-34.82255767625436,"lng":-56.28617095298005,"code":"4141"},{"seq":114,"id":"6849","name":"AV IDEARIO ARTIGUISTA esq. LIGA FEDERAL","lat":-34.821875758399685,"lng":-56.28355369641489,"code":"6849"},{"seq":115,"id":"5014","name":"AV IDEARIO ARTIGUISTA esq. LIGA FEDERAL","lat":-34.821665556680806,"lng":-56.282752727977886,"code":"5014"},{"seq":116,"id":"6981","name":"AV IDEARIO ARTIGUISTA esq. LIGA FEDERAL","lat":-34.8212791383647,"lng":-56.28123359416343,"code":"6981"},{"seq":117,"id":"4144","name":"AV IDEARIO ARTIGUISTA esq. LA CARRETA","lat":-34.820738688859784,"lng":-56.27918130434954,"code":"4144"},{"seq":118,"id":"6721","name":"AV IDEARIO ARTIGUISTA esq. VIOLETA AMORETTI","lat":-34.82016352495252,"lng":-56.2768372370808,"code":"6721"},{"seq":119,"id":"6331","name":"AV IDEARIO ARTIGUISTA esq. PSJE LINCOLN PRESNO","lat":-34.81973063284428,"lng":-56.275116839095595,"code":"6331"},{"seq":120,"id":"6579","name":"AV IDEARIO ARTIGUISTA esq. CALLE E","lat":-34.819124322352884,"lng":-56.27272584192272,"code":"6579"},{"seq":121,"id":"5238","name":"CNO LUIS EDUARDO PEREZ esq. LAS PITAS","lat":-34.81801212121297,"lng":-56.26817868001982,"code":"5238"}]}