{"0":[{"seq":1,"id":"4399","name":"AV DE LAS INSTRUCCIONES esq. CNO PETIROSSI","lat":-34.80653814094471,"lng":-56.1622919164807,"code":"4399"},{"seq":2,"id":"1943","name":"AV DE LAS INSTRUCCIONES esq. FRANCISCO EDUARDO BONILLA","lat":-34.80858255475285,"lng":-56.16429323306628,"code":"1943"},{"seq":3,"id":"1944","name":"AV DE LAS INSTRUCCIONES esq. AV GRAL SAN MARTIN","lat":-34.81053645757825,"lng":-56.16625575816486,"code":"1944"},{"seq":4,"id":"4676","name":"AV GRAL SAN MARTIN esq. PETRONA VIERA","lat":-34.81779701303593,"lng":-56.16860358963262,"code":"4676"},{"seq":5,"id":"5389","name":"AV GRAL SAN MARTIN esq. CNO COLMAN","lat":-34.820603740681484,"lng":-56.169081255603686,"code":"5389"},{"seq":6,"id":"6523","name":"AV GRAL SAN MARTIN esq. PSJE DE LAS ACACIAS","lat":-34.822780893163376,"lng":-56.16912080622016,"code":"6523"},{"seq":7,"id":"2760","name":"AV GRAL SAN MARTIN esq. CNO TTE RINALDI","lat":-34.826477998863446,"lng":-56.16849229121713,"code":"2760"},{"seq":8,"id":"2761","name":"AV GRAL SAN MARTIN esq. ORSINI BERTANI","lat":-34.82983859319878,"lng":-56.16807327966625,"code":"2761"},{"seq":9,"id":"1961","name":"ORSINI BERTANI esq. DR RICARDO MACKINNON","lat":-34.83005527314297,"lng":-56.170070835269215,"code":"1961"},{"seq":10,"id":"2762","name":"ORSINI BERTANI esq. DR JOSE MARTIRENE","lat":-34.8303448152427,"lng":-56.17362099807974,"code":"2762"},{"seq":11,"id":"6554","name":"DR VICTOR ESCARDO Y ANAYA esq. DR JUSTO MONTES PAREJA","lat":-34.830052423554854,"lng":-56.17712253375712,"code":"6554"},{"seq":12,"id":"6555","name":"DR JUSTO MONTES PAREJA esq. DR BENIGNO VARELA FUENTES","lat":-34.83241938790118,"lng":-56.177379730656966,"code":"6555"},{"seq":13,"id":"6559","name":"DR ISIDRO MAS DE AYALA esq. DR JOSE MARTIRENE","lat":-34.832712215087845,"lng":-56.17443106300453,"code":"6559"},{"seq":14,"id":"1959","name":"PSJE SDA 8 esq. AV GUSTAVO A VOLPE","lat":-34.83502364401023,"lng":-56.17437075902026,"code":"1959"},{"seq":15,"id":"4832","name":"CIRC INT SIN DENOM esq. PSJE SDA 8","lat":-34.835546909302195,"lng":-56.17346438486217,"code":"4832"},{"seq":16,"id":"1971","name":"BV APARICIO SARAVIA esq. AV BURGUES","lat":-34.8357864057554,"lng":-56.170624541926664,"code":"1971"},{"seq":17,"id":"1972","name":"BV APARICIO SARAVIA esq. AV GRAL SAN MARTIN","lat":-34.83557976210522,"lng":-56.168616438666014,"code":"1972"},{"seq":18,"id":"2769","name":"AV GRAL SAN MARTIN esq. GILBERTO BELLINI","lat":-34.83863968484034,"lng":-56.168333872888184,"code":"2769"},{"seq":19,"id":"2770","name":"AV GRAL SAN MARTIN esq. JULIO E SUAREZ (PELODURO)","lat":-34.8408591787542,"lng":-56.16890782573979,"code":"2770"},{"seq":20,"id":"5388","name":"AV GRAL SAN MARTIN esq. PURACE","lat":-34.842797514781346,"lng":-56.169454239333525,"code":"5388"},{"seq":21,"id":"6150","name":"RANCAGUA esq. SANTIAGO FIGUEREDO","lat":-34.843076201281946,"lng":-56.170452110746226,"code":"6150"},{"seq":22,"id":"2772","name":"RANCAGUA esq. AV BURGUES","lat":-34.84267611971618,"lng":-56.17247242480216,"code":"2772"},{"seq":23,"id":"3716","name":"AV BURGUES esq. CAYAMBE","lat":-34.844947788834446,"lng":-56.17433823952763,"code":"3716"},{"seq":24,"id":"3717","name":"AV BURGUES esq. CNO CHIMBORAZO","lat":-34.84608254981438,"lng":-56.17524702976443,"code":"3717"},{"seq":25,"id":"3718","name":"AV BURGUES esq. HUM","lat":-34.847469033658065,"lng":-56.17611860819099,"code":"3718"},{"seq":26,"id":"3719","name":"AV BURGUES esq. GUENOAS","lat":-34.849190503250455,"lng":-56.177644853887905,"code":"3719"},{"seq":27,"id":"3720","name":"AV BURGUES esq. SANTA ANA","lat":-34.850565832826724,"lng":-56.179325424714804,"code":"3720"},{"seq":28,"id":"4938","name":"AV BURGUES esq. BV JOSE BATLLE Y ORDOÑEZ","lat":-34.85286779398118,"lng":-56.18147180805616,"code":"4938"},{"seq":29,"id":"3653","name":"AV BURGUES esq. GRAL MARIANO DE ACHA","lat":-34.85442551376166,"lng":-56.18286843121686,"code":"3653"},{"seq":30,"id":"3654","name":"AV BURGUES esq. ING MANUEL RODRIGUEZ CORREA","lat":-34.85557809140392,"lng":-56.183597903798194,"code":"3654"},{"seq":31,"id":"3655","name":"AV BURGUES esq. ROBERTO KOCH","lat":-34.857523857452684,"lng":-56.18449448366068,"code":"3655"},{"seq":32,"id":"3656","name":"AV BURGUES esq. DR PABLO EHRLICH","lat":-34.85864589374382,"lng":-56.18500236387245,"code":"3656"},{"seq":33,"id":"2427","name":"AV BURGUES esq. AV DR LUIS ALBERTO DE HERRERA","lat":-34.86155709217695,"lng":-56.18650291724689,"code":"2427"},{"seq":34,"id":"2428","name":"AV BURGUES esq. DR MAGESTED","lat":-34.86419363265027,"lng":-56.186833272459495,"code":"2428"},{"seq":35,"id":"2429","name":"AV BURGUES esq. LUISA LUISI","lat":-34.86612086986212,"lng":-56.1866939229421,"code":"2429"},{"seq":36,"id":"2430","name":"AV BURGUES esq. ESPINILLO","lat":-34.86847929102493,"lng":-56.1864173880958,"code":"2430"},{"seq":37,"id":"2431","name":"AV BURGUES esq. BV GRAL ARTIGAS","lat":-34.87074685732132,"lng":-56.186113285359056,"code":"2431"},{"seq":38,"id":"2432","name":"AV BURGUES esq. GRAL ENRIQUE MARTINEZ","lat":-34.8729082889952,"lng":-56.18576854428118,"code":"2432"},{"seq":39,"id":"2423","name":"AV GRAL SAN MARTIN esq. VILARDEBO","lat":-34.87619115789834,"lng":-56.18563663573321,"code":"2423"},{"seq":40,"id":"2424","name":"AV GRAL SAN MARTIN esq. RIVADAVIA","lat":-34.87807747905353,"lng":-56.186377956275365,"code":"2424"},{"seq":41,"id":"2455","name":"AV GRAL SAN MARTIN esq. DR DOMINGO ARAMBURU","lat":-34.88063731085275,"lng":-56.186383507521576,"code":"2455"},{"seq":42,"id":"2456","name":"AV GRAL SAN MARTIN esq. CLEMENTE CESAR","lat":-34.883780719224504,"lng":-56.18686561578479,"code":"2456"},{"seq":43,"id":"4434","name":"AV GRAL SAN MARTIN esq. MARTIN GARCIA","lat":-34.88581418706864,"lng":-56.18766859856454,"code":"4434"},{"seq":44,"id":"3746","name":"AV AGRACIADA esq. GRAL CESAR DIAZ","lat":-34.88901705487735,"lng":-56.18829439130915,"code":"3746"},{"seq":45,"id":"3663","name":"AV DE LAS LEYES esq. GUATEMALA","lat":-34.891684021777536,"lng":-56.18872660096357,"code":"3663"},{"seq":46,"id":"3877","name":"MAGALLANES esq. LIMA","lat":-34.894156165683185,"lng":-56.18510033316632,"code":"3877"},{"seq":47,"id":"3878","name":"MAGALLANES esq. NUEVA YORK","lat":-34.89588333503353,"lng":-56.184078830408026,"code":"3878"},{"seq":48,"id":"3822","name":"MIGUELETE esq. AV DANIEL FERNANDEZ CRESPO","lat":-34.89594960179222,"lng":-56.181943538129026,"code":"3822"},{"seq":49,"id":"3830","name":"ARENAL GRANDE esq. LA PAZ","lat":-34.8960236277724,"lng":-56.179785201096344,"code":"3830"},{"seq":50,"id":"3831","name":"ARENAL GRANDE esq. CERRO LARGO","lat":-34.89705316339779,"lng":-56.1783211706736,"code":"3831"},{"seq":51,"id":"3832","name":"ARENAL GRANDE esq. AV URUGUAY","lat":-34.898473686360106,"lng":-56.176467221183195,"code":"3832"},{"seq":52,"id":"4031","name":"AV URUGUAY esq. EDUARDO ACEVEDO","lat":-34.899596366633894,"lng":-56.17804216147024,"code":"4031"},{"seq":53,"id":"4045","name":"AV URUGUAY esq. MAGALLANES","lat":-34.90062199336393,"lng":-56.18058879857864,"code":"4045"},{"seq":54,"id":"4033","name":"AV URUGUAY esq. TACUAREMBO","lat":-34.90173133482853,"lng":-56.1833734344285,"code":"4033"},{"seq":55,"id":"4034","name":"AV URUGUAY esq. DR JAVIER BARRIOS AMORIN","lat":-34.902477786939514,"lng":-56.18531876018565,"code":"4034"},{"seq":56,"id":"4046","name":"AV URUGUAY esq. EJIDO","lat":-34.90267340970044,"lng":-56.18684587273082,"code":"4046"},{"seq":57,"id":"4035","name":"AV URUGUAY esq. YI","lat":-34.902816514953564,"lng":-56.189049903919376,"code":"4035"},{"seq":58,"id":"4036","name":"AV URUGUAY esq. AV GRAL RONDEAU","lat":-34.9029789489459,"lng":-56.19144629690975,"code":"4036"},{"seq":59,"id":"4615","name":"AV URUGUAY esq. JULIO HERRERA Y OBES","lat":-34.9032354661676,"lng":-56.19465136934147,"code":"4615"},{"seq":60,"id":"4909","name":"AV URUGUAY esq. CONVENCION","lat":-34.90341932776122,"lng":-56.19707970448174,"code":"4909"},{"seq":61,"id":"4040","name":"AV URUGUAY esq. FLORIDA","lat":-34.90356323442288,"lng":-56.199201708016666,"code":"4040"}],"1":[{"seq":1,"id":"6987","name":"25 DE MAYO esq. JUNCAL","lat":-34.904319303555496,"lng":-56.20136421430059,"code":"6987"},{"seq":2,"id":"4763","name":"CERRITO esq. BARTOLOME MITRE","lat":-34.90400477623158,"lng":-56.203070088466596,"code":"4763"},{"seq":3,"id":"4764","name":"CERRITO esq. TREINTA Y TRES","lat":-34.904920052752594,"lng":-56.20578257890794,"code":"4764"},{"seq":4,"id":"4765","name":"CERRITO esq. ZABALA","lat":-34.90561830689571,"lng":-56.207879137519804,"code":"4765"},{"seq":5,"id":"4773","name":"CERRITO esq. PEREZ CASTELLANO","lat":-34.906624007542774,"lng":-56.21085086685308,"code":"4773"},{"seq":6,"id":"4774","name":"CERRITO esq. JUAN LINDOLFO CUESTAS","lat":-34.90753583985315,"lng":-56.2136045742601,"code":"4774"},{"seq":7,"id":"4929","name":"JUAN LINDOLFO CUESTAS esq. WASHINGTON","lat":-34.90912286787016,"lng":-56.21332952460498,"code":"4929"},{"seq":8,"id":"4769","name":"BUENOS AIRES esq. GUARANI","lat":-34.91047979456778,"lng":-56.21094004617812,"code":"4769"},{"seq":9,"id":"4770","name":"BUENOS AIRES esq. COLON","lat":-34.909782251374686,"lng":-56.20880318576354,"code":"4770"},{"seq":10,"id":"4771","name":"BUENOS AIRES esq. MISIONES","lat":-34.908738679799676,"lng":-56.20565920081309,"code":"4771"},{"seq":11,"id":"4772","name":"BUENOS AIRES esq. ITUZAINGO","lat":-34.908139826603445,"lng":-56.20369061101104,"code":"4772"},{"seq":12,"id":"5109","name":"ANDES esq. AV 18 DE JULIO","lat":-34.9066402089398,"lng":-56.197978248579226,"code":"5109"},{"seq":13,"id":"4549","name":"MERCEDES esq. RIO BRANCO","lat":-34.90439719259269,"lng":-56.196358022256135,"code":"4549"},{"seq":14,"id":"4023","name":"MERCEDES esq. PARAGUAY","lat":-34.904162748218404,"lng":-56.19293791477653,"code":"4023"},{"seq":15,"id":"4552","name":"MERCEDES esq. YI","lat":-34.903900820161134,"lng":-56.18955373699588,"code":"4552"},{"seq":16,"id":"4043","name":"MERCEDES esq. EJIDO","lat":-34.903756881307345,"lng":-56.18728509392396,"code":"4043"},{"seq":17,"id":"4550","name":"MERCEDES esq. VAZQUEZ","lat":-34.90320961240496,"lng":-56.18445196523541,"code":"4550"},{"seq":18,"id":"4027","name":"MERCEDES esq. CARLOS ROXLO","lat":-34.90248164510963,"lng":-56.182602541920396,"code":"4027"},{"seq":19,"id":"4547","name":"MERCEDES esq. GABOTO","lat":-34.90130205860922,"lng":-56.17968728139629,"code":"4547"},{"seq":20,"id":"4546","name":"MERCEDES esq. EDUARDO ACEVEDO","lat":-34.900517866007554,"lng":-56.17759738809082,"code":"4546"},{"seq":21,"id":"3834","name":"AV DANIEL FERNANDEZ CRESPO esq. AV URUGUAY","lat":-34.89929880015499,"lng":-56.17680259324791,"code":"3834"},{"seq":22,"id":"3836","name":"AV DANIEL FERNANDEZ CRESPO esq. LA PAZ","lat":-34.89691510862053,"lng":-56.18008238388338,"code":"3836"},{"seq":23,"id":"3838","name":"AV DANIEL FERNANDEZ CRESPO esq. LIMA","lat":-34.894232603971,"lng":-56.18373846355934,"code":"3838"},{"seq":24,"id":"3738","name":"AV DANIEL FERNANDEZ CRESPO esq. AV DE LAS LEYES","lat":-34.891868152767245,"lng":-56.18571213056046,"code":"3738"},{"seq":25,"id":"3666","name":"AV DE LAS LEYES esq. BATOVI","lat":-34.89010771130561,"lng":-56.18533826927376,"code":"3666"},{"seq":26,"id":"3667","name":"YATAY esq. MARCELINO SOSA","lat":-34.888660223354194,"lng":-56.18672574558212,"code":"3667"},{"seq":27,"id":"4433","name":"AV GRAL SAN MARTIN esq. MARTIN GARCIA","lat":-34.88634692195809,"lng":-56.18773340951671,"code":"4433"},{"seq":28,"id":"3988","name":"AV GRAL SAN MARTIN esq. DR JUAN J DE AMEZAGA","lat":-34.88462972069693,"lng":-56.186924835125126,"code":"3988"},{"seq":29,"id":"3989","name":"AV GRAL SAN MARTIN esq. DR DOMINGO ARAMBURU","lat":-34.88131757584907,"lng":-56.18621116533369,"code":"3989"},{"seq":30,"id":"3990","name":"AV GRAL SAN MARTIN esq. RIVADAVIA","lat":-34.87855803224238,"lng":-56.18621179849872,"code":"3990"},{"seq":31,"id":"3991","name":"AV GRAL SAN MARTIN esq. VILARDEBO","lat":-34.87658381666349,"lng":-56.185696008898205,"code":"3991"},{"seq":32,"id":"2433","name":"AV BURGUES esq. GRAL ENRIQUE MARTINEZ","lat":-34.873225306083995,"lng":-56.18564057474265,"code":"2433"},{"seq":33,"id":"2434","name":"AV BURGUES esq. BV GRAL ARTIGAS","lat":-34.871528067757325,"lng":-56.185892882345435,"code":"2434"},{"seq":34,"id":"2435","name":"AV BURGUES esq. RAMON DE SANTIAGO","lat":-34.86920575235349,"lng":-56.186188933514146,"code":"2435"},{"seq":35,"id":"2436","name":"AV BURGUES esq. PEDRO MARGAT","lat":-34.86679318053791,"lng":-56.18650293345646,"code":"2436"},{"seq":36,"id":"2437","name":"AV BURGUES esq. DR MAGESTED","lat":-34.864602904211125,"lng":-56.186690829073655,"code":"2437"},{"seq":37,"id":"3657","name":"AV BURGUES esq. AV DR LUIS ALBERTO DE HERRERA","lat":-34.86059622921174,"lng":-56.18595029957392,"code":"3657"},{"seq":38,"id":"3658","name":"AV BURGUES esq. DR PABLO EHRLICH","lat":-34.8589396241999,"lng":-56.184972036402996,"code":"3658"},{"seq":39,"id":"6015","name":"AV BURGUES esq. HUASCAR","lat":-34.85731469525548,"lng":-56.184273420169944,"code":"6015"},{"seq":40,"id":"3659","name":"AV BURGUES esq. GRAL MARIANO DE ACHA","lat":-34.854827590684344,"lng":-56.18301812846301,"code":"3659"},{"seq":41,"id":"3660","name":"AV BURGUES esq. BV JOSE BATLLE Y ORDOÑEZ","lat":-34.85354934913855,"lng":-56.18191367980664,"code":"3660"},{"seq":42,"id":"3710","name":"AV BURGUES esq. SANTA ANA","lat":-34.85099614414,"lng":-56.179711765729756,"code":"3710"},{"seq":43,"id":"3711","name":"AV BURGUES esq. GUENOAS","lat":-34.84939399632576,"lng":-56.17779164492891,"code":"3711"},{"seq":44,"id":"3712","name":"AV BURGUES esq. DR JOSE MARIA SILVA","lat":-34.84818264912006,"lng":-56.17629459786364,"code":"3712"},{"seq":45,"id":"3713","name":"AV BURGUES esq. CNO CHIMBORAZO","lat":-34.846842541206904,"lng":-56.17517214189164,"code":"3713"},{"seq":46,"id":"3714","name":"AV BURGUES esq. SORATA","lat":-34.84566242858817,"lng":-56.17450984092928,"code":"3714"},{"seq":47,"id":"3715","name":"RANCAGUA esq. LANCASTER","lat":-34.84291594070351,"lng":-56.1719715012444,"code":"3715"},{"seq":48,"id":"4595","name":"RANCAGUA esq. AV GRAL SAN MARTIN","lat":-34.84336654297966,"lng":-56.16966991828937,"code":"4595"},{"seq":49,"id":"5010","name":"AV GRAL SAN MARTIN esq. JULIO E SUAREZ (PELODURO)","lat":-34.84126795984083,"lng":-56.16886801146482,"code":"5010"},{"seq":50,"id":"2746","name":"AV GRAL SAN MARTIN esq. GILBERTO BELLINI","lat":-34.839072444693095,"lng":-56.16826844962435,"code":"2746"},{"seq":51,"id":"2747","name":"AV GRAL SAN MARTIN esq. BV APARICIO SARAVIA","lat":-34.83561867387342,"lng":-56.16828851109417,"code":"2747"},{"seq":52,"id":"1969","name":"BV APARICIO SARAVIA esq. AV BURGUES","lat":-34.83563501259185,"lng":-56.17019058285672,"code":"1969"},{"seq":53,"id":"4752","name":"PSJE 322 esq. AV GUSTAVO A VOLPE","lat":-34.83509056961072,"lng":-56.17247188040486,"code":"4752"},{"seq":54,"id":"6616","name":"PSJE 322 esq. CNO GRAL LEANDRO GOMEZ","lat":-34.83350500504713,"lng":-56.17267624130423,"code":"6616"},{"seq":55,"id":"2764","name":"DR JOSE MARTIRENE esq. DR ISIDRO MAS DE AYALA","lat":-34.83275139991902,"lng":-56.17371882225941,"code":"2764"},{"seq":56,"id":"6556","name":"DR ISIDRO MAS DE AYALA esq. DR BENIGNO VARELA FUENTES","lat":-34.83267428240532,"lng":-56.17637627184021,"code":"6556"},{"seq":57,"id":"6557","name":"DR JUSTO MONTES PAREJA esq. DR VICTOR ESCARDO Y ANAYA","lat":-34.83057773841024,"lng":-56.1774102534187,"code":"6557"},{"seq":58,"id":"6558","name":"PROF DR ENRIQUE CLAVEAUX esq. DR JOSE MARTIRENE","lat":-34.83011589058572,"lng":-56.174235420938984,"code":"6558"},{"seq":59,"id":"1960","name":"ORSINI BERTANI esq. DR RICARDO MACKINNON","lat":-34.83016243733811,"lng":-56.17051568903037,"code":"1960"},{"seq":60,"id":"2766","name":"ORSINI BERTANI esq. AV GRAL SAN MARTIN","lat":-34.830061380007145,"lng":-56.1687614897555,"code":"2766"},{"seq":61,"id":"2750","name":"AV GRAL SAN MARTIN esq. CNO TTE RINALDI","lat":-34.82714456942707,"lng":-56.16822375003077,"code":"2750"},{"seq":62,"id":"2751","name":"AV GRAL SAN MARTIN esq. CNO CAP MATEO TULA DUFORT","lat":-34.82408024069516,"lng":-56.168725286363724,"code":"2751"},{"seq":63,"id":"4674","name":"AV GRAL SAN MARTIN esq. PSJE DE LOS PINOS","lat":-34.821552644620326,"lng":-56.16884577983357,"code":"4674"},{"seq":64,"id":"4675","name":"AV GRAL SAN MARTIN esq. GABRIELA CHAMPAGNE","lat":-34.817879778834985,"lng":-56.168392736310324,"code":"4675"},{"seq":65,"id":"4431","name":"AV GRAL SAN MARTIN esq. GRAL AV CESAREO L. BERISSO","lat":-34.81444783172105,"lng":-56.16817746528549,"code":"4431"},{"seq":66,"id":"4432","name":"AV GRAL SAN MARTIN esq. IRMA CAMACHO","lat":-34.814213537833375,"lng":-56.16794521712271,"code":"4432"},{"seq":67,"id":"1856","name":"AV DE LAS INSTRUCCIONES esq. AV GRAL SAN MARTIN","lat":-34.810863942844655,"lng":-56.16646206741204,"code":"1856"},{"seq":68,"id":"1857","name":"AV DE LAS INSTRUCCIONES esq. CNO CARLOS A LOPEZ","lat":-34.80903813016106,"lng":-56.16462230455201,"code":"1857"},{"seq":69,"id":"1858","name":"AV DE LAS INSTRUCCIONES esq. CNO PETIROSSI","lat":-34.806752935165726,"lng":-56.162279496307896,"code":"1858"}]}