{"0":[{"seq":1,"id":"4135","name":"AV LUIS BATLLE BERRES esq. ING CARLOS A AROCENA","lat":-34.834932390272506,"lng":-56.27557785851192,"code":"4135"},{"seq":2,"id":"4136","name":"AV LUIS BATLLE BERRES esq. CNO TOMKINSON","lat":-34.83621012430118,"lng":-56.272781531868425,"code":"4136"},{"seq":3,"id":"583","name":"CNO TOMKINSON esq. AV CIBILS","lat":-34.83788621801676,"lng":-56.2744667999385,"code":"583"},{"seq":4,"id":"851","name":"AV CIBILS esq. DR CESAR CARLOS BIANCO","lat":-34.84027569319778,"lng":-56.27444324310968,"code":"851"},{"seq":5,"id":"849","name":"AV CIBILS esq. COSTANERA PARQUE TOMKINSON","lat":-34.84207732146267,"lng":-56.27387836423637,"code":"849"},{"seq":6,"id":"4837","name":"AV CIBILS esq. MIRUNGA","lat":-34.84495429680051,"lng":-56.27307675585036,"code":"4837"},{"seq":7,"id":"836","name":"AV CIBILS esq. FRANCISCO DE QUEVEDO","lat":-34.84738086337003,"lng":-56.272334012604844,"code":"836"},{"seq":8,"id":"834","name":"AV CIBILS esq. FRANCISCO DE GOYA","lat":-34.8488989827475,"lng":-56.271909707699734,"code":"834"},{"seq":9,"id":"988","name":"AV CIBILS esq. NUBLE YIC","lat":-34.85374184840991,"lng":-56.27088373866238,"code":"988"},{"seq":10,"id":"990","name":"AV CIBILS esq. CALLE 7688","lat":-34.85655713107771,"lng":-56.27030680977662,"code":"990"},{"seq":11,"id":"992","name":"AV CIBILS esq. CNO ALIANZA","lat":-34.85847278718945,"lng":-56.26993077854201,"code":"992"},{"seq":12,"id":"994","name":"AV CIBILS esq. CNO LA BOYADA","lat":-34.860399827091776,"lng":-56.269501464237756,"code":"994"},{"seq":13,"id":"998","name":"AV CIBILS esq. CIRC INT SIN DENOM","lat":-34.86427209156674,"lng":-56.26866365204319,"code":"998"},{"seq":14,"id":"1086","name":"SAMUEL LAFONE esq. PSJE DE LA VIA A LA TABLADA","lat":-34.867495135197444,"lng":-56.265570262608506,"code":"1086"},{"seq":15,"id":"1084","name":"SAMUEL LAFONE esq. CNO DE LAS TROPAS","lat":-34.866890669479666,"lng":-56.26122443039233,"code":"1084"},{"seq":16,"id":"1098","name":"SAMUEL LAFONE esq. LUCIO RODRIGUEZ","lat":-34.8664057421652,"lng":-56.257545720569,"code":"1098"},{"seq":17,"id":"1106","name":"AV DR SANTIN CARLOS ROSSI esq. PERNAMBUCO","lat":-34.86707079046239,"lng":-56.253275291245,"code":"1106"},{"seq":18,"id":"1107","name":"AV DR SANTIN CARLOS ROSSI esq. BRASILIA","lat":-34.87021964102935,"lng":-56.25326484124828,"code":"1107"},{"seq":19,"id":"1108","name":"AV DR SANTIN CARLOS ROSSI esq. HAITI","lat":-34.872204501798706,"lng":-56.25296754741255,"code":"1108"},{"seq":20,"id":"4843","name":"DR PEDRO CASTELLINO esq. TURQUIA","lat":-34.87331449578367,"lng":-56.24994058065089,"code":"4843"},{"seq":21,"id":"4776","name":"JAPON esq. VIGO","lat":-34.87467209400156,"lng":-56.24788565268965,"code":"4776"},{"seq":22,"id":"1283","name":"AV CARLOS MARIA RAMIREZ esq. CONCORDIA","lat":-34.869051415570574,"lng":-56.23959388492736,"code":"1283"},{"seq":23,"id":"1284","name":"AV CARLOS MARIA RAMIREZ esq. HUMBOLDT","lat":-34.86785620603017,"lng":-56.23813490916223,"code":"1284"},{"seq":24,"id":"1533","name":"HUMBOLDT esq. DIONISIO CORONEL","lat":-34.86881293461891,"lng":-56.23657003035088,"code":"1533"},{"seq":25,"id":"1534","name":"HUMBOLDT esq. BALTASAR MONTERO VIDAURRETA","lat":-34.87013384160965,"lng":-56.2349342017769,"code":"1534"},{"seq":26,"id":"1501","name":"HUMBOLDT esq. EMILIO ROMERO","lat":-34.87139695773306,"lng":-56.23351221838868,"code":"1501"},{"seq":27,"id":"1503","name":"EMILIO ROMERO esq. JOSE CASTRO","lat":-34.869858267938596,"lng":-56.230927469158985,"code":"1503"},{"seq":28,"id":"1504","name":"EMILIO ROMERO esq. HILARIO ASCASUBI","lat":-34.86849261389847,"lng":-56.22927109280198,"code":"1504"},{"seq":29,"id":"1505","name":"EMILIO ROMERO esq. CARLOS TELLIER","lat":-34.86716925539146,"lng":-56.227653108923796,"code":"1505"},{"seq":30,"id":"1506","name":"EMILIO ROMERO esq. FLORENTINO AMEGHINO","lat":-34.86599362850947,"lng":-56.22617778437249,"code":"1506"},{"seq":31,"id":"1507","name":"EMILIO ROMERO esq. PEDRO CELESTINO BAUZA","lat":-34.86467361682303,"lng":-56.22451996685236,"code":"1507"},{"seq":32,"id":"1508","name":"EMILIO ROMERO esq. CONCILIACION","lat":-34.86325429332383,"lng":-56.22286019721557,"code":"1508"},{"seq":33,"id":"1512","name":"CONCILIACION esq. LUIS DE LA PEÑA","lat":-34.86435873505214,"lng":-56.221301934185334,"code":"1512"},{"seq":34,"id":"1513","name":"CONCILIACION esq. LA AURORA","lat":-34.86563326327385,"lng":-56.219816937728666,"code":"1513"},{"seq":35,"id":"1514","name":"CONCILIACION esq. DEL CID","lat":-34.866354778318616,"lng":-56.21890590420175,"code":"1514"},{"seq":36,"id":"1515","name":"JUAN MARIA GUTIERREZ esq. REPUBLICA FRANCESA","lat":-34.8684119055741,"lng":-56.216798871059225,"code":"1515"},{"seq":37,"id":"1516","name":"JUAN MARIA GUTIERREZ esq. FRANCISCO GOMEZ","lat":-34.87022794996986,"lng":-56.21516594362874,"code":"1516"},{"seq":38,"id":"1517","name":"JUAN MARIA GUTIERREZ esq. CAPURRO","lat":-34.87126787342821,"lng":-56.21386934695155,"code":"1517"},{"seq":39,"id":"1520","name":"CAPURRO esq. CORACEROS","lat":-34.87071897174046,"lng":-56.211206350529615,"code":"1520"},{"seq":40,"id":"1521","name":"CAPURRO esq. DRAGONES","lat":-34.87029647717083,"lng":-56.21004036238276,"code":"1521"},{"seq":41,"id":"3618","name":"URUGUAYANA esq. HERMANOS GIL","lat":-34.87161942453051,"lng":-56.207670240768685,"code":"3618"},{"seq":42,"id":"3619","name":"URUGUAYANA esq. CONVENIO","lat":-34.87233659382174,"lng":-56.20657365870665,"code":"3619"},{"seq":43,"id":"3620","name":"URUGUAYANA esq. PSJE CLAUDIO GARCIA","lat":-34.873816542146294,"lng":-56.204065857907345,"code":"3620"},{"seq":44,"id":"3621","name":"URUGUAYANA esq. PROGRESO","lat":-34.87479776951592,"lng":-56.202117453238664,"code":"3621"},{"seq":45,"id":"6256","name":"GRAL FARIAS esq. GRAL FRANCISCO URDANETA","lat":-34.876335716698904,"lng":-56.19988815381032,"code":"6256"},{"seq":46,"id":"3622","name":"CARLOS PRINCIVALLE esq. MENDOZA","lat":-34.879087453772144,"lng":-56.19958187314353,"code":"3622"},{"seq":47,"id":"4828","name":"TAPES esq. SAN JUAN","lat":-34.880169963527706,"lng":-56.19823075529218,"code":"4828"},{"seq":48,"id":"3623","name":"TAPES esq. AV AGRACIADA","lat":-34.879634863076056,"lng":-56.19619091340732,"code":"3623"},{"seq":49,"id":"3624","name":"DR SALVADOR GARCIA PINTOS esq. CASTILLOS","lat":-34.87811111523912,"lng":-56.194315597701944,"code":"3624"},{"seq":50,"id":"3625","name":"VILARDEBO esq. ABAYUBA","lat":-34.87760284890519,"lng":-56.1924110393991,"code":"3625"},{"seq":51,"id":"3626","name":"VILARDEBO esq. ARROYO GRANDE","lat":-34.87700304934313,"lng":-56.19036990392872,"code":"3626"},{"seq":52,"id":"3627","name":"VILARDEBO esq. AV MILLAN","lat":-34.87632931787035,"lng":-56.18769525029171,"code":"3627"},{"seq":53,"id":"3633","name":"VILARDEBO esq. ENRIQUE GARCIA PEÑA","lat":-34.87638501086019,"lng":-56.186028437834494,"code":"3633"},{"seq":54,"id":"3628","name":"VILARDEBO esq. PANDO","lat":-34.877232255574526,"lng":-56.183407260658,"code":"3628"},{"seq":55,"id":"3678","name":"MARCELINO SOSA esq. GUADALUPE","lat":-34.878622556314326,"lng":-56.18179375406912,"code":"3678"},{"seq":56,"id":"3784","name":"MARCELINO SOSA esq. CONCEPCION ARENAL","lat":-34.88031645987289,"lng":-56.18256777264192,"code":"3784"},{"seq":57,"id":"3679","name":"MARCELINO SOSA esq. DR DOMINGO ARAMBURU","lat":-34.881984386612736,"lng":-56.18344289767731,"code":"3679"},{"seq":58,"id":"2458","name":"BLANDENGUES esq. AV GRAL FLORES","lat":-34.88328037635736,"lng":-56.18345671006036,"code":"2458"},{"seq":59,"id":"2459","name":"BLANDENGUES esq. JOSE L TERRA","lat":-34.88394162798957,"lng":-56.18173264872955,"code":"2459"},{"seq":60,"id":"2460","name":"BLANDENGUES esq. EMILIO REUS","lat":-34.88463688032176,"lng":-56.179808855697125,"code":"2460"},{"seq":61,"id":"3783","name":"JUSTICIA esq. DR JUAN J DE AMEZAGA","lat":-34.886972561370314,"lng":-56.1794520797385,"code":"3783"},{"seq":62,"id":"3702","name":"JUSTICIA esq. NUEVA PALMIRA","lat":-34.88881426650697,"lng":-56.179189900695434,"code":"3702"},{"seq":63,"id":"3703","name":"JUSTICIA esq. GRAL PAGOLA","lat":-34.890592433936035,"lng":-56.178996987347695,"code":"3703"},{"seq":64,"id":"3704","name":"JUSTICIA esq. LIMA","lat":-34.89245897388046,"lng":-56.17882479980832,"code":"3704"},{"seq":65,"id":"3824","name":"MIGUELETE esq. INCA","lat":-34.89364555111756,"lng":-56.177671169850264,"code":"3824"},{"seq":66,"id":"3825","name":"MIGUELETE esq. PEDRO ERRAZQUIN","lat":-34.89260993362926,"lng":-56.17546189060452,"code":"3825"},{"seq":67,"id":"3826","name":"MIGUELETE esq. DR MARTIN C MARTINEZ","lat":-34.892362932109165,"lng":-56.173376965495024,"code":"3826"},{"seq":68,"id":"3827","name":"MIGUELETE esq. JUAN PAULLIER","lat":-34.892150138783805,"lng":-56.17057709649719,"code":"3827"},{"seq":69,"id":"3828","name":"MIGUELETE esq. BV GRAL ARTIGAS","lat":-34.89176917116539,"lng":-56.16565197706191,"code":"3828"},{"seq":70,"id":"2108","name":"BV GRAL ARTIGAS esq. DR SALVADOR FERRER SERRA","lat":-34.89395536936541,"lng":-56.165227482342225,"code":"2108"},{"seq":71,"id":"2110","name":"BV GRAL ARTIGAS esq. FRANCISCO CANARO","lat":-34.89864526354498,"lng":-56.16468838889825,"code":"2110"},{"seq":72,"id":"2969","name":"AV GRAL RIVERA esq. AV ING LUIS P PONCE","lat":-34.90277709660882,"lng":-56.16177785625483,"code":"2969"},{"seq":73,"id":"2970","name":"AV GRAL RIVERA esq. SIMON BOLIVAR","lat":-34.90315288094026,"lng":-56.15931750841267,"code":"2970"},{"seq":74,"id":"3890","name":"AV GRAL RIVERA esq. AV DR FRANCISCO SOCA","lat":-34.9031775360753,"lng":-56.156431832931226,"code":"3890"},{"seq":75,"id":"3980","name":"GABRIEL A PEREIRA esq. CHARRUA","lat":-34.904250066886455,"lng":-56.15354268412021,"code":"3980"},{"seq":76,"id":"3981","name":"GUAYAQUI esq. BARTOLITO MITRE","lat":-34.906679310681206,"lng":-56.15201715641745,"code":"3981"},{"seq":77,"id":"3982","name":"GUAYAQUI esq. JOSE ELLAURI","lat":-34.90851206779296,"lng":-56.15020662896637,"code":"3982"},{"seq":78,"id":"3983","name":"GUAYAQUI esq. ALEJANDRO CHUCARRO","lat":-34.91099145663987,"lng":-56.14778048929421,"code":"3983"},{"seq":79,"id":"3951","name":"JUAN BENITO BLANCO esq. MANUEL V PAGOLA","lat":-34.91028906890789,"lng":-56.144557142331486,"code":"3951"},{"seq":80,"id":"3952","name":"JUAN BENITO BLANCO esq. FELIX BUXAREO","lat":-34.90923060653747,"lng":-56.14297094547107,"code":"3952"},{"seq":81,"id":"3953","name":"BV 26 DE MARZO esq. MARCO BRUTO","lat":-34.906210074464134,"lng":-56.138601959933666,"code":"3953"},{"seq":82,"id":"3436","name":"AV DR LUIS ALBERTO DE HERRERA esq. JOSE A ITURRIAGA","lat":-34.906570673645255,"lng":-56.13667705704264,"code":"3436"},{"seq":83,"id":"3437","name":"AV DR LUIS ALBERTO DE HERRERA esq. ECHEVARRIARZA","lat":-34.90850881888396,"lng":-56.13597006392714,"code":"3437"},{"seq":84,"id":"3389","name":"AV DR LUIS ALBERTO DE HERRERA esq. RBLA PTE CHARLES DE GAULLE","lat":-34.910613202965706,"lng":-56.135251368567566,"code":"3389"}],"1":[{"seq":1,"id":"3386","name":"RBLA PTE CHARLES DE GAULLE esq. AV DR LUIS ALBERTO DE HERRERA","lat":-34.911134416242994,"lng":-56.13692892058207,"code":"3386"},{"seq":2,"id":"3387","name":"AV DR LUIS ALBERTO DE HERRERA esq. RBLA PTE CHARLES DE GAULLE","lat":-34.91030434139146,"lng":-56.13512017644431,"code":"3387"},{"seq":3,"id":"3357","name":"RBLA REPUBLICA DEL PERU esq. BASILIO PEREIRA DE LA LUZ","lat":-34.909660094259394,"lng":-56.14021411531265,"code":"3357"},{"seq":4,"id":"3358","name":"RBLA REPUBLICA DEL PERU esq. MANUEL V PAGOLA","lat":-34.909993184767025,"lng":-56.14377503162323,"code":"3358"},{"seq":5,"id":"3359","name":"RBLA REPUBLICA DEL PERU esq. GABRIEL A PEREIRA","lat":-34.91140690495815,"lng":-56.14539350490502,"code":"3359"},{"seq":6,"id":"3977","name":"GABRIEL A PEREIRA esq. PEDRO F BERRO","lat":-34.909912055548006,"lng":-56.14727110017211,"code":"3977"},{"seq":7,"id":"3978","name":"GABRIEL A PEREIRA esq. MONS DOMINGO TAMBURINI","lat":-34.90804570488361,"lng":-56.14907050503574,"code":"3978"},{"seq":8,"id":"3979","name":"GABRIEL A PEREIRA esq. RAFAEL PASTORIZA","lat":-34.905526889924,"lng":-56.15169588205538,"code":"3979"},{"seq":9,"id":"3889","name":"AV GRAL RIVERA esq. BRIG GRAL DIEGO LAMAS","lat":-34.90305246041319,"lng":-56.15252588845266,"code":"3889"},{"seq":10,"id":"3052","name":"AV GRAL RIVERA esq. GABRIEL A PEREIRA","lat":-34.90309201175386,"lng":-56.155439899978376,"code":"3052"},{"seq":11,"id":"3053","name":"AV GRAL RIVERA esq. SIMON BOLIVAR","lat":-34.903067720392585,"lng":-56.1588567738956,"code":"3053"},{"seq":12,"id":"3054","name":"AV GRAL RIVERA esq. AV ING LUIS P PONCE","lat":-34.90286354202732,"lng":-56.160981555342836,"code":"3054"},{"seq":13,"id":"3055","name":"AV GRAL RIVERA esq. PEDRO CAMPBELL","lat":-34.90261056623694,"lng":-56.16226087950346,"code":"3055"},{"seq":14,"id":"2070","name":"BV GRAL ARTIGAS esq. PALMAR","lat":-34.901038716714986,"lng":-56.164139465163466,"code":"2070"},{"seq":15,"id":"2109","name":"BV GRAL ARTIGAS esq. LORD PONSOMBY","lat":-34.898224381777595,"lng":-56.16445798706647,"code":"2109"},{"seq":16,"id":"6017","name":"AVELINO MIRANDA esq. GRAL URQUIZA","lat":-34.89308730888673,"lng":-56.16402590732474,"code":"6017"},{"seq":17,"id":"3810","name":"GOES esq. ACEVEDO DIAZ","lat":-34.89291712550777,"lng":-56.16732138633369,"code":"3810"},{"seq":18,"id":"3812","name":"JUAN PAULLIER esq. LA PAZ","lat":-34.893960512986574,"lng":-56.1701424424276,"code":"3812"},{"seq":19,"id":"3813","name":"LA PAZ esq. DEFENSA","lat":-34.89433974318454,"lng":-56.17375089861483,"code":"3813"},{"seq":20,"id":"3814","name":"LA PAZ esq. DEMOCRACIA","lat":-34.89450518776262,"lng":-56.175958842858556,"code":"3814"},{"seq":21,"id":"3705","name":"JUSTICIA esq. MIGUELETE","lat":-34.89432758770017,"lng":-56.17847206056799,"code":"3705"},{"seq":22,"id":"3706","name":"JUSTICIA esq. LIMA","lat":-34.89301994690996,"lng":-56.1786530737262,"code":"3706"},{"seq":23,"id":"3707","name":"JUSTICIA esq. GRAL PAGOLA","lat":-34.89114122503377,"lng":-56.17887090908419,"code":"3707"},{"seq":24,"id":"3708","name":"JUSTICIA esq. NUEVA PALMIRA","lat":-34.88932795081208,"lng":-56.17899330834472,"code":"3708"},{"seq":25,"id":"3709","name":"JUSTICIA esq. DR JUAN J DE AMEZAGA","lat":-34.88744240027426,"lng":-56.17926496167469,"code":"3709"},{"seq":26,"id":"2461","name":"INCA esq. BLANDENGUES","lat":-34.88516624898746,"lng":-56.17841381088737,"code":"2461"},{"seq":27,"id":"2462","name":"DR DOMINGO ARAMBURU esq. RAMON DEL VALLE INCLAN","lat":-34.88327199641978,"lng":-56.18046280483425,"code":"2462"},{"seq":28,"id":"2463","name":"DR DOMINGO ARAMBURU esq. JOSE L TERRA","lat":-34.882860587147185,"lng":-56.18144797519986,"code":"2463"},{"seq":29,"id":"3629","name":"JOSE L TERRA esq. CONCEPCION ARENAL","lat":-34.88128097438334,"lng":-56.180899569052514,"code":"3629"},{"seq":30,"id":"3630","name":"GUADALUPE esq. AV GRAL FLORES","lat":-34.879089764304695,"lng":-56.18064770827753,"code":"3630"},{"seq":31,"id":"3631","name":"GUADALUPE esq. PANDO","lat":-34.87821286820714,"lng":-56.18341735617005,"code":"3631"},{"seq":32,"id":"3632","name":"VILARDEBO esq. AV GRAL SAN MARTIN","lat":-34.87648166530206,"lng":-56.1853073583962,"code":"3632"},{"seq":33,"id":"3634","name":"VILARDEBO esq. AV MILLAN","lat":-34.87631440876519,"lng":-56.18701696358913,"code":"3634"},{"seq":34,"id":"3635","name":"VILARDEBO esq. ARROYO GRANDE","lat":-34.876646278994286,"lng":-56.189471233992165,"code":"3635"},{"seq":35,"id":"3636","name":"VILARDEBO esq. ABAYUBA","lat":-34.87733675726365,"lng":-56.191709005650004,"code":"3636"},{"seq":36,"id":"4406","name":"DR SALVADOR GARCIA PINTOS esq. VILARDEBO","lat":-34.8780235820022,"lng":-56.19437906584279,"code":"4406"},{"seq":37,"id":"3638","name":"DR SALVADOR GARCIA PINTOS esq. AV AGRACIADA","lat":-34.87914150319079,"lng":-56.19575128835286,"code":"3638"},{"seq":38,"id":"3639","name":"JUJUY esq. CARLOS PRINCIVALLE","lat":-34.87799825944659,"lng":-56.19785479177975,"code":"3639"},{"seq":39,"id":"3640","name":"JUJUY esq. URUGUAYANA","lat":-34.8767469641945,"lng":-56.19924400584114,"code":"3640"},{"seq":40,"id":"3641","name":"URUGUAYANA esq. JOSE NASAZZI","lat":-34.87442315043714,"lng":-56.20266948632335,"code":"3641"},{"seq":41,"id":"3642","name":"URUGUAYANA esq. SAN RAMON","lat":-34.873453109989434,"lng":-56.20458117481143,"code":"3642"},{"seq":42,"id":"3643","name":"URUGUAYANA esq. HERMANOS GIL","lat":-34.87174773885358,"lng":-56.207229833685204,"code":"3643"},{"seq":43,"id":"4616","name":"URUGUAYANA esq. SOLIS GRANDE","lat":-34.87051169798768,"lng":-56.20856379917729,"code":"4616"},{"seq":44,"id":"1524","name":"CAPURRO esq. CORACEROS","lat":-34.870399933296085,"lng":-56.21075344455207,"code":"1524"},{"seq":45,"id":"1525","name":"CAPURRO esq. JUAN MARIA GUTIERREZ","lat":-34.87131941150933,"lng":-56.21343089205211,"code":"1525"},{"seq":46,"id":"1526","name":"JUAN MARIA GUTIERREZ esq. FRANCISCO GOMEZ","lat":-34.87046062768493,"lng":-56.2147462709324,"code":"1526"},{"seq":47,"id":"1527","name":"JUAN MARIA GUTIERREZ esq. REPUBLICA FRANCESA","lat":-34.868654460148925,"lng":-56.21643641020526,"code":"1527"},{"seq":48,"id":"1528","name":"CONCILIACION esq. DEL CID","lat":-34.86648803918026,"lng":-56.21866000123578,"code":"1528"},{"seq":49,"id":"1529","name":"CONCILIACION esq. LA AURORA","lat":-34.865846865995465,"lng":-56.219426031165405,"code":"1529"},{"seq":50,"id":"1530","name":"CONCILIACION esq. LUIS DE LA PEÑA","lat":-34.86453766339636,"lng":-56.22100998915744,"code":"1530"},{"seq":51,"id":"1511","name":"CONCILIACION esq. EMILIO ROMERO","lat":-34.86319072150959,"lng":-56.22260695702714,"code":"1511"},{"seq":52,"id":"1495","name":"DR MARTIN BERINDUAGUE esq. PEDRO CELESTINO BAUZA","lat":-34.86356075207296,"lng":-56.224941566518424,"code":"1495"},{"seq":53,"id":"1496","name":"DR MARTIN BERINDUAGUE esq. FLORENTINO AMEGHINO","lat":-34.86481444600308,"lng":-56.22648798995912,"code":"1496"},{"seq":54,"id":"1497","name":"DR MARTIN BERINDUAGUE esq. CARLOS TELLIER","lat":-34.866173526158924,"lng":-56.22817764056701,"code":"1497"},{"seq":55,"id":"1498","name":"DR MARTIN BERINDUAGUE esq. HILARIO ASCASUBI","lat":-34.86743170187089,"lng":-56.22971821524776,"code":"1498"},{"seq":56,"id":"1499","name":"DR MARTIN BERINDUAGUE esq. JOSE CASTRO","lat":-34.868766915292234,"lng":-56.23131436328087,"code":"1499"},{"seq":57,"id":"1500","name":"DR MARTIN BERINDUAGUE esq. HEREDIA","lat":-34.86996788712904,"lng":-56.23282777962494,"code":"1500"},{"seq":58,"id":"1531","name":"HEREDIA esq. BENITO RIQUE","lat":-34.869091147372565,"lng":-56.23458739145816,"code":"1531"},{"seq":59,"id":"1532","name":"HEREDIA esq. RUPERTO PEREZ MARTINEZ","lat":-34.867731898362194,"lng":-56.23617246357091,"code":"1532"},{"seq":60,"id":"1302","name":"AV CARLOS MARIA RAMIREZ esq. HUMBOLDT","lat":-34.867442409823596,"lng":-56.23789195503056,"code":"1302"},{"seq":61,"id":"1303","name":"AV CARLOS MARIA RAMIREZ esq. CONCORDIA","lat":-34.86905451535009,"lng":-56.23988630121367,"code":"1303"},{"seq":62,"id":"4815","name":"AV CARLOS MARIA RAMIREZ esq. VIGO","lat":-34.873577827708786,"lng":-56.247690116750995,"code":"4815"},{"seq":63,"id":"4925","name":"DR PEDRO CASTELLINO esq. DR RAUL MORETTI","lat":-34.87323947810137,"lng":-56.249403424783246,"code":"4925"},{"seq":64,"id":"4816","name":"AV CARLOS MARIA RAMIREZ esq. TURQUIA","lat":-34.87400931094092,"lng":-56.250790573274884,"code":"4816"},{"seq":65,"id":"1139","name":"AV DR SANTIN CARLOS ROSSI esq. HAITI","lat":-34.872580105046126,"lng":-56.25269145060849,"code":"1139"},{"seq":66,"id":"4778","name":"AV DR SANTIN CARLOS ROSSI esq. SANTA CRUZ DE LA SIERRA","lat":-34.870306292762784,"lng":-56.2529777401782,"code":"4778"},{"seq":67,"id":"1140","name":"AV DR SANTIN CARLOS ROSSI esq. PERNAMBUCO","lat":-34.867623665870155,"lng":-56.25306692046755,"code":"1140"},{"seq":68,"id":"1099","name":"JOAQUIN MARTORI esq. SAMUEL LAFONE","lat":-34.86640675720802,"lng":-56.257193574076744,"code":"1099"},{"seq":69,"id":"1083","name":"SAMUEL LAFONE esq. CNO DE LAS TROPAS","lat":-34.8667205329715,"lng":-56.26053475843305,"code":"1083"},{"seq":70,"id":"1085","name":"SAMUEL LAFONE esq. PSJE DE LA VIA A LA TABLADA","lat":-34.86736849740436,"lng":-56.265263399654955,"code":"1085"},{"seq":71,"id":"1087","name":"SAMUEL LAFONE esq. AV CIBILS","lat":-34.86770327155616,"lng":-56.26768397160087,"code":"1087"},{"seq":72,"id":"999","name":"AV CIBILS esq. FRANCISCO JAVIER SITI","lat":-34.86572072285732,"lng":-56.26827360776794,"code":"999"},{"seq":73,"id":"995","name":"AV CIBILS esq. CNO LA BOYADA","lat":-34.86114316399076,"lng":-56.26920144948005,"code":"995"},{"seq":74,"id":"993","name":"AV CIBILS esq. CNO ALIANZA","lat":-34.85908970155631,"lng":-56.269635086591066,"code":"993"},{"seq":75,"id":"989","name":"AV CIBILS esq. NUBLE YIC","lat":-34.85406287878005,"lng":-56.2706397957903,"code":"989"},{"seq":76,"id":"831","name":"AV CIBILS esq. PRIMERA AL NORTE","lat":-34.85107837483759,"lng":-56.271295196572126,"code":"831"},{"seq":77,"id":"833","name":"AV CIBILS esq. FRANCISCO DE GOYA","lat":-34.84953170661325,"lng":-56.271607582372695,"code":"833"},{"seq":78,"id":"835","name":"AV CIBILS esq. FRANCISCO DE QUEVEDO","lat":-34.8475801845066,"lng":-56.27217227688272,"code":"835"},{"seq":79,"id":"837","name":"AV CIBILS esq. MIRUNGA","lat":-34.845364268535945,"lng":-56.27281991593791,"code":"837"},{"seq":80,"id":"848","name":"AV CIBILS esq. COSTANERA PARQUE TOMKINSON","lat":-34.84240435908428,"lng":-56.27369572847004,"code":"848"},{"seq":81,"id":"850","name":"AV CIBILS esq. DR CESAR CARLOS BIANCO","lat":-34.84066956434536,"lng":-56.27418000720222,"code":"850"},{"seq":82,"id":"852","name":"AV CIBILS esq. CNO TOMKINSON","lat":-34.83890030036345,"lng":-56.274703068492215,"code":"852"},{"seq":83,"id":"4135","name":"AV LUIS BATLLE BERRES esq. ING CARLOS A AROCENA","lat":-34.834932390272506,"lng":-56.27557785851192,"code":"4135"}]}