{"0":[{"seq":1,"id":"5709","name":"CNO CASTRO esq. AV MARIA EUGENIA VAZ FERREIRA","lat":-34.86031170911782,"lng":-56.21364105046217,"code":"5709"},{"seq":2,"id":"1600","name":"CNO CASTRO esq. AV CARLOS BRUSSA","lat":-34.85800241142896,"lng":-56.21270156402855,"code":"1600"},{"seq":3,"id":"5131","name":"CNO CASTRO esq. CNO MOLINOS DE RAFFO","lat":-34.85583690845098,"lng":-56.21164832178172,"code":"5131"},{"seq":4,"id":"1601","name":"CNO CASTRO esq. CNO CARLOS MARIA DE PENA","lat":-34.85344404272312,"lng":-56.20878556322242,"code":"1601"},{"seq":5,"id":"4891","name":"CNO CASTRO esq. AV ISLAS CANARIAS","lat":-34.85175553436594,"lng":-56.20614230335253,"code":"4891"},{"seq":6,"id":"1602","name":"CNO CASTRO esq. MAUA","lat":-34.85124507144764,"lng":-56.20459573962303,"code":"1602"},{"seq":7,"id":"1603","name":"CNO CASTRO esq. MARIA ORTICOCHEA","lat":-34.8505060066332,"lng":-56.202285218413785,"code":"1603"},{"seq":8,"id":"1604","name":"CNO CASTRO esq. AV MILLAN","lat":-34.84972143439239,"lng":-56.19884051808202,"code":"1604"},{"seq":9,"id":"1472","name":"AV MILLAN esq. RBLA COSTANERA FRANCISCO LAVALLEJA","lat":-34.852799940255515,"lng":-56.197406791977606,"code":"1472"},{"seq":10,"id":"1605","name":"AV MILLAN esq. PANTALEON SOTELO","lat":-34.85627291884577,"lng":-56.19667688347167,"code":"1605"},{"seq":11,"id":"1615","name":"AV DR LUIS ALBERTO DE HERRERA esq. MATIAS ALVAREZ","lat":-34.85782060351055,"lng":-56.19526720009477,"code":"1615"},{"seq":12,"id":"4958","name":"AV DR LUIS ALBERTO DE HERRERA esq. REYES","lat":-34.85827407376552,"lng":-56.19286229867686,"code":"4958"},{"seq":13,"id":"2425","name":"AV DR LUIS ALBERTO DE HERRERA esq. DR CARLOS VAZ FERREIRA","lat":-34.85900324027263,"lng":-56.19043479421802,"code":"2425"},{"seq":14,"id":"2426","name":"AV DR LUIS ALBERTO DE HERRERA esq. AV BURGUES","lat":-34.8609643292271,"lng":-56.186756517031405,"code":"2426"},{"seq":15,"id":"2438","name":"AV DR LUIS ALBERTO DE HERRERA esq. DARWIN","lat":-34.86240902502224,"lng":-56.183627350629884,"code":"2438"},{"seq":16,"id":"2439","name":"AV DR LUIS ALBERTO DE HERRERA esq. AV GRAL SAN MARTIN","lat":-34.86294665606607,"lng":-56.17941538300522,"code":"2439"},{"seq":17,"id":"2440","name":"AV DR LUIS ALBERTO DE HERRERA esq. MARGARITA URIARTE DE HERRERA","lat":-34.8643015482437,"lng":-56.17615424737247,"code":"2440"},{"seq":18,"id":"2441","name":"AV DR LUIS ALBERTO DE HERRERA esq. DR FRANCISCO LAVANDEIRA","lat":-34.865539142976495,"lng":-56.17413698123917,"code":"2441"},{"seq":19,"id":"2442","name":"AV DR LUIS ALBERTO DE HERRERA esq. CNEL JUSTO ARECHAGA","lat":-34.86633434689323,"lng":-56.17286508398019,"code":"2442"},{"seq":20,"id":"2779","name":"AV DR LUIS ALBERTO DE HERRERA esq. GUALEGUAY","lat":-34.867729900291614,"lng":-56.170686692413476,"code":"2779"},{"seq":21,"id":"2780","name":"AV DR LUIS ALBERTO DE HERRERA esq. MARNE","lat":-34.868692808267106,"lng":-56.16908716908628,"code":"2780"},{"seq":22,"id":"2633","name":"AV JOSE PEDRO VARELA esq. BV JOSE BATLLE Y ORDOÑEZ","lat":-34.8677282357262,"lng":-56.162533228503335,"code":"2633"},{"seq":23,"id":"3453","name":"AV DR LUIS ALBERTO DE HERRERA esq. VALLADOLID","lat":-34.87024180876684,"lng":-56.16577476905698,"code":"3453"},{"seq":24,"id":"3454","name":"AV DR LUIS ALBERTO DE HERRERA esq. SETEMBRINO PEREDA","lat":-34.87172898749302,"lng":-56.16338674162366,"code":"3454"},{"seq":25,"id":"3455","name":"AV DR LUIS ALBERTO DE HERRERA esq. ING EDUARDO CANSTATT","lat":-34.873379900277364,"lng":-56.1603058270357,"code":"3455"},{"seq":26,"id":"3456","name":"AV DR LUIS ALBERTO DE HERRERA esq. CADIZ","lat":-34.874837569679016,"lng":-56.15875680826675,"code":"3456"},{"seq":27,"id":"3457","name":"AV DR LUIS ALBERTO DE HERRERA esq. EMILIO RAÑA","lat":-34.876622270355874,"lng":-56.157281459836454,"code":"3457"},{"seq":28,"id":"3458","name":"AV DR LUIS ALBERTO DE HERRERA esq. MONTE CASEROS","lat":-34.87890524661942,"lng":-56.15556779928297,"code":"3458"},{"seq":29,"id":"3459","name":"AV DR LUIS ALBERTO DE HERRERA esq. JOANICO","lat":-34.88093762718059,"lng":-56.153701813892695,"code":"3459"},{"seq":30,"id":"6511","name":"AV DR LUIS ALBERTO DE HERRERA esq. PROF DR PABLO PURRIEL","lat":-34.88388683490894,"lng":-56.15125280599844,"code":"6511"},{"seq":31,"id":"3461","name":"AV DR LUIS ALBERTO DE HERRERA esq. REPUBLICA DOMINICANA","lat":-34.88550615790863,"lng":-56.15004213590038,"code":"3461"},{"seq":32,"id":"4517","name":"AV DR LUIS ALBERTO DE HERRERA esq. BELGRANO","lat":-34.888228741199896,"lng":-56.14814618282642,"code":"4517"},{"seq":33,"id":"5643","name":"AV DR LUIS ALBERTO DE HERRERA esq. JOSE MAZZINI","lat":-34.890021311070484,"lng":-56.146921350504755,"code":"5643"},{"seq":34,"id":"3463","name":"AV DR LUIS ALBERTO DE HERRERA esq. SANTIAGO GADEA","lat":-34.89216769253082,"lng":-56.14552301279097,"code":"3463"},{"seq":35,"id":"3464","name":"AV DR LUIS ALBERTO DE HERRERA esq. AV RAMON ANADOR","lat":-34.895255039354105,"lng":-56.14350616891239,"code":"3464"},{"seq":36,"id":"3465","name":"AV DR LUIS ALBERTO DE HERRERA esq. FELICIANO RODRIGUEZ","lat":-34.89722047526803,"lng":-56.141779761262605,"code":"3465"},{"seq":37,"id":"3466","name":"AV DR LUIS ALBERTO DE HERRERA esq. LIBER ARCE","lat":-34.8984532234145,"lng":-56.14063039688777,"code":"3466"},{"seq":38,"id":"3467","name":"AV DR LUIS ALBERTO DE HERRERA esq. HORACIO","lat":-34.90057635389967,"lng":-56.13889819072028,"code":"3467"},{"seq":39,"id":"3435","name":"AV DR LUIS ALBERTO DE HERRERA esq. PLACIDO ELLAURI","lat":-34.9033313458358,"lng":-56.137858630008886,"code":"3435"},{"seq":40,"id":"3436","name":"AV DR LUIS ALBERTO DE HERRERA esq. JOSE A ITURRIAGA","lat":-34.906570673645255,"lng":-56.13667705704264,"code":"3436"},{"seq":41,"id":"3437","name":"AV DR LUIS ALBERTO DE HERRERA esq. ECHEVARRIARZA","lat":-34.90850881888396,"lng":-56.13597006392714,"code":"3437"},{"seq":42,"id":"3357","name":"RBLA REPUBLICA DEL PERU esq. BASILIO PEREIRA DE LA LUZ","lat":-34.909660094259394,"lng":-56.14021411531265,"code":"3357"},{"seq":43,"id":"3358","name":"RBLA REPUBLICA DEL PERU esq. MANUEL V PAGOLA","lat":-34.909993184767025,"lng":-56.14377503162323,"code":"3358"},{"seq":44,"id":"3359","name":"RBLA REPUBLICA DEL PERU esq. GABRIEL A PEREIRA","lat":-34.91140690495815,"lng":-56.14539350490502,"code":"3359"},{"seq":45,"id":"3360","name":"RBLA REPUBLICA DEL PERU esq. JOSE MARTI","lat":-34.91360442523561,"lng":-56.14769478661135,"code":"3360"},{"seq":46,"id":"3958","name":"BV ESPAÑA esq. JUAN BENITO BLANCO","lat":-34.91501763075745,"lng":-56.1494544543055,"code":"3958"},{"seq":47,"id":"3959","name":"BV ESPAÑA esq. JOSE ELLAURI","lat":-34.91401353805929,"lng":-56.153255096821006,"code":"3959"},{"seq":48,"id":"3960","name":"BV ESPAÑA esq. CARLOS BERG","lat":-34.913229286966555,"lng":-56.15599882551783,"code":"3960"},{"seq":49,"id":"3961","name":"BV ESPAÑA esq. LUIS FRANZINI","lat":-34.912139896874294,"lng":-56.15935535771176,"code":"3961"},{"seq":50,"id":"3962","name":"BV ESPAÑA esq. PRUDENCIO VAZQUEZ Y VEGA","lat":-34.91123132223349,"lng":-56.162210206929444,"code":"3962"},{"seq":51,"id":"4252","name":"ACEVEDO DIAZ esq. SAN SALVADOR","lat":-34.91042185092647,"lng":-56.165711842706855,"code":"4252"},{"seq":52,"id":"4084","name":"AV GONZALO RAMIREZ esq. DR JOAQUIN REQUENA","lat":-34.91139035127486,"lng":-56.16766707588453,"code":"4084"},{"seq":53,"id":"6564","name":"DR PABLO DE MARIA esq. DR LAURO MULLER","lat":-34.91240464236224,"lng":-56.17033954874866,"code":"6564"}],"1":[{"seq":1,"id":"4076","name":"DR JOAQUIN DE SALTERAIN esq. AV GONZALO RAMIREZ","lat":-34.91206342282567,"lng":-56.169065064784746,"code":"4076"},{"seq":2,"id":"4085","name":"AV GONZALO RAMIREZ esq. DR JOAQUIN REQUENA","lat":-34.91155892393931,"lng":-56.168038274030934,"code":"4085"},{"seq":3,"id":"4367","name":"ACEVEDO DIAZ esq. SAN SALVADOR","lat":-34.91074930152792,"lng":-56.16556361717844,"code":"4367"},{"seq":4,"id":"3964","name":"BV ESPAÑA esq. GURI","lat":-34.91090446976138,"lng":-56.16355627694097,"code":"3964"},{"seq":5,"id":"4855","name":"BV ESPAÑA esq. OBLIGADO","lat":-34.91192146857489,"lng":-56.160658164255324,"code":"4855"},{"seq":6,"id":"3966","name":"BV ESPAÑA esq. DR ENRIQUE MUÑOZ","lat":-34.91279529102902,"lng":-56.157844123148756,"code":"3966"},{"seq":7,"id":"3967","name":"BV ESPAÑA esq. AV SARMIENTO","lat":-34.913884304914724,"lng":-56.15441388561559,"code":"3967"},{"seq":8,"id":"4098","name":"BV ESPAÑA esq. ROQUE GRASERAS","lat":-34.91481152162435,"lng":-56.1508017422415,"code":"4098"},{"seq":9,"id":"3949","name":"JUAN BENITO BLANCO esq. JOSE MARTI","lat":-34.91331286515487,"lng":-56.1485095991571,"code":"3949"},{"seq":10,"id":"3950","name":"JUAN BENITO BLANCO esq. GUAYAQUI","lat":-34.91202883507486,"lng":-56.14711823997253,"code":"3950"},{"seq":11,"id":"3951","name":"JUAN BENITO BLANCO esq. MANUEL V PAGOLA","lat":-34.91028906890789,"lng":-56.144557142331486,"code":"3951"},{"seq":12,"id":"3952","name":"JUAN BENITO BLANCO esq. FELIX BUXAREO","lat":-34.90923060653747,"lng":-56.14297094547107,"code":"3952"},{"seq":13,"id":"3956","name":"ECHEVARRIARZA esq. JULIO CESAR","lat":-34.90897850180289,"lng":-56.13913364831275,"code":"3956"},{"seq":14,"id":"3957","name":"ECHEVARRIARZA esq. AV DR LUIS ALBERTO DE HERRERA","lat":-34.90882505907875,"lng":-56.13610620647632,"code":"3957"},{"seq":15,"id":"3418","name":"AV DR LUIS ALBERTO DE HERRERA esq. JOSE A ITURRIAGA","lat":-34.906838377189764,"lng":-56.136342748360796,"code":"3418"},{"seq":16,"id":"3419","name":"AV DR LUIS ALBERTO DE HERRERA esq. CR LUIS E LECUEDER","lat":-34.90395628939104,"lng":-56.1373899322753,"code":"3419"},{"seq":17,"id":"3420","name":"AV DR LUIS ALBERTO DE HERRERA esq. AV GRAL RIVERA","lat":-34.90146252150882,"lng":-56.13822899324454,"code":"3420"},{"seq":18,"id":"3438","name":"AV DR LUIS ALBERTO DE HERRERA esq. LIBER ARCE","lat":-34.89838197733357,"lng":-56.14043889293742,"code":"3438"},{"seq":19,"id":"3468","name":"AV DR LUIS ALBERTO DE HERRERA esq. AV RAMON ANADOR","lat":-34.89564661015096,"lng":-56.1429758561807,"code":"3468"},{"seq":20,"id":"4516","name":"AV DR LUIS ALBERTO DE HERRERA esq. TALCAHUANO","lat":-34.89334610399472,"lng":-56.14451772448424,"code":"4516"},{"seq":21,"id":"3469","name":"AV DR LUIS ALBERTO DE HERRERA esq. REPUBLICA DE EL SALVADOR","lat":-34.891556207713364,"lng":-56.1456826372018,"code":"3469"},{"seq":22,"id":"3470","name":"AV DR LUIS ALBERTO DE HERRERA esq. ABALOS","lat":-34.88969517986484,"lng":-56.14699280174747,"code":"3470"},{"seq":23,"id":"6509","name":"AV DR LUIS ALBERTO DE HERRERA esq. JUAN ORTIZ","lat":-34.8875994065488,"lng":-56.14823231287089,"code":"6509"},{"seq":24,"id":"6510","name":"AV DR LUIS ALBERTO DE HERRERA esq. MATEO VIDAL","lat":-34.8850401311558,"lng":-56.15009921349478,"code":"6510"},{"seq":25,"id":"3446","name":"AV DR LUIS ALBERTO DE HERRERA esq. ASILO","lat":-34.88299576602318,"lng":-56.15159071338301,"code":"3446"},{"seq":26,"id":"3447","name":"AV DR LUIS ALBERTO DE HERRERA esq. GRAL URQUIZA","lat":-34.880613729719855,"lng":-56.153818728512015,"code":"3447"},{"seq":27,"id":"3448","name":"AV DR LUIS ALBERTO DE HERRERA esq. EMILIO RAÑA","lat":-34.87730617313878,"lng":-56.15666662841405,"code":"3448"},{"seq":28,"id":"3449","name":"AV DR LUIS ALBERTO DE HERRERA esq. CADIZ","lat":-34.875007024599824,"lng":-56.15838112873599,"code":"3449"},{"seq":29,"id":"3450","name":"AV DR LUIS ALBERTO DE HERRERA esq. ING EDUARDO CANSTATT","lat":-34.873556816012076,"lng":-56.15982016568784,"code":"3450"},{"seq":30,"id":"3451","name":"AV DR LUIS ALBERTO DE HERRERA esq. IGNACIO MANUEL ALTAMIRANO","lat":-34.87208013973523,"lng":-56.16246864925254,"code":"3451"},{"seq":31,"id":"3452","name":"AV DR LUIS ALBERTO DE HERRERA esq. VALLADOLID","lat":-34.870311296027985,"lng":-56.16526272359222,"code":"3452"},{"seq":32,"id":"2781","name":"AV DR LUIS ALBERTO DE HERRERA esq. MARNE","lat":-34.86869591909339,"lng":-56.16863046336564,"code":"2781"},{"seq":33,"id":"2782","name":"AV DR LUIS ALBERTO DE HERRERA esq. GUALEGUAY","lat":-34.86777785029907,"lng":-56.170186787379755,"code":"2782"},{"seq":34,"id":"2443","name":"AV DR LUIS ALBERTO DE HERRERA esq. JUANA DE ARCO","lat":-34.86594098159528,"lng":-56.17333826109172,"code":"2443"},{"seq":35,"id":"2444","name":"AV DR LUIS ALBERTO DE HERRERA esq. MARGARITA URIARTE DE HERRERA","lat":-34.86424894388706,"lng":-56.175891505580026,"code":"2444"},{"seq":36,"id":"2445","name":"AV DR LUIS ALBERTO DE HERRERA esq. AV GRAL SAN MARTIN","lat":-34.86305636877557,"lng":-56.17862384397122,"code":"2445"},{"seq":37,"id":"2446","name":"AV DR LUIS ALBERTO DE HERRERA esq. DARWIN","lat":-34.86242699803888,"lng":-56.1830788907196,"code":"2446"},{"seq":38,"id":"2447","name":"AV DR LUIS ALBERTO DE HERRERA esq. AV BURGUES","lat":-34.86122944527967,"lng":-56.1858426664812,"code":"2447"},{"seq":39,"id":"2448","name":"AV DR LUIS ALBERTO DE HERRERA esq. DR CARLOS VAZ FERREIRA","lat":-34.85933488586341,"lng":-56.18953772307019,"code":"2448"},{"seq":40,"id":"2449","name":"AV DR LUIS ALBERTO DE HERRERA esq. REYES","lat":-34.85843374830683,"lng":-56.19191896389948,"code":"2449"},{"seq":41,"id":"2450","name":"AV DR LUIS ALBERTO DE HERRERA esq. AV MILLAN","lat":-34.85737939694686,"lng":-56.19593377290121,"code":"2450"},{"seq":42,"id":"1624","name":"AV MILLAN esq. PSJE PNAL CABALLEROS ORIENTALES","lat":-34.85514241740107,"lng":-56.19677174690119,"code":"1624"},{"seq":43,"id":"1625","name":"AV MILLAN esq. RBLA COSTANERA FRANCISCO LAVALLEJA","lat":-34.85277483246349,"lng":-56.197233000964694,"code":"1625"},{"seq":44,"id":"1626","name":"AV MILLAN esq. ANGEL MUÑIZ","lat":-34.85070232931629,"lng":-56.19784261642705,"code":"1626"},{"seq":45,"id":"1628","name":"CNO CASTRO esq. MARIA ORTICOCHEA","lat":-34.850144527246236,"lng":-56.201424274863115,"code":"1628"},{"seq":46,"id":"1629","name":"CNO CASTRO esq. MAUA","lat":-34.85094375614542,"lng":-56.20397515039918,"code":"1629"},{"seq":47,"id":"1630","name":"CNO CASTRO esq. AV ISLAS CANARIAS","lat":-34.85152350739973,"lng":-56.205825976418595,"code":"1630"},{"seq":48,"id":"1631","name":"CNO CASTRO esq. CNO CARLOS MARIA DE PENA","lat":-34.85305905013897,"lng":-56.20837477898487,"code":"1631"},{"seq":49,"id":"1632","name":"CNO CASTRO esq. GRAL HORNOS","lat":-34.854229570071084,"lng":-56.20985744062712,"code":"1632"},{"seq":50,"id":"1633","name":"CNO CASTRO esq. CNO MOLINOS DE RAFFO","lat":-34.855204223026966,"lng":-56.21108197288925,"code":"1633"},{"seq":51,"id":"6613","name":"AV CARLOS BRUSSA esq. CNO CASTRO","lat":-34.85798497275273,"lng":-56.2119741899456,"code":"6613"},{"seq":52,"id":"6180","name":"AV CARLOS BRUSSA esq. AV MARIA EUGENIA VAZ FERREIRA","lat":-34.858410092465654,"lng":-56.21077315548696,"code":"6180"},{"seq":53,"id":"6181","name":"AV MARIA EUGENIA VAZ FERREIRA esq. AV AGRACIADA","lat":-34.86064521094496,"lng":-56.21244585620137,"code":"6181"}]}