{"0":[{"seq":1,"id":"6908","name":"LAS ACHIRAS esq. CLAVELES","lat":-34.89097672067817,"lng":-56.29426000981831,"code":"6908"},{"seq":2,"id":"1045","name":"LAS ACHIRAS esq. CNO SANTA CATALINA","lat":-34.890387283952386,"lng":-56.29259423108805,"code":"1045"},{"seq":3,"id":"1046","name":"CNO SANTA CATALINA esq. TAMBERA","lat":-34.88821091721396,"lng":-56.29283325451117,"code":"1046"},{"seq":4,"id":"4819","name":"CNO SANTA CATALINA esq. BURDEOS","lat":-34.886283637362915,"lng":-56.29317019587841,"code":"4819"},{"seq":5,"id":"1047","name":"BURDEOS esq. CNO DELLAZOPPA","lat":-34.885489677383,"lng":-56.289867192441,"code":"1047"},{"seq":6,"id":"1048","name":"BURDEOS esq. CARLOS PEDRELL","lat":-34.883569709861014,"lng":-56.28086229464672,"code":"1048"},{"seq":7,"id":"6920","name":"BURDEOS esq. REPUBLICA DE MALI","lat":-34.88286594879938,"lng":-56.27846638150142,"code":"6920"},{"seq":8,"id":"1049","name":"BURDEOS esq. PSJE 18 MTS","lat":-34.88236228840267,"lng":-56.27677903228966,"code":"1049"},{"seq":9,"id":"1050","name":"BURDEOS esq. PROY 17 MTS","lat":-34.88171794484735,"lng":-56.274780932750865,"code":"1050"},{"seq":10,"id":"1037","name":"BURDEOS esq. 12 MTS","lat":-34.88097498765108,"lng":-56.27258761555566,"code":"1037"},{"seq":11,"id":"4636","name":"BURDEOS esq. GUINEA","lat":-34.88047681602747,"lng":-56.270039912666526,"code":"4636"},{"seq":12,"id":"4635","name":"BURDEOS esq. CALLE 7813 (ALDERETE)","lat":-34.879890035010305,"lng":-56.267887994668584,"code":"4635"},{"seq":13,"id":"1051","name":"BURDEOS esq. BULGARIA","lat":-34.87968823880251,"lng":-56.264854785717915,"code":"1051"},{"seq":14,"id":"4274","name":"BURDEOS esq. GIBRALTAR","lat":-34.87957675938606,"lng":-56.26407385671338,"code":"4274"},{"seq":15,"id":"1252","name":"GIBRALTAR esq. BERNA","lat":-34.87880470344117,"lng":-56.26376152923848,"code":"1252"},{"seq":16,"id":"5991","name":"GIBRALTAR esq. JAPON","lat":-34.87700950019994,"lng":-56.264067760005815,"code":"5991"},{"seq":17,"id":"1060","name":"AV CARLOS MARIA RAMIREZ esq. DINAMARCA","lat":-34.87580957574045,"lng":-56.26343999545671,"code":"1060"},{"seq":18,"id":"1061","name":"AV CARLOS MARIA RAMIREZ esq. FILIPINAS","lat":-34.87553424979873,"lng":-56.2612750347582,"code":"1061"},{"seq":19,"id":"1062","name":"AV CARLOS MARIA RAMIREZ esq. PUERTO RICO","lat":-34.87524622337117,"lng":-56.25914896228572,"code":"1062"},{"seq":20,"id":"1063","name":"AV CARLOS MARIA RAMIREZ esq. VIZCAYA","lat":-34.874999773262616,"lng":-56.25717543648007,"code":"1063"},{"seq":21,"id":"1064","name":"AV CARLOS MARIA RAMIREZ esq. BOGOTA","lat":-34.874694071295146,"lng":-56.25494367903302,"code":"1064"},{"seq":22,"id":"4775","name":"AV DR SANTIN CARLOS ROSSI esq. DR PEDRO CASTELLINO","lat":-34.87366351246541,"lng":-56.25252419496949,"code":"4775"},{"seq":23,"id":"4930","name":"ROMEO BEZZOSO TABAREZ esq. AV CARLOS MARIA RAMIREZ","lat":-34.8736501719636,"lng":-56.24907895200381,"code":"4930"},{"seq":24,"id":"4776","name":"JAPON esq. VIGO","lat":-34.87467209400156,"lng":-56.24788565268965,"code":"4776"},{"seq":25,"id":"1283","name":"AV CARLOS MARIA RAMIREZ esq. CONCORDIA","lat":-34.869051415570574,"lng":-56.23959388492736,"code":"1283"},{"seq":26,"id":"1284","name":"AV CARLOS MARIA RAMIREZ esq. HUMBOLDT","lat":-34.86785620603017,"lng":-56.23813490916223,"code":"1284"},{"seq":27,"id":"1285","name":"AV CARLOS MARIA RAMIREZ esq. RIVERA INDARTE","lat":-34.86659588514902,"lng":-56.23657922146113,"code":"1285"},{"seq":28,"id":"1286","name":"AV CARLOS MARIA RAMIREZ esq. PEDRO GIRALT","lat":-34.86528020048406,"lng":-56.23496407001005,"code":"1286"},{"seq":29,"id":"1287","name":"AV CARLOS MARIA RAMIREZ esq. GRAL AGUSTIN MUÑOZ","lat":-34.86387271300031,"lng":-56.23321274879693,"code":"1287"},{"seq":30,"id":"1288","name":"AV CARLOS MARIA RAMIREZ esq. REAL","lat":-34.86260038492836,"lng":-56.23163498246714,"code":"1288"},{"seq":31,"id":"1289","name":"AV CARLOS MARIA RAMIREZ esq. VICENTE YAÑEZ PINZON","lat":-34.86136333616833,"lng":-56.23013197988875,"code":"1289"},{"seq":32,"id":"1290","name":"AV CARLOS MARIA RAMIREZ esq. GDOR DEL PINO","lat":-34.85993710754195,"lng":-56.22836858380064,"code":"1290"},{"seq":33,"id":"1291","name":"AV CARLOS MARIA RAMIREZ esq. AV LUIS BATLLE BERRES","lat":-34.85889210675736,"lng":-56.22706613324787,"code":"1291"},{"seq":34,"id":"1292","name":"AV CARLOS MARIA RAMIREZ esq. DR VICENTE BASAGOITY","lat":-34.857305698374745,"lng":-56.22512467868501,"code":"1292"},{"seq":35,"id":"1293","name":"AV CARLOS MARIA RAMIREZ esq. BELVEDERE","lat":-34.855752487211376,"lng":-56.22325673633675,"code":"1293"},{"seq":36,"id":"1568","name":"AV AGRACIADA esq. JOSE B FREIRE","lat":-34.856091460818575,"lng":-56.220543735711516,"code":"1568"},{"seq":37,"id":"1569","name":"AV AGRACIADA esq. JUAN ANTONIO ARTIGAS","lat":-34.857792380402444,"lng":-56.2184672267529,"code":"1569"},{"seq":38,"id":"1578","name":"LUCAS J OBES esq. DR FELIX M OLMEDO","lat":-34.862428957596904,"lng":-56.210874424252694,"code":"1578"},{"seq":39,"id":"1579","name":"LUCAS J OBES esq. FEDERICO GARCIA LORCA","lat":-34.862956862381225,"lng":-56.20731797815601,"code":"1579"},{"seq":40,"id":"1580","name":"LUCAS J OBES esq. AV BUSCHENTAL","lat":-34.86323090081146,"lng":-56.205232827467164,"code":"1580"},{"seq":41,"id":"1581","name":"LUCAS J OBES esq. AV 19 DE ABRIL","lat":-34.86374957948167,"lng":-56.20320985180178,"code":"1581"},{"seq":42,"id":"3905","name":"LUCAS J OBES esq. AMARALES","lat":-34.864725540464036,"lng":-56.20055580562497,"code":"3905"},{"seq":43,"id":"1585","name":"LUCAS J OBES esq. LUGANO","lat":-34.86530485196451,"lng":-56.19876271162702,"code":"1585"},{"seq":44,"id":"4982","name":"LUCAS J OBES esq. AV JOAQUIN SUAREZ","lat":-34.86652008202627,"lng":-56.19639305893262,"code":"4982"},{"seq":45,"id":"3908","name":"AV JOAQUIN SUAREZ esq. FERNANDO OTORGUES","lat":-34.868647369044155,"lng":-56.19657085384249,"code":"3908"},{"seq":46,"id":"1586","name":"AV JOAQUIN SUAREZ esq. HERMANOS GIL","lat":-34.8706292943409,"lng":-56.19660411845349,"code":"1586"},{"seq":47,"id":"2090","name":"BV GRAL ARTIGAS esq. ESPINILLO","lat":-34.87182790462512,"lng":-56.19454959751821,"code":"2090"},{"seq":48,"id":"2091","name":"BV GRAL ARTIGAS esq. AV MILLAN","lat":-34.87156723094092,"lng":-56.1907084109759,"code":"2091"},{"seq":49,"id":"2092","name":"BV GRAL ARTIGAS esq. AV BURGUES","lat":-34.87118883724066,"lng":-56.1865248476313,"code":"2092"},{"seq":50,"id":"2093","name":"BV GRAL ARTIGAS esq. AV GRAL SAN MARTIN","lat":-34.87099547152891,"lng":-56.182783234782185,"code":"2093"},{"seq":51,"id":"2094","name":"BV GRAL ARTIGAS esq. PBRO LORENZO FERNANDEZ","lat":-34.870666561581196,"lng":-56.179042006155804,"code":"2094"},{"seq":52,"id":"4817","name":"BV GRAL ARTIGAS esq. DR MARTIN C MARTINEZ","lat":-34.870501473883905,"lng":-56.17561811377784,"code":"4817"},{"seq":53,"id":"2096","name":"BV GRAL ARTIGAS esq. CUFRE","lat":-34.870243556653655,"lng":-56.171834559393304,"code":"2096"},{"seq":54,"id":"5070","name":"BV GRAL ARTIGAS esq. DR JUAN CAMPISTEGUY","lat":-34.870026766707994,"lng":-56.16918190068549,"code":"5070"},{"seq":55,"id":"3453","name":"AV DR LUIS ALBERTO DE HERRERA esq. VALLADOLID","lat":-34.87024180876684,"lng":-56.16577476905698,"code":"3453"},{"seq":56,"id":"3454","name":"AV DR LUIS ALBERTO DE HERRERA esq. SETEMBRINO PEREDA","lat":-34.87172898749302,"lng":-56.16338674162366,"code":"3454"},{"seq":57,"id":"3455","name":"AV DR LUIS ALBERTO DE HERRERA esq. ING EDUARDO CANSTATT","lat":-34.873379900277364,"lng":-56.1603058270357,"code":"3455"},{"seq":58,"id":"3456","name":"AV DR LUIS ALBERTO DE HERRERA esq. CADIZ","lat":-34.874837569679016,"lng":-56.15875680826675,"code":"3456"},{"seq":59,"id":"3457","name":"AV DR LUIS ALBERTO DE HERRERA esq. EMILIO RAÑA","lat":-34.876622270355874,"lng":-56.157281459836454,"code":"3457"},{"seq":60,"id":"3458","name":"AV DR LUIS ALBERTO DE HERRERA esq. MONTE CASEROS","lat":-34.87890524661942,"lng":-56.15556779928297,"code":"3458"},{"seq":61,"id":"3459","name":"AV DR LUIS ALBERTO DE HERRERA esq. JOANICO","lat":-34.88093762718059,"lng":-56.153701813892695,"code":"3459"},{"seq":62,"id":"3487","name":"AV CENTENARIO esq. AV DR LUIS ALBERTO DE HERRERA","lat":-34.88356083680625,"lng":-56.152723308481356,"code":"3487"},{"seq":63,"id":"3488","name":"AV CENTENARIO esq. REPUBLICA DOMINICANA","lat":-34.88694135124848,"lng":-56.15359849343149,"code":"3488"},{"seq":64,"id":"3489","name":"AV CENTENARIO esq. ESTERO BELLACO","lat":-34.890359137613835,"lng":-56.15532246543694,"code":"3489"},{"seq":65,"id":"553","name":"AV DR AMERICO RICALDONI esq. AV FEDERICO R VIDIELLA","lat":-34.89202323950206,"lng":-56.15460523033937,"code":"553"},{"seq":66,"id":"554","name":"AV DR AMERICO RICALDONI esq. CIRC INT SIN DENOM","lat":-34.89329183243344,"lng":-56.15224312714718,"code":"554"},{"seq":67,"id":"3067","name":"AV DR ALFREDO NAVARRO esq. MANUEL ALONSO","lat":-34.894800605719,"lng":-56.149309745654065,"code":"3067"},{"seq":68,"id":"3068","name":"AV DR ALFREDO NAVARRO esq. AV CATALUÑA","lat":-34.895766421434814,"lng":-56.147739519616586,"code":"3068"},{"seq":69,"id":"3069","name":"AV RAMON ANADOR esq. NAVARRA","lat":-34.89615319754543,"lng":-56.14585810133051,"code":"3069"},{"seq":70,"id":"3070","name":"AV RAMON ANADOR esq. JULIO CESAR","lat":-34.89564997719041,"lng":-56.1434749951837,"code":"3070"},{"seq":71,"id":"3465","name":"AV DR LUIS ALBERTO DE HERRERA esq. FELICIANO RODRIGUEZ","lat":-34.89722047526803,"lng":-56.141779761262605,"code":"3465"},{"seq":72,"id":"3466","name":"AV DR LUIS ALBERTO DE HERRERA esq. LIBER ARCE","lat":-34.8984532234145,"lng":-56.14063039688777,"code":"3466"},{"seq":73,"id":"3467","name":"AV DR LUIS ALBERTO DE HERRERA esq. HORACIO","lat":-34.90057635389967,"lng":-56.13889819072028,"code":"3467"},{"seq":74,"id":"3435","name":"AV DR LUIS ALBERTO DE HERRERA esq. PLACIDO ELLAURI","lat":-34.9033313458358,"lng":-56.137858630008886,"code":"3435"},{"seq":75,"id":"3934","name":"BV 26 DE MARZO esq. JULIO CESAR","lat":-34.9061276882192,"lng":-56.13913415091652,"code":"3934"},{"seq":76,"id":"4079","name":"26 DE MARZO esq. FELIX BUXAREO","lat":-34.907070517648066,"lng":-56.14370742160238,"code":"4079"},{"seq":77,"id":"4193","name":"26 DE MARZO esq. MANUEL V PAGOLA","lat":-34.90778190770789,"lng":-56.14631963246543,"code":"4193"},{"seq":78,"id":"4553","name":"MIGUEL BARREIRO esq. ALEJANDRO CHUCARRO","lat":-34.909855826959415,"lng":-56.146055831680634,"code":"4553"},{"seq":79,"id":"3951","name":"JUAN BENITO BLANCO esq. MANUEL V PAGOLA","lat":-34.91028906890789,"lng":-56.144557142331486,"code":"3951"},{"seq":80,"id":"3952","name":"JUAN BENITO BLANCO esq. FELIX BUXAREO","lat":-34.90923060653747,"lng":-56.14297094547107,"code":"3952"},{"seq":81,"id":"3956","name":"ECHEVARRIARZA esq. JULIO CESAR","lat":-34.90897850180289,"lng":-56.13913364831275,"code":"3956"},{"seq":82,"id":"3957","name":"ECHEVARRIARZA esq. AV DR LUIS ALBERTO DE HERRERA","lat":-34.90882505907875,"lng":-56.13610620647632,"code":"3957"},{"seq":83,"id":"3389","name":"AV DR LUIS ALBERTO DE HERRERA esq. RBLA PTE CHARLES DE GAULLE","lat":-34.910613202965706,"lng":-56.135251368567566,"code":"3389"}],"1":[{"seq":1,"id":"3386","name":"RBLA PTE CHARLES DE GAULLE esq. AV DR LUIS ALBERTO DE HERRERA","lat":-34.911134416242994,"lng":-56.13692892058207,"code":"3386"},{"seq":2,"id":"3387","name":"AV DR LUIS ALBERTO DE HERRERA esq. RBLA PTE CHARLES DE GAULLE","lat":-34.91030434139146,"lng":-56.13512017644431,"code":"3387"},{"seq":3,"id":"3357","name":"RBLA REPUBLICA DEL PERU esq. BASILIO PEREIRA DE LA LUZ","lat":-34.909660094259394,"lng":-56.14021411531265,"code":"3357"},{"seq":4,"id":"3358","name":"RBLA REPUBLICA DEL PERU esq. MANUEL V PAGOLA","lat":-34.909993184767025,"lng":-56.14377503162323,"code":"3358"},{"seq":5,"id":"3952","name":"JUAN BENITO BLANCO esq. FELIX BUXAREO","lat":-34.90923060653747,"lng":-56.14297094547107,"code":"3952"},{"seq":6,"id":"3956","name":"ECHEVARRIARZA esq. JULIO CESAR","lat":-34.90897850180289,"lng":-56.13913364831275,"code":"3956"},{"seq":7,"id":"3957","name":"ECHEVARRIARZA esq. AV DR LUIS ALBERTO DE HERRERA","lat":-34.90882505907875,"lng":-56.13610620647632,"code":"3957"},{"seq":8,"id":"3418","name":"AV DR LUIS ALBERTO DE HERRERA esq. JOSE A ITURRIAGA","lat":-34.906838377189764,"lng":-56.136342748360796,"code":"3418"},{"seq":9,"id":"3419","name":"AV DR LUIS ALBERTO DE HERRERA esq. CR LUIS E LECUEDER","lat":-34.90395628939104,"lng":-56.1373899322753,"code":"3419"},{"seq":10,"id":"3420","name":"AV DR LUIS ALBERTO DE HERRERA esq. AV GRAL RIVERA","lat":-34.90146252150882,"lng":-56.13822899324454,"code":"3420"},{"seq":11,"id":"3438","name":"AV DR LUIS ALBERTO DE HERRERA esq. LIBER ARCE","lat":-34.89838197733357,"lng":-56.14043889293742,"code":"3438"},{"seq":12,"id":"4256","name":"ALBERTO LASPLACES esq. FELICIANO RODRIGUEZ","lat":-34.89695308506493,"lng":-56.14128827602014,"code":"4256"},{"seq":13,"id":"3143","name":"AV RAMON ANADOR esq. AV DR LUIS ALBERTO DE HERRERA","lat":-34.89544433631008,"lng":-56.14297537316654,"code":"3143"},{"seq":14,"id":"3145","name":"AV RAMON ANADOR esq. CDRO COE","lat":-34.89586884931386,"lng":-56.14667347704922,"code":"3145"},{"seq":15,"id":"3146","name":"AV DR ALFREDO NAVARRO esq. SANTIAGO GADEA","lat":-34.89454952406178,"lng":-56.149128153344996,"code":"3146"},{"seq":16,"id":"3147","name":"AV DR AMERICO RICALDONI esq. AV DR ALFREDO NAVARRO","lat":-34.89329712601818,"lng":-56.151488775322164,"code":"3147"},{"seq":17,"id":"3148","name":"AV DR AMERICO RICALDONI esq. AV ITALIA","lat":-34.89192769461429,"lng":-56.154171704776466,"code":"3148"},{"seq":18,"id":"3149","name":"AV CENTENARIO esq. BELGRANO","lat":-34.89042522066208,"lng":-56.15500054258601,"code":"3149"},{"seq":19,"id":"3150","name":"AV CENTENARIO esq. DR JOSE BRITO FORESTI","lat":-34.88772471043564,"lng":-56.15349509860871,"code":"3150"},{"seq":20,"id":"3151","name":"AV CENTENARIO esq. PROF DR PABLO PURRIEL","lat":-34.883989847700676,"lng":-56.15226634349493,"code":"3151"},{"seq":21,"id":"3447","name":"AV DR LUIS ALBERTO DE HERRERA esq. GRAL URQUIZA","lat":-34.880613729719855,"lng":-56.153818728512015,"code":"3447"},{"seq":22,"id":"3448","name":"AV DR LUIS ALBERTO DE HERRERA esq. EMILIO RAÑA","lat":-34.87730617313878,"lng":-56.15666662841405,"code":"3448"},{"seq":23,"id":"3449","name":"AV DR LUIS ALBERTO DE HERRERA esq. CADIZ","lat":-34.875007024599824,"lng":-56.15838112873599,"code":"3449"},{"seq":24,"id":"3450","name":"AV DR LUIS ALBERTO DE HERRERA esq. ING EDUARDO CANSTATT","lat":-34.873556816012076,"lng":-56.15982016568784,"code":"3450"},{"seq":25,"id":"3451","name":"AV DR LUIS ALBERTO DE HERRERA esq. IGNACIO MANUEL ALTAMIRANO","lat":-34.87208013973523,"lng":-56.16246864925254,"code":"3451"},{"seq":26,"id":"3452","name":"AV DR LUIS ALBERTO DE HERRERA esq. VALLADOLID","lat":-34.870311296027985,"lng":-56.16526272359222,"code":"3452"},{"seq":27,"id":"2078","name":"BV GRAL ARTIGAS esq. CUFRE","lat":-34.86996480473061,"lng":-56.17105752691234,"code":"2078"},{"seq":28,"id":"2079","name":"BV GRAL ARTIGAS esq. DR JOAQUIN REQUENA","lat":-34.87011618226705,"lng":-56.17352002546671,"code":"2079"},{"seq":29,"id":"2095","name":"BV GRAL ARTIGAS esq. DR JOSE MARIA PENCO","lat":-34.87048823254856,"lng":-56.178529652843636,"code":"2095"},{"seq":30,"id":"2080","name":"BV GRAL ARTIGAS esq. AV GRAL SAN MARTIN","lat":-34.87072155292908,"lng":-56.18184625535654,"code":"2080"},{"seq":31,"id":"2081","name":"BV GRAL ARTIGAS esq. AV BURGUES","lat":-34.8709381433172,"lng":-56.18557845495101,"code":"2081"},{"seq":32,"id":"2082","name":"BV GRAL ARTIGAS esq. AV MILLAN","lat":-34.87128047781396,"lng":-56.1897580044656,"code":"2082"},{"seq":33,"id":"2083","name":"BV GRAL ARTIGAS esq. ESPINILLO","lat":-34.87150456457751,"lng":-56.1932477303832,"code":"2083"},{"seq":34,"id":"2084","name":"BV GRAL ARTIGAS esq. AV JOAQUIN SUAREZ","lat":-34.87174233437738,"lng":-56.196243789267854,"code":"2084"},{"seq":35,"id":"3907","name":"AV JOAQUIN SUAREZ esq. FERNANDO OTORGUES","lat":-34.86904767295823,"lng":-56.1965096732203,"code":"3907"},{"seq":36,"id":"1587","name":"AV JOAQUIN SUAREZ esq. LUCAS J OBES","lat":-34.8668613673622,"lng":-56.196108524743224,"code":"1587"},{"seq":37,"id":"1594","name":"AV DR JUAN CARLOS BLANCO esq. LUCAS J OBES","lat":-34.865429872743526,"lng":-56.19796442576039,"code":"1594"},{"seq":38,"id":"3906","name":"LUCAS J OBES esq. AMARALES","lat":-34.86462462924589,"lng":-56.20060732320218,"code":"3906"},{"seq":39,"id":"1595","name":"LUCAS J OBES esq. AV 19 DE ABRIL","lat":-34.86400061300007,"lng":-56.20243574509273,"code":"1595"},{"seq":40,"id":"1596","name":"LUCAS J OBES esq. AV BUSCHENTAL","lat":-34.86328430545917,"lng":-56.204361614079836,"code":"1596"},{"seq":41,"id":"1597","name":"LUCAS J OBES esq. FEDERICO GARCIA LORCA","lat":-34.86293917832657,"lng":-56.20690025662017,"code":"1597"},{"seq":42,"id":"1598","name":"LUCAS J OBES esq. AV DELMIRA AGUSTINI","lat":-34.86228428034535,"lng":-56.211131891346035,"code":"1598"},{"seq":43,"id":"1567","name":"AV AGRACIADA esq. JUAN ANTONIO ARTIGAS","lat":-34.85791889811781,"lng":-56.218021744301836,"code":"1567"},{"seq":44,"id":"1145","name":"AV AGRACIADA esq. JOSE B FREIRE","lat":-34.85623986691799,"lng":-56.220152389011396,"code":"1145"},{"seq":45,"id":"1211","name":"AV CARLOS MARIA RAMIREZ esq. BELVEDERE","lat":-34.85607891114537,"lng":-56.22381772616454,"code":"1211"},{"seq":46,"id":"1294","name":"AV CARLOS MARIA RAMIREZ esq. DR VICENTE BASAGOITY","lat":-34.857001151187035,"lng":-56.22503445911118,"code":"1294"},{"seq":47,"id":"1212","name":"AV CARLOS MARIA RAMIREZ esq. AV LUIS BATLLE BERRES","lat":-34.85857228213729,"lng":-56.22688201966486,"code":"1212"},{"seq":48,"id":"1296","name":"AV CARLOS MARIA RAMIREZ esq. GDOR DEL PINO","lat":-34.859608816976866,"lng":-56.22817992242334,"code":"1296"},{"seq":49,"id":"1297","name":"AV CARLOS MARIA RAMIREZ esq. VICENTE YAÑEZ PINZON","lat":-34.860952969129926,"lng":-56.22983384061402,"code":"1297"},{"seq":50,"id":"1298","name":"AV CARLOS MARIA RAMIREZ esq. REAL","lat":-34.8622567957358,"lng":-56.23143436639801,"code":"1298"},{"seq":51,"id":"1299","name":"AV CARLOS MARIA RAMIREZ esq. CARLOS TELLIER","lat":-34.863317620833946,"lng":-56.23275808452,"code":"1299"},{"seq":52,"id":"1300","name":"AV CARLOS MARIA RAMIREZ esq. PEDRO GIRALT","lat":-34.86473645088528,"lng":-56.234474969170115,"code":"1300"},{"seq":53,"id":"1301","name":"AV CARLOS MARIA RAMIREZ esq. RIVERA INDARTE","lat":-34.86616417237776,"lng":-56.236238305673275,"code":"1301"},{"seq":54,"id":"1302","name":"AV CARLOS MARIA RAMIREZ esq. HUMBOLDT","lat":-34.867442409823596,"lng":-56.23789195503056,"code":"1302"},{"seq":55,"id":"1303","name":"AV CARLOS MARIA RAMIREZ esq. CONCORDIA","lat":-34.86905451535009,"lng":-56.23988630121367,"code":"1303"},{"seq":56,"id":"4815","name":"AV CARLOS MARIA RAMIREZ esq. VIGO","lat":-34.873577827708786,"lng":-56.247690116750995,"code":"4815"},{"seq":57,"id":"4816","name":"AV CARLOS MARIA RAMIREZ esq. TURQUIA","lat":-34.87400931094092,"lng":-56.250790573274884,"code":"4816"},{"seq":58,"id":"1069","name":"AV CARLOS MARIA RAMIREZ esq. BOGOTA","lat":-34.87448886666334,"lng":-56.25426770949178,"code":"1069"},{"seq":59,"id":"1070","name":"AV CARLOS MARIA RAMIREZ esq. VIZCAYA","lat":-34.87477629905185,"lng":-56.25640314183071,"code":"1070"},{"seq":60,"id":"1071","name":"AV CARLOS MARIA RAMIREZ esq. PUERTO RICO","lat":-34.875146457511654,"lng":-56.25879999150518,"code":"1071"},{"seq":61,"id":"1072","name":"AV CARLOS MARIA RAMIREZ esq. FILIPINAS","lat":-34.87543730279701,"lng":-56.260973324849196,"code":"1072"},{"seq":62,"id":"1073","name":"AV CARLOS MARIA RAMIREZ esq. DINAMARCA","lat":-34.875720619083616,"lng":-56.26314915066202,"code":"1073"},{"seq":63,"id":"1074","name":"AV CARLOS MARIA RAMIREZ esq. BULGARIA","lat":-34.87593173417382,"lng":-56.265296686126106,"code":"1074"},{"seq":64,"id":"1254","name":"BULGARIA esq. BERNA","lat":-34.87851489331454,"lng":-56.26498383239116,"code":"1254"},{"seq":65,"id":"4272","name":"BURDEOS esq. AV CIBILS","lat":-34.87966733701493,"lng":-56.265226095323385,"code":"4272"},{"seq":66,"id":"4634","name":"BURDEOS esq. CALLE 7813 (ALDERETE)","lat":-34.8798025674363,"lng":-56.26766464223751,"code":"4634"},{"seq":67,"id":"1036","name":"BURDEOS esq. SENEGAL","lat":-34.880362150848185,"lng":-56.269931629754765,"code":"1036"},{"seq":68,"id":"4818","name":"BURDEOS esq. 15 MTS","lat":-34.88128150907389,"lng":-56.27366928231837,"code":"4818"},{"seq":69,"id":"4637","name":"BURDEOS esq. PSJE 17 MTS","lat":-34.88189458021841,"lng":-56.27561394980893,"code":"4637"},{"seq":70,"id":"1039","name":"BURDEOS esq. PSJE 18 MTS","lat":-34.88219819155365,"lng":-56.27674594790633,"code":"1039"},{"seq":71,"id":"6919","name":"BURDEOS esq. REPUBLICA DE MALI","lat":-34.88281464458321,"lng":-56.27867896884933,"code":"6919"},{"seq":72,"id":"1040","name":"BURDEOS esq. CARLOS PEDRELL","lat":-34.88336166531667,"lng":-56.280545883362734,"code":"1040"},{"seq":73,"id":"1041","name":"BURDEOS esq. CNO DELLAZOPPA","lat":-34.88538664827864,"lng":-56.28974101389543,"code":"1041"},{"seq":74,"id":"4277","name":"BURDEOS esq. CNO SANTA CATALINA","lat":-34.885819234488956,"lng":-56.293171042211505,"code":"4277"},{"seq":75,"id":"1042","name":"CNO SANTA CATALINA esq. TAMBERA","lat":-34.88822897980023,"lng":-56.292861916926164,"code":"1042"},{"seq":76,"id":"1043","name":"CNO SANTA CATALINA esq. LAS ACHIRAS","lat":-34.890167930085255,"lng":-56.292484848622436,"code":"1043"},{"seq":77,"id":"1044","name":"LAS ACHIRAS esq. LAS ROSAS","lat":-34.89106813395031,"lng":-56.29423236653821,"code":"1044"}]}