{"0":[{"seq":1,"id":"3922","name":"GRAL FRANCISCO CARABALLO esq. PARAGUAY","lat":-34.886026671431345,"lng":-56.194762339711616,"code":"3922"},{"seq":2,"id":"3726","name":"AV AGRACIADA esq. CNEL FRANCISCO TAJES","lat":-34.88686039486761,"lng":-56.1909445118529,"code":"3726"},{"seq":3,"id":"3736","name":"AV AGRACIADA esq. GRAL MANUEL FREIRE","lat":-34.88795896874254,"lng":-56.18927661636792,"code":"3736"},{"seq":4,"id":"3746","name":"AV AGRACIADA esq. GRAL CESAR DIAZ","lat":-34.88901705487735,"lng":-56.18829439130915,"code":"3746"},{"seq":5,"id":"3663","name":"AV DE LAS LEYES esq. GUATEMALA","lat":-34.891684021777536,"lng":-56.18872660096357,"code":"3663"},{"seq":6,"id":"3665","name":"AV DE LAS LEYES esq. HOCQUART","lat":-34.89194263997822,"lng":-56.18624608205628,"code":"3665"},{"seq":7,"id":"5248","name":"AV GRAL FLORES esq. YATAY","lat":-34.88937484491946,"lng":-56.18643561549675,"code":"5248"},{"seq":8,"id":"3803","name":"AV GRAL FLORES esq. ISIDORO DE MARIA","lat":-34.88794178221321,"lng":-56.18565477051879,"code":"3803"},{"seq":9,"id":"2417","name":"AV GRAL FLORES esq. LIBRES","lat":-34.885279437889736,"lng":-56.184151898814825,"code":"2417"},{"seq":10,"id":"3883","name":"AV GRAL FLORES esq. DR DOMINGO ARAMBURU","lat":-34.88267725242183,"lng":-56.182709465991714,"code":"3883"},{"seq":11,"id":"2418","name":"AV GRAL FLORES esq. RIVADAVIA","lat":-34.88008087829956,"lng":-56.181327102998765,"code":"2418"},{"seq":12,"id":"3805","name":"AV GRAL FLORES esq. AV GRAL GARIBALDI","lat":-34.87668511485247,"lng":-56.17973850770671,"code":"3805"},{"seq":13,"id":"3806","name":"AV GRAL FLORES esq. DR GUSTAVO GALLINAL","lat":-34.87347549162949,"lng":-56.1770714969633,"code":"3806"},{"seq":14,"id":"3680","name":"DR GUSTAVO GALLINAL esq. DR MARTIN C MARTINEZ","lat":-34.87337161645514,"lng":-56.17535723102067,"code":"3680"},{"seq":15,"id":"3681","name":"DR GUSTAVO GALLINAL esq. JUAN PAULLIER","lat":-34.8732409558556,"lng":-56.17264709340505,"code":"3681"},{"seq":16,"id":"3682","name":"DR GUSTAVO GALLINAL esq. AURELIANO RODRIGUEZ LARRETA","lat":-34.873136858880706,"lng":-56.17009241024434,"code":"3682"},{"seq":17,"id":"3683","name":"DR GUSTAVO GALLINAL esq. BV GRAL ARTIGAS","lat":-34.87303834707976,"lng":-56.167753404288646,"code":"3683"},{"seq":18,"id":"2099","name":"BV GRAL ARTIGAS esq. PEDERNAL","lat":-34.87466964790454,"lng":-56.16731729353649,"code":"2099"},{"seq":19,"id":"2100","name":"BV GRAL ARTIGAS esq. COLORADO","lat":-34.87796126101876,"lng":-56.1668504619892,"code":"2100"},{"seq":20,"id":"2101","name":"BV GRAL ARTIGAS esq. CARIBES","lat":-34.88155837450694,"lng":-56.16658071408102,"code":"2101"},{"seq":21,"id":"2102","name":"BV GRAL ARTIGAS esq. AV GRAL GARIBALDI","lat":-34.884345881984295,"lng":-56.16624049612575,"code":"2102"},{"seq":22,"id":"2103","name":"BV GRAL ARTIGAS esq. MARTIN GARCIA","lat":-34.88681106983633,"lng":-56.16597509255538,"code":"2103"},{"seq":23,"id":"2104","name":"BV GRAL ARTIGAS esq. GRAL PAGOLA","lat":-34.889503269449115,"lng":-56.165693053759554,"code":"2104"},{"seq":24,"id":"2107","name":"BV GRAL ARTIGAS esq. MIGUELETE","lat":-34.891492784510405,"lng":-56.165498737533646,"code":"2107"},{"seq":25,"id":"2108","name":"BV GRAL ARTIGAS esq. DR SALVADOR FERRER SERRA","lat":-34.89395536936541,"lng":-56.165227482342225,"code":"2108"},{"seq":26,"id":"3181","name":"AV 18 DE JULIO esq. DR MARIO CASSINONI","lat":-34.89778018829074,"lng":-56.165631276477384,"code":"3181"},{"seq":27,"id":"4009","name":"AV 18 DE JULIO esq. DR MARTIN C MARTINEZ","lat":-34.89971889499654,"lng":-56.17069435732585,"code":"4009"},{"seq":28,"id":"4011","name":"AV 18 DE JULIO esq. ARENAL GRANDE","lat":-34.90079785022985,"lng":-56.173371629686194,"code":"4011"},{"seq":29,"id":"4013","name":"AV 18 DE JULIO esq. GABOTO","lat":-34.90260207757101,"lng":-56.17799875159424,"code":"4013"},{"seq":30,"id":"4014","name":"AV 18 DE JULIO esq. CARLOS ROXLO","lat":-34.90413002308118,"lng":-56.18204970937913,"code":"4014"},{"seq":31,"id":"4016","name":"AV 18 DE JULIO esq. YAGUARON","lat":-34.90551586604633,"lng":-56.187697463979696,"code":"4016"},{"seq":32,"id":"3913","name":"AV 18 DE JULIO esq. GRAL DR ARTURO J BALIÑAS","lat":-34.905879561847904,"lng":-56.19163326211715,"code":"3913"},{"seq":33,"id":"4018","name":"AV 18 DE JULIO esq. CONVENCION","lat":-34.90617875560358,"lng":-56.196497416362966,"code":"4018"},{"seq":34,"id":"6274","name":"JUNCAL esq. SARANDI","lat":-34.90632878321784,"lng":-56.20100896601356,"code":"6274"}],"1":[{"seq":1,"id":"3177","name":"AV 18 DE JULIO esq. CONVENCION","lat":-34.90637735947551,"lng":-56.19647546023266,"code":"3177"},{"seq":2,"id":"4189","name":"AV 18 DE JULIO esq. CIRCUNVALACION DR ENRIQUE TARIGO","lat":-34.9059770538284,"lng":-56.19120432157077,"code":"4189"},{"seq":3,"id":"3179","name":"AV 18 DE JULIO esq. EJIDO","lat":-34.905701912967146,"lng":-56.18741645054905,"code":"3179"},{"seq":4,"id":"4204","name":"AV 18 DE JULIO esq. TACUAREMBO","lat":-34.90463644405395,"lng":-56.18284803658386,"code":"4204"},{"seq":5,"id":"4202","name":"AV 18 DE JULIO esq. GABOTO","lat":-34.90311483455474,"lng":-56.17882109355038,"code":"4202"},{"seq":6,"id":"3180","name":"AV 18 DE JULIO esq. ARENAL GRANDE","lat":-34.90095279597969,"lng":-56.17326704598376,"code":"3180"},{"seq":7,"id":"4005","name":"AV 18 DE JULIO esq. DR MARTIN C MARTINEZ","lat":-34.89979431122526,"lng":-56.17036863358525,"code":"4005"},{"seq":8,"id":"4007","name":"AV 18 DE JULIO esq. DR MARIO CASSINONI","lat":-34.89827040477745,"lng":-56.16630917947125,"code":"4007"},{"seq":9,"id":"6014","name":"BV GRAL ARTIGAS esq. AV 8 DE OCTUBRE","lat":-34.8936805332289,"lng":-56.16494978061266,"code":"6014"},{"seq":10,"id":"2072","name":"BV GRAL ARTIGAS esq. JUAN RAMON GOMEZ","lat":-34.89191223508941,"lng":-56.16514384019507,"code":"2072"},{"seq":11,"id":"2105","name":"BV GRAL ARTIGAS esq. NUEVA PALMIRA","lat":-34.88835836420997,"lng":-56.16551121415532,"code":"2105"},{"seq":12,"id":"2073","name":"BV GRAL ARTIGAS esq. CAGANCHA","lat":-34.88540542325766,"lng":-56.165842593133156,"code":"2073"},{"seq":13,"id":"2074","name":"BV GRAL ARTIGAS esq. CARIBES","lat":-34.88196131359077,"lng":-56.166195858167455,"code":"2074"},{"seq":14,"id":"2075","name":"BV GRAL ARTIGAS esq. COLORADO","lat":-34.87849413875513,"lng":-56.166561238624176,"code":"2075"},{"seq":15,"id":"6406","name":"YAGUARI esq. QUIJOTE","lat":-34.875805043963354,"lng":-56.1662711409639,"code":"6406"},{"seq":16,"id":"3684","name":"PEDERNAL esq. AURELIANO RODRIGUEZ LARRETA","lat":-34.87488953655366,"lng":-56.16925533712823,"code":"3684"},{"seq":17,"id":"3685","name":"PEDERNAL esq. JUAN PAULLIER","lat":-34.87499022943588,"lng":-56.171942837589995,"code":"3685"},{"seq":18,"id":"3686","name":"PEDERNAL esq. PBRO LORENZO FERNANDEZ","lat":-34.875120816544154,"lng":-56.174308301683624,"code":"3686"},{"seq":19,"id":"3687","name":"PEDERNAL esq. GUAVIYU","lat":-34.87518721822913,"lng":-56.17699128387356,"code":"3687"},{"seq":20,"id":"2406","name":"AV GRAL FLORES esq. AV GRAL GARIBALDI","lat":-34.8762621300722,"lng":-56.17952875533382,"code":"2406"},{"seq":21,"id":"2407","name":"AV GRAL FLORES esq. RIVADAVIA","lat":-34.879741223771596,"lng":-56.18132467928347,"code":"2407"},{"seq":22,"id":"2409","name":"AV GRAL FLORES esq. DR DOMINGO ARAMBURU","lat":-34.882097445944304,"lng":-56.182527043617185,"code":"2409"},{"seq":23,"id":"2410","name":"AV GRAL FLORES esq. LIBRES","lat":-34.88487244289756,"lng":-56.184053436627096,"code":"2410"},{"seq":24,"id":"2411","name":"AV GRAL FLORES esq. ISIDORO DE MARIA","lat":-34.88761844528185,"lng":-56.18559381557445,"code":"2411"},{"seq":25,"id":"2412","name":"AV GRAL FLORES esq. YATAY","lat":-34.88947043064534,"lng":-56.186654173070266,"code":"2412"},{"seq":26,"id":"4326","name":"COLOMBIA esq. FRANCISCO DE PAULA MARTI","lat":-34.89005095261161,"lng":-56.18833901016866,"code":"4326"},{"seq":27,"id":"4327","name":"COLOMBIA esq. AV GRAL RONDEAU","lat":-34.8903817533354,"lng":-56.192760533489306,"code":"4327"},{"seq":28,"id":"568","name":"AV GRAL RONDEAU esq. CNEL FRANCISCO TAJES","lat":-34.88785903107096,"lng":-56.19321859855205,"code":"568"},{"seq":29,"id":"4416","name":"GRAL PACHECO esq. PARAGUAY","lat":-34.88677636046899,"lng":-56.19427693745012,"code":"4416"}]}