{"0":[{"seq":1,"id":"5512","name":"AV DR MARTIN IGNACIO HARRETCHE esq. CALLE FICTICIA","lat":-34.903800144113916,"lng":-56.259723771370716,"code":"5512"},{"seq":2,"id":"4960","name":"AV DR MARTIN IGNACIO HARRETCHE esq. RBLA JOSE GURVICH","lat":-34.899713043646734,"lng":-56.26076517899303,"code":"4960"},{"seq":3,"id":"1123","name":"SUIZA esq. RIO DE JANEIRO","lat":-34.89527464708369,"lng":-56.25166754713159,"code":"1123"},{"seq":4,"id":"1124","name":"SUIZA esq. PORTUGAL","lat":-34.89501273315229,"lng":-56.249669745123974,"code":"1124"},{"seq":5,"id":"1126","name":"GRECIA esq. MEJICO","lat":-34.893948529206874,"lng":-56.24725072672022,"code":"1126"},{"seq":6,"id":"1127","name":"GRECIA esq. NORTE AMERICA","lat":-34.892047569782356,"lng":-56.247681482972034,"code":"1127"},{"seq":7,"id":"1128","name":"GRECIA esq. REPUBLICA ARGENTINA","lat":-34.89037338260611,"lng":-56.248048751485804,"code":"1128"},{"seq":8,"id":"1219","name":"REPUBLICA ARGENTINA esq. PORTUGAL","lat":-34.8903958261895,"lng":-56.25010779650918,"code":"1219"},{"seq":9,"id":"1220","name":"REPUBLICA ARGENTINA esq. RIO DE JANEIRO","lat":-34.89070538888562,"lng":-56.252282360496395,"code":"1220"},{"seq":10,"id":"1221","name":"RIO DE JANEIRO esq. BARCELONA","lat":-34.88915316184847,"lng":-56.25269837565909,"code":"1221"},{"seq":11,"id":"3892","name":"RIO DE JANEIRO esq. JUAN B VIACABA","lat":-34.8877103221708,"lng":-56.252991850743065,"code":"3892"},{"seq":12,"id":"3893","name":"RIO DE JANEIRO esq. HOLANDA","lat":-34.88557697888242,"lng":-56.25340506935343,"code":"3893"},{"seq":13,"id":"3894","name":"RIO DE JANEIRO esq. SUECIA","lat":-34.88294806779639,"lng":-56.2539475110222,"code":"3894"},{"seq":14,"id":"3895","name":"RIO DE JANEIRO esq. CHINA","lat":-34.88116918246897,"lng":-56.254295936766056,"code":"3895"},{"seq":15,"id":"3896","name":"RIO DE JANEIRO esq. PERU","lat":-34.879390290397815,"lng":-56.25467267746249,"code":"3896"},{"seq":16,"id":"3897","name":"RIO DE JANEIRO esq. BERNA","lat":-34.87759158918029,"lng":-56.25504263180464,"code":"3897"},{"seq":17,"id":"1144","name":"RIO DE JANEIRO esq. JAPON","lat":-34.87586567540836,"lng":-56.2554184883117,"code":"1144"},{"seq":18,"id":"1064","name":"AV CARLOS MARIA RAMIREZ esq. BOGOTA","lat":-34.874694071295146,"lng":-56.25494367903302,"code":"1064"},{"seq":19,"id":"4775","name":"AV DR SANTIN CARLOS ROSSI esq. DR PEDRO CASTELLINO","lat":-34.87366351246541,"lng":-56.25252419496949,"code":"4775"},{"seq":20,"id":"4843","name":"DR PEDRO CASTELLINO esq. TURQUIA","lat":-34.87331449578367,"lng":-56.24994058065089,"code":"4843"},{"seq":21,"id":"4776","name":"JAPON esq. VIGO","lat":-34.87467209400156,"lng":-56.24788565268965,"code":"4776"},{"seq":22,"id":"1283","name":"AV CARLOS MARIA RAMIREZ esq. CONCORDIA","lat":-34.869051415570574,"lng":-56.23959388492736,"code":"1283"},{"seq":23,"id":"1284","name":"AV CARLOS MARIA RAMIREZ esq. HUMBOLDT","lat":-34.86785620603017,"lng":-56.23813490916223,"code":"1284"},{"seq":24,"id":"1533","name":"HUMBOLDT esq. DIONISIO CORONEL","lat":-34.86881293461891,"lng":-56.23657003035088,"code":"1533"},{"seq":25,"id":"1534","name":"HUMBOLDT esq. BALTASAR MONTERO VIDAURRETA","lat":-34.87013384160965,"lng":-56.2349342017769,"code":"1534"},{"seq":26,"id":"1501","name":"HUMBOLDT esq. EMILIO ROMERO","lat":-34.87139695773306,"lng":-56.23351221838868,"code":"1501"},{"seq":27,"id":"1502","name":"EMILIO ROMERO esq. HUMBOLDT","lat":-34.87142520191784,"lng":-56.232772281707646,"code":"1502"},{"seq":28,"id":"1503","name":"EMILIO ROMERO esq. JOSE CASTRO","lat":-34.869858267938596,"lng":-56.230927469158985,"code":"1503"},{"seq":29,"id":"1504","name":"EMILIO ROMERO esq. HILARIO ASCASUBI","lat":-34.86849261389847,"lng":-56.22927109280198,"code":"1504"},{"seq":30,"id":"1505","name":"EMILIO ROMERO esq. CARLOS TELLIER","lat":-34.86716925539146,"lng":-56.227653108923796,"code":"1505"},{"seq":31,"id":"1506","name":"EMILIO ROMERO esq. FLORENTINO AMEGHINO","lat":-34.86599362850947,"lng":-56.22617778437249,"code":"1506"},{"seq":32,"id":"1507","name":"EMILIO ROMERO esq. PEDRO CELESTINO BAUZA","lat":-34.86467361682303,"lng":-56.22451996685236,"code":"1507"},{"seq":33,"id":"1508","name":"EMILIO ROMERO esq. CONCILIACION","lat":-34.86325429332383,"lng":-56.22286019721557,"code":"1508"},{"seq":34,"id":"1509","name":"EMILIO ROMERO esq. CAYETANO RIVAS","lat":-34.86200692007929,"lng":-56.22130192817827,"code":"1509"},{"seq":35,"id":"1510","name":"CAYETANO RIVAS esq. LUIS DE LA PEÑA","lat":-34.86305028197714,"lng":-56.21969691235389,"code":"1510"},{"seq":36,"id":"1488","name":"CAYETANO RIVAS esq. ANGEL SALVO","lat":-34.86420287201531,"lng":-56.21832627330626,"code":"1488"},{"seq":37,"id":"1489","name":"ANGEL SALVO esq. BV MANUEL HERRERA Y OBES","lat":-34.863694765797305,"lng":-56.2173089430749,"code":"1489"},{"seq":38,"id":"1490","name":"ANGEL SALVO esq. CARLOS DE LA VEGA","lat":-34.861864570131,"lng":-56.215206538019814,"code":"1490"},{"seq":39,"id":"1599","name":"CNO CASTRO esq. FELIPE CABALLERO","lat":-34.85957755572994,"lng":-56.213347516846994,"code":"1599"},{"seq":40,"id":"1600","name":"CNO CASTRO esq. AV CARLOS BRUSSA","lat":-34.85800241142896,"lng":-56.21270156402855,"code":"1600"},{"seq":41,"id":"1636","name":"CNO MOLINOS DE RAFFO esq. CNO CASTRO","lat":-34.855054383177915,"lng":-56.21158081837216,"code":"1636"},{"seq":42,"id":"3902","name":"CNO MOLINOS DE RAFFO esq. GRAL HORNOS","lat":-34.85345072822208,"lng":-56.21202801463696,"code":"3902"},{"seq":43,"id":"1637","name":"CNO MOLINOS DE RAFFO esq. CNO CARLOS MARIA DE PENA","lat":-34.85128362528203,"lng":-56.21256899527663,"code":"1637"},{"seq":44,"id":"4892","name":"CNO MOLINOS DE RAFFO esq. GRAL ANTONIO DIAZ","lat":-34.847056705795175,"lng":-56.21277590446104,"code":"4892"},{"seq":45,"id":"3903","name":"CNO MOLINOS DE RAFFO esq. MARIA ORTICOCHEA","lat":-34.844926872856796,"lng":-56.21129459880171,"code":"3903"},{"seq":46,"id":"3904","name":"CNO MOLINOS DE RAFFO esq. AV MILLAN","lat":-34.84244753953814,"lng":-56.20899424970879,"code":"3904"},{"seq":47,"id":"1643","name":"CNO MOLINOS DE RAFFO esq. CLARA","lat":-34.84039961517927,"lng":-56.20873838645013,"code":"1643"},{"seq":48,"id":"1644","name":"CNO ARIEL esq. PASTOR","lat":-34.83853778825943,"lng":-56.20880619046785,"code":"1644"},{"seq":49,"id":"1437","name":"CNO ARIEL esq. TAHIM","lat":-34.83680185161873,"lng":-56.21109210919949,"code":"1437"},{"seq":50,"id":"1438","name":"CNO ARIEL esq. BELL","lat":-34.83586433991614,"lng":-56.21261103864394,"code":"1438"},{"seq":51,"id":"5020","name":"CNO ARIEL esq. LUIS GIRALT","lat":-34.834306089796414,"lng":-56.21516691277705,"code":"5020"},{"seq":52,"id":"1446","name":"AV SAYAGO esq. ELIAS REGULES","lat":-34.83168982338018,"lng":-56.21459094743339,"code":"1446"},{"seq":53,"id":"1681","name":"BV JOSE BATLLE Y ORDOÑEZ esq. BELL","lat":-34.83311194473031,"lng":-56.2107493560619,"code":"1681"},{"seq":54,"id":"1682","name":"BV JOSE BATLLE Y ORDOÑEZ esq. LAFAYETTE","lat":-34.8344190576479,"lng":-56.208555916339435,"code":"1682"},{"seq":55,"id":"1683","name":"BV JOSE BATLLE Y ORDOÑEZ esq. PASTOR","lat":-34.83548197071989,"lng":-56.20670683112458,"code":"1683"},{"seq":56,"id":"1684","name":"BV JOSE BATLLE Y ORDOÑEZ esq. EDUARDO PONDAL","lat":-34.83784965941108,"lng":-56.202761987719306,"code":"1684"},{"seq":57,"id":"1685","name":"BV JOSE BATLLE Y ORDOÑEZ esq. CNO CORONEL RAIZ","lat":-34.83868089189675,"lng":-56.201297838139766,"code":"1685"},{"seq":58,"id":"1686","name":"BV JOSE BATLLE Y ORDOÑEZ esq. AV DE LAS INSTRUCCIONES","lat":-34.84085188821296,"lng":-56.19768629170636,"code":"1686"},{"seq":59,"id":"3110","name":"BV JOSE BATLLE Y ORDOÑEZ esq. GAMBETTA","lat":-34.84228099725202,"lng":-56.195319386982796,"code":"3110"},{"seq":60,"id":"3111","name":"BV JOSE BATLLE Y ORDOÑEZ esq. DR ALBERTO ZUBIRIA","lat":-34.84357564266939,"lng":-56.19315694874627,"code":"3111"},{"seq":61,"id":"3112","name":"BV JOSE BATLLE Y ORDOÑEZ esq. TEODORO ALVAREZ","lat":-34.8459649082963,"lng":-56.19023165516402,"code":"3112"},{"seq":62,"id":"3113","name":"BV JOSE BATLLE Y ORDOÑEZ esq. ARECHAVALETA","lat":-34.848212057243856,"lng":-56.18795210077627,"code":"3113"},{"seq":63,"id":"3114","name":"BV JOSE BATLLE Y ORDOÑEZ esq. PANTALEON ARTIGAS","lat":-34.850655903840334,"lng":-56.18502970895282,"code":"3114"},{"seq":64,"id":"3115","name":"BV JOSE BATLLE Y ORDOÑEZ esq. CELEDONIO ROJAS","lat":-34.85303697981392,"lng":-56.182138202329874,"code":"3115"},{"seq":65,"id":"3660","name":"AV BURGUES esq. BV JOSE BATLLE Y ORDOÑEZ","lat":-34.85354934913855,"lng":-56.18191367980664,"code":"3660"},{"seq":66,"id":"3710","name":"AV BURGUES esq. SANTA ANA","lat":-34.85099614414,"lng":-56.179711765729756,"code":"3710"},{"seq":67,"id":"3711","name":"AV BURGUES esq. GUENOAS","lat":-34.84939399632576,"lng":-56.17779164492891,"code":"3711"},{"seq":68,"id":"3712","name":"AV BURGUES esq. DR JOSE MARIA SILVA","lat":-34.84818264912006,"lng":-56.17629459786364,"code":"3712"},{"seq":69,"id":"2744","name":"HUM esq. SANTIAGO FIGUEREDO","lat":-34.848585870330496,"lng":-56.172561138337876,"code":"2744"},{"seq":70,"id":"2745","name":"HUM esq. AV GRAL SAN MARTIN","lat":-34.84897506832358,"lng":-56.170781468681476,"code":"2745"},{"seq":71,"id":"4873","name":"AV GRAL SAN MARTIN esq. CNO CHIMBORAZO","lat":-34.84839848886208,"lng":-56.170045923996135,"code":"4873"},{"seq":72,"id":"2731","name":"CNO CHIMBORAZO esq. NORBERTO ORTIZ","lat":-34.84861570796531,"lng":-56.16812874046572,"code":"2731"},{"seq":73,"id":"2732","name":"CNO CHIMBORAZO esq. JUAN ACOSTA","lat":-34.84904517069328,"lng":-56.16618469411474,"code":"2732"},{"seq":74,"id":"2733","name":"CNO CHIMBORAZO esq. JUAN ROSAS","lat":-34.849538981899876,"lng":-56.16405478850545,"code":"2733"},{"seq":75,"id":"2734","name":"CNO CHIMBORAZO esq. CIRC INT SDA 1","lat":-34.84996445500288,"lng":-56.16194114278967,"code":"2734"},{"seq":76,"id":"2735","name":"CNO CHIMBORAZO esq. CIRC INT CALLE 1","lat":-34.850365934033434,"lng":-56.16009330255652,"code":"2735"},{"seq":77,"id":"2225","name":"AV GRAL FLORES esq. HONDURAS","lat":-34.85029263645495,"lng":-56.1585818863963,"code":"2225"},{"seq":78,"id":"2227","name":"AV GRAL FLORES esq. CNO CORRALES","lat":-34.84640663564851,"lng":-56.15539901497671,"code":"2227"},{"seq":79,"id":"2693","name":"CARRERAS NACIONALES esq. SAINT BOIS","lat":-34.845194367762744,"lng":-56.15274409058423,"code":"2693"},{"seq":80,"id":"2694","name":"CARRERAS NACIONALES esq. FRANCISCO ECHAGOYEN","lat":-34.846626797667085,"lng":-56.15037401485262,"code":"2694"},{"seq":81,"id":"2695","name":"CARRERAS NACIONALES esq. AV DAMASO ANTONIO LARRAÑAGA","lat":-34.848088944242335,"lng":-56.148000400310366,"code":"2695"},{"seq":82,"id":"2698","name":"CARRERAS NACIONALES esq. GARAY","lat":-34.84946808574195,"lng":-56.14580610543357,"code":"2698"},{"seq":83,"id":"2696","name":"CARRERAS NACIONALES esq. CNEL JUAN BELINZON","lat":-34.85121678830255,"lng":-56.14291479956379,"code":"2696"},{"seq":84,"id":"4739","name":"GERONIMO PICCIOLI esq. FRANCISCO SAINZ ROSAS","lat":-34.85243103878083,"lng":-56.142900498961566,"code":"4739"},{"seq":85,"id":"3582","name":"GERONIMO PICCIOLI esq. PAVON","lat":-34.853985519700394,"lng":-56.1403882315875,"code":"3582"},{"seq":86,"id":"3584","name":"GERONIMO PICCIOLI esq. VIRREY ELIO","lat":-34.8555329460435,"lng":-56.138012874883906,"code":"3584"},{"seq":87,"id":"3585","name":"GERONIMO PICCIOLI esq. MANUEL CALLEROS","lat":-34.8561534871271,"lng":-56.137021015539716,"code":"3585"},{"seq":88,"id":"3586","name":"GERONIMO PICCIOLI esq. MARCOS DE AVELLANEDA","lat":-34.85718597031052,"lng":-56.135389399492915,"code":"3586"},{"seq":89,"id":"3587","name":"GERONIMO PICCIOLI esq. AV 8 DE OCTUBRE","lat":-34.85811014745564,"lng":-56.13397269658153,"code":"3587"},{"seq":90,"id":"6092","name":"PSJE S/D esq. AV JOSE BELLONI","lat":-34.85528988309178,"lng":-56.13242390083089,"code":"6092"},{"seq":91,"id":"2844","name":"VERACIERTO esq. ANDRES LATORRE","lat":-34.85627809566049,"lng":-56.12912886926499,"code":"2844"},{"seq":92,"id":"4900","name":"VERACIERTO esq. PEDRO SAENZ DE ZUMARAN","lat":-34.85698239015195,"lng":-56.12739911272835,"code":"4900"},{"seq":93,"id":"2845","name":"VERACIERTO esq. DOÑA SOLEDAD","lat":-34.85960882639073,"lng":-56.125025888194244,"code":"2845"},{"seq":94,"id":"2846","name":"VERACIERTO esq. GRAL TIMOTEO APARICIO","lat":-34.86184913612548,"lng":-56.12367459992481,"code":"2846"},{"seq":95,"id":"2847","name":"VERACIERTO esq. ING AGR JOSE OTAMENDI","lat":-34.8640452937436,"lng":-56.12228189545126,"code":"2847"},{"seq":96,"id":"2848","name":"VERACIERTO esq. SPENCER","lat":-34.86581254710856,"lng":-56.12102907052526,"code":"2848"},{"seq":97,"id":"2849","name":"VERACIERTO esq. CAMPOAMOR","lat":-34.86768128592761,"lng":-56.119733060530436,"code":"2849"},{"seq":98,"id":"4901","name":"VERACIERTO esq. NUÑEZ DE ARCE","lat":-34.868878038985386,"lng":-56.11890723427802,"code":"4901"},{"seq":99,"id":"5005","name":"VERACIERTO esq. CNO CARRASCO","lat":-34.87102496535577,"lng":-56.11740115616672,"code":"5005"},{"seq":100,"id":"2822","name":"CNO CARRASCO esq. CIRC INT 2° PLA A ROBERTO BERRO","lat":-34.871803825727966,"lng":-56.118670096599566,"code":"2822"},{"seq":101,"id":"2823","name":"CNO CARRASCO esq. PSJE 8565","lat":-34.87217410544171,"lng":-56.12114814380599,"code":"2823"},{"seq":102,"id":"4315","name":"CNO CARRASCO esq. IRUN","lat":-34.87291704737887,"lng":-56.12409728430191,"code":"4315"},{"seq":103,"id":"2824","name":"CNO CARRASCO esq. MANILA","lat":-34.87320640310547,"lng":-56.12526194812078,"code":"2824"},{"seq":104,"id":"2890","name":"ISLA DE GASPAR esq. PEREZ GALDOS","lat":-34.87408808942245,"lng":-56.12661725042355,"code":"2890"},{"seq":105,"id":"2879","name":"ISLA DE GASPAR esq. ESPRONCEDA","lat":-34.8769163659393,"lng":-56.12675286271115,"code":"2879"},{"seq":106,"id":"2880","name":"ISLA DE GASPAR esq. MENORCA","lat":-34.878517280634064,"lng":-56.12722837078484,"code":"2880"},{"seq":107,"id":"5385","name":"ISLA DE GASPAR esq. MARGOT VERA","lat":-34.879750656205154,"lng":-56.12764054105695,"code":"5385"},{"seq":108,"id":"2881","name":"ISLA DE GASPAR esq. RBLA EUSKAL ERRIA","lat":-34.88170632965539,"lng":-56.128303710900184,"code":"2881"},{"seq":109,"id":"2882","name":"MINNESOTA esq. ALFONSO RODRIGUEZ CASTELAO","lat":-34.884222473116274,"lng":-56.128649820499085,"code":"2882"},{"seq":110,"id":"2883","name":"MINNESOTA esq. GAUNA","lat":-34.88550363302101,"lng":-56.12879785800297,"code":"2883"},{"seq":111,"id":"6423","name":"AV MCAL FRANCISCO SOLANO LOPEZ esq. BARROSO","lat":-34.88749110827124,"lng":-56.12930868183322,"code":"6423"},{"seq":112,"id":"3037","name":"AV MCAL FRANCISCO SOLANO LOPEZ esq. SOLFERINO","lat":-34.888261962774834,"lng":-56.12834013650585,"code":"3037"},{"seq":113,"id":"4860","name":"AV MCAL FRANCISCO SOLANO LOPEZ esq. HUMBERTO 1RO","lat":-34.889977563191174,"lng":-56.126929797521946,"code":"4860"},{"seq":114,"id":"3038","name":"AV MCAL FRANCISCO SOLANO LOPEZ esq. NANCY","lat":-34.89217377801673,"lng":-56.12512949439678,"code":"3038"},{"seq":115,"id":"3039","name":"AV MCAL FRANCISCO SOLANO LOPEZ esq. PEREZ GOMAR","lat":-34.893441109646126,"lng":-56.12396617914972,"code":"3039"},{"seq":116,"id":"3041","name":"AV MCAL FRANCISCO SOLANO LOPEZ esq. AV GRAL RIVERA","lat":-34.89568278093814,"lng":-56.12196245207587,"code":"3041"},{"seq":117,"id":"6860","name":"AV MCAL FRANCISCO SOLANO LOPEZ esq. MAHOMA","lat":-34.89732030457803,"lng":-56.12036372007921,"code":"6860"},{"seq":118,"id":"3079","name":"JUAN M ESPINOSA esq. SDA SEND CONT DONIZETTI","lat":-34.89793195622614,"lng":-56.1207145143314,"code":"3079"}],"1":[{"seq":1,"id":"3079","name":"JUAN M ESPINOSA esq. SDA SEND CONT DONIZETTI","lat":-34.89793195622614,"lng":-56.1207145143314,"code":"3079"},{"seq":2,"id":"3017","name":"AV MCAL FRANCISCO SOLANO LOPEZ esq. AV GRAL RIVERA","lat":-34.89603200384979,"lng":-56.12144730538142,"code":"3017"},{"seq":3,"id":"3019","name":"AV MCAL FRANCISCO SOLANO LOPEZ esq. PEREZ GOMAR","lat":-34.89379358484845,"lng":-56.123511073952436,"code":"3019"},{"seq":4,"id":"3020","name":"AV MCAL FRANCISCO SOLANO LOPEZ esq. NANCY","lat":-34.89242095307666,"lng":-56.12477326215911,"code":"3020"},{"seq":5,"id":"3021","name":"AV MCAL FRANCISCO SOLANO LOPEZ esq. MARCO AURELIO","lat":-34.89031950060884,"lng":-56.126546659345124,"code":"3021"},{"seq":6,"id":"3022","name":"AV MCAL FRANCISCO SOLANO LOPEZ esq. SOLFERINO","lat":-34.88850624791254,"lng":-56.12802734447884,"code":"3022"},{"seq":7,"id":"3023","name":"AV MCAL FRANCISCO SOLANO LOPEZ esq. AV ITALIA","lat":-34.8872389461918,"lng":-56.1295089743289,"code":"3023"},{"seq":8,"id":"2884","name":"MINNESOTA esq. LAMBARE","lat":-34.88614140624831,"lng":-56.128807382702966,"code":"2884"},{"seq":9,"id":"2885","name":"MINNESOTA esq. ALFONSO RODRIGUEZ CASTELAO","lat":-34.8846230797659,"lng":-56.128637416004125,"code":"2885"},{"seq":10,"id":"4564","name":"MINNESOTA esq. RBLA EUSKAL ERRIA","lat":-34.882688111804285,"lng":-56.12835105151496,"code":"4564"},{"seq":11,"id":"2886","name":"ISLA DE GASPAR esq. HILARION DE LA QUINTANA","lat":-34.8804628277305,"lng":-56.12781563633038,"code":"2886"},{"seq":12,"id":"2887","name":"ISLA DE GASPAR esq. MENORCA","lat":-34.879146993586865,"lng":-56.127336221913595,"code":"2887"},{"seq":13,"id":"2888","name":"ISLA DE GASPAR esq. ESPRONCEDA","lat":-34.87751366815527,"lng":-56.126841998948116,"code":"2888"},{"seq":14,"id":"2889","name":"ISLA DE GASPAR esq. PEREZ GALDOS","lat":-34.874499241879676,"lng":-56.126372976096896,"code":"2889"},{"seq":15,"id":"2788","name":"CNO CARRASCO esq. 20 DE FEBRERO","lat":-34.87338209883799,"lng":-56.12565404635081,"code":"2788"},{"seq":16,"id":"2789","name":"CNO CARRASCO esq. PIRAN","lat":-34.87282608390103,"lng":-56.122977871660936,"code":"2789"},{"seq":17,"id":"2790","name":"CNO CARRASCO esq. AGUACERO","lat":-34.87243122047761,"lng":-56.12160832733884,"code":"2790"},{"seq":18,"id":"2791","name":"CNO CARRASCO esq. ESTADO DE ISRAEL","lat":-34.87201812782759,"lng":-56.11933703672257,"code":"2791"},{"seq":19,"id":"2792","name":"CNO CARRASCO esq. VERACIERTO","lat":-34.87174235361286,"lng":-56.11724904534422,"code":"2792"},{"seq":20,"id":"6401","name":"HIPOLITO YRIGOYEN esq. CNO CARRASCO","lat":-34.87063769333011,"lng":-56.11619729005695,"code":"6401"},{"seq":21,"id":"2850","name":"VERACIERTO esq. NUÑEZ DE ARCE","lat":-34.86910975407469,"lng":-56.11863200018515,"code":"2850"},{"seq":22,"id":"2851","name":"VERACIERTO esq. CAMPOAMOR","lat":-34.867690393552394,"lng":-56.11960250976969,"code":"2851"},{"seq":23,"id":"2852","name":"VERACIERTO esq. SPENCER","lat":-34.86610427081266,"lng":-56.12069065178187,"code":"2852"},{"seq":24,"id":"2866","name":"VERACIERTO esq. ING AGR JOSE OTAMENDI","lat":-34.86400249252226,"lng":-56.12214664148083,"code":"2866"},{"seq":25,"id":"2867","name":"VERACIERTO esq. GRAL TIMOTEO APARICIO","lat":-34.86154207446634,"lng":-56.12372015295207,"code":"2867"},{"seq":26,"id":"2868","name":"VERACIERTO esq. DOÑA SOLEDAD","lat":-34.859711940145196,"lng":-56.124871937436325,"code":"2868"},{"seq":27,"id":"2869","name":"VERACIERTO esq. PUNTAS DE SOTO","lat":-34.8575389982556,"lng":-56.12619260010764,"code":"2869"},{"seq":28,"id":"2870","name":"VERACIERTO esq. ANDRES LATORRE","lat":-34.8563516229008,"lng":-56.12872260502447,"code":"2870"},{"seq":29,"id":"6197","name":"PROY 6567 esq. GRONARDO","lat":-34.855286970491804,"lng":-56.13252294948316,"code":"6197"},{"seq":30,"id":"3589","name":"VICENZA esq. MANUEL CALLEROS","lat":-34.8554929963819,"lng":-56.13557204322148,"code":"3589"},{"seq":31,"id":"3591","name":"GERONIMO PICCIOLI esq. JULIA AREVALO","lat":-34.85552892271589,"lng":-56.13779849394319,"code":"3591"},{"seq":32,"id":"3583","name":"GERONIMO PICCIOLI esq. OSVALDO CRUZ","lat":-34.853706263449844,"lng":-56.14055027965397,"code":"3583"},{"seq":33,"id":"3581","name":"GERONIMO PICCIOLI esq. FRANCISCO SAINZ ROSAS","lat":-34.85278440060538,"lng":-56.14203344421195,"code":"3581"},{"seq":34,"id":"4740","name":"CNEL JUAN BELINZON esq. CARRERAS NACIONALES","lat":-34.85145466594893,"lng":-56.14282561244562,"code":"4740"},{"seq":35,"id":"2697","name":"CARRERAS NACIONALES esq. GARAY","lat":-34.84968986993326,"lng":-56.14522527074638,"code":"2697"},{"seq":36,"id":"2699","name":"CARRERAS NACIONALES esq. AV DAMASO ANTONIO LARRAÑAGA","lat":-34.84852039622665,"lng":-56.1471864114003,"code":"2699"},{"seq":37,"id":"2700","name":"CARRERAS NACIONALES esq. FRANCISCO ECHAGOYEN","lat":-34.84677454005754,"lng":-56.15004960765183,"code":"2700"},{"seq":38,"id":"2701","name":"CARRERAS NACIONALES esq. 24 DE ABRIL","lat":-34.84559212776188,"lng":-56.151901582771934,"code":"2701"},{"seq":39,"id":"6124","name":"CARRERAS NACIONALES esq. AV GRAL FLORES","lat":-34.84405665766061,"lng":-56.154287693908664,"code":"6124"},{"seq":40,"id":"2668","name":"JOSE A POSOLO esq. AV GRAL FLORES","lat":-34.84504651566933,"lng":-56.15470105056361,"code":"2668"},{"seq":41,"id":"2328","name":"AV GRAL FLORES esq. CNO CORRALES","lat":-34.846696516791106,"lng":-56.1558156171599,"code":"2328"},{"seq":42,"id":"2736","name":"CNO CHIMBORAZO esq. CIRC INT SDA 8","lat":-34.850397422364686,"lng":-56.159523364600595,"code":"2736"},{"seq":43,"id":"2737","name":"CNO CHIMBORAZO esq. CIRC INT SDA 2","lat":-34.85001071701831,"lng":-56.161301416283244,"code":"2737"},{"seq":44,"id":"2738","name":"CNO CHIMBORAZO esq. JUAN ROSAS","lat":-34.849555101881386,"lng":-56.16320097797161,"code":"2738"},{"seq":45,"id":"2739","name":"CNO CHIMBORAZO esq. JUAN ACOSTA","lat":-34.84908383296643,"lng":-56.165371700347116,"code":"2739"},{"seq":46,"id":"2740","name":"CNO CHIMBORAZO esq. NORBERTO ORTIZ","lat":-34.84860331645659,"lng":-56.16772648907346,"code":"2740"},{"seq":47,"id":"2741","name":"CNO CHIMBORAZO esq. JUAN ARTEAGA","lat":-34.8482118461361,"lng":-56.16935896203241,"code":"2741"},{"seq":48,"id":"2742","name":"CNO CHIMBORAZO esq. SANTIAGO FIGUEREDO","lat":-34.847620335000414,"lng":-56.17168325842712,"code":"2742"},{"seq":49,"id":"2743","name":"CNO CHIMBORAZO esq. AV BURGUES","lat":-34.8466924133417,"lng":-56.17492243843516,"code":"2743"},{"seq":50,"id":"3717","name":"AV BURGUES esq. CNO CHIMBORAZO","lat":-34.84608254981438,"lng":-56.17524702976443,"code":"3717"},{"seq":51,"id":"3718","name":"AV BURGUES esq. HUM","lat":-34.847469033658065,"lng":-56.17611860819099,"code":"3718"},{"seq":52,"id":"3719","name":"AV BURGUES esq. GUENOAS","lat":-34.849190503250455,"lng":-56.177644853887905,"code":"3719"},{"seq":53,"id":"3720","name":"AV BURGUES esq. SANTA ANA","lat":-34.850565832826724,"lng":-56.179325424714804,"code":"3720"},{"seq":54,"id":"4938","name":"AV BURGUES esq. BV JOSE BATLLE Y ORDOÑEZ","lat":-34.85286779398118,"lng":-56.18147180805616,"code":"4938"},{"seq":55,"id":"4939","name":"BV JOSE BATLLE Y ORDOÑEZ esq. GREGORIO SANABRIA","lat":-34.85113719735946,"lng":-56.18414551448006,"code":"4939"},{"seq":56,"id":"4940","name":"BV JOSE BATLLE Y ORDOÑEZ esq. ARECHAVALETA","lat":-34.84855841303355,"lng":-56.18728676797135,"code":"4940"},{"seq":57,"id":"4941","name":"BV JOSE BATLLE Y ORDOÑEZ esq. RBLA DR JOSE PEDRO CARDOSO","lat":-34.84594797876763,"lng":-56.18982971636757,"code":"4941"},{"seq":58,"id":"4942","name":"BV JOSE BATLLE Y ORDOÑEZ esq. DR ALBERTO ZUBIRIA","lat":-34.8436454046678,"lng":-56.19253244202069,"code":"4942"},{"seq":59,"id":"4943","name":"BV JOSE BATLLE Y ORDOÑEZ esq. GAMBETTA","lat":-34.84247627413973,"lng":-56.19458756035078,"code":"4943"},{"seq":60,"id":"4944","name":"BV JOSE BATLLE Y ORDOÑEZ esq. VICTOR HUGO","lat":-34.84133505505212,"lng":-56.19648528531737,"code":"4944"},{"seq":61,"id":"4453","name":"BV JOSE BATLLE Y ORDOÑEZ esq. SORIA","lat":-34.839206543785366,"lng":-56.19991893312002,"code":"4453"},{"seq":62,"id":"4454","name":"BV JOSE BATLLE Y ORDOÑEZ esq. EDUARDO PONDAL","lat":-34.83763681937241,"lng":-56.202689269097,"code":"4454"},{"seq":63,"id":"1691","name":"BV JOSE BATLLE Y ORDOÑEZ esq. PASTOR","lat":-34.83599094363137,"lng":-56.20552726127143,"code":"1691"},{"seq":64,"id":"1692","name":"BV JOSE BATLLE Y ORDOÑEZ esq. LAFAYETTE","lat":-34.83414100763868,"lng":-56.20869784661091,"code":"1692"},{"seq":65,"id":"4452","name":"BV JOSE BATLLE Y ORDOÑEZ esq. VEDIA","lat":-34.83229816077722,"lng":-56.2118462376147,"code":"4452"},{"seq":66,"id":"1459","name":"AV SAYAGO esq. CERRO","lat":-34.83151490155613,"lng":-56.21462526060557,"code":"1459"},{"seq":67,"id":"1460","name":"AV SAYAGO esq. CNO ARIEL","lat":-34.8334321612766,"lng":-56.21584621502984,"code":"1460"},{"seq":68,"id":"4983","name":"CNO ARIEL esq. LUIS GIRALT","lat":-34.83439052776352,"lng":-56.215294400776216,"code":"4983"},{"seq":69,"id":"4936","name":"CNO ARIEL esq. BELL","lat":-34.83567010185797,"lng":-56.21311274424867,"code":"4936"},{"seq":70,"id":"1435","name":"CNO ARIEL esq. CARLOS F SANTURIO","lat":-34.83696472316184,"lng":-56.210885685748714,"code":"1435"},{"seq":71,"id":"1436","name":"CNO ARIEL esq. CNO MOLINOS DE RAFFO","lat":-34.83792962574547,"lng":-56.20934569095987,"code":"1436"},{"seq":72,"id":"1645","name":"CNO MOLINOS DE RAFFO esq. CLARA","lat":-34.83989819132955,"lng":-56.20885797258999,"code":"1645"},{"seq":73,"id":"1646","name":"CNO MOLINOS DE RAFFO esq. WATERLOO","lat":-34.84176016529729,"lng":-56.208713955886175,"code":"1646"},{"seq":74,"id":"1651","name":"CNO MOLINOS DE RAFFO esq. MARIA ORTICOCHEA","lat":-34.84454299848422,"lng":-56.211127429249835,"code":"1651"},{"seq":75,"id":"1652","name":"CNO MOLINOS DE RAFFO esq. GRAL ANTONIO DIAZ","lat":-34.846659229128285,"lng":-56.212579853273105,"code":"1652"},{"seq":76,"id":"1653","name":"CNO MOLINOS DE RAFFO esq. CNO CARLOS MARIA DE PENA","lat":-34.85059211148606,"lng":-56.212799633583074,"code":"1653"},{"seq":77,"id":"5008","name":"CNO MOLINOS DE RAFFO esq. GRAL HORNOS","lat":-34.852942270144716,"lng":-56.2122402536718,"code":"5008"},{"seq":78,"id":"1654","name":"CNO MOLINOS DE RAFFO esq. EMANCIPACION","lat":-34.85500854756938,"lng":-56.211687252239734,"code":"1654"},{"seq":79,"id":"1634","name":"CNO CASTRO esq. SANTA LUCIA","lat":-34.858334289307564,"lng":-56.212947210446465,"code":"1634"},{"seq":80,"id":"1635","name":"CNO CASTRO esq. AV MARIA EUGENIA VAZ FERREIRA","lat":-34.86041335215149,"lng":-56.21396046304862,"code":"1635"},{"seq":81,"id":"1484","name":"ANGEL SALVO esq. CARLOS DE LA VEGA","lat":-34.86194822735899,"lng":-56.21550605576169,"code":"1484"},{"seq":82,"id":"1485","name":"ANGEL SALVO esq. BV MANUEL HERRERA Y OBES","lat":-34.86302982464595,"lng":-56.21679348658432,"code":"1485"},{"seq":83,"id":"1487","name":"ANGEL SALVO esq. CAYETANO RIVAS","lat":-34.86450377444457,"lng":-56.218561792258676,"code":"1487"},{"seq":84,"id":"1491","name":"FRATERNIDAD esq. LUIS DE LA PEÑA","lat":-34.86384139115046,"lng":-56.2202356057651,"code":"1491"},{"seq":85,"id":"1492","name":"FRATERNIDAD esq. EMILIO ROMERO","lat":-34.86254345163654,"lng":-56.22178839693891,"code":"1492"},{"seq":86,"id":"1494","name":"DR MARTIN BERINDUAGUE esq. CONCILIACION","lat":-34.862344649317784,"lng":-56.22342710326306,"code":"1494"},{"seq":87,"id":"1495","name":"DR MARTIN BERINDUAGUE esq. PEDRO CELESTINO BAUZA","lat":-34.86356075207296,"lng":-56.224941566518424,"code":"1495"},{"seq":88,"id":"1496","name":"DR MARTIN BERINDUAGUE esq. FLORENTINO AMEGHINO","lat":-34.86481444600308,"lng":-56.22648798995912,"code":"1496"},{"seq":89,"id":"1497","name":"DR MARTIN BERINDUAGUE esq. CARLOS TELLIER","lat":-34.866173526158924,"lng":-56.22817764056701,"code":"1497"},{"seq":90,"id":"1498","name":"DR MARTIN BERINDUAGUE esq. HILARIO ASCASUBI","lat":-34.86743170187089,"lng":-56.22971821524776,"code":"1498"},{"seq":91,"id":"1499","name":"DR MARTIN BERINDUAGUE esq. JOSE CASTRO","lat":-34.868766915292234,"lng":-56.23131436328087,"code":"1499"},{"seq":92,"id":"1500","name":"DR MARTIN BERINDUAGUE esq. HEREDIA","lat":-34.86996788712904,"lng":-56.23282777962494,"code":"1500"},{"seq":93,"id":"1531","name":"HEREDIA esq. BENITO RIQUE","lat":-34.869091147372565,"lng":-56.23458739145816,"code":"1531"},{"seq":94,"id":"1532","name":"HEREDIA esq. RUPERTO PEREZ MARTINEZ","lat":-34.867731898362194,"lng":-56.23617246357091,"code":"1532"},{"seq":95,"id":"1302","name":"AV CARLOS MARIA RAMIREZ esq. HUMBOLDT","lat":-34.867442409823596,"lng":-56.23789195503056,"code":"1302"},{"seq":96,"id":"1303","name":"AV CARLOS MARIA RAMIREZ esq. CONCORDIA","lat":-34.86905451535009,"lng":-56.23988630121367,"code":"1303"},{"seq":97,"id":"4815","name":"AV CARLOS MARIA RAMIREZ esq. VIGO","lat":-34.873577827708786,"lng":-56.247690116750995,"code":"4815"},{"seq":98,"id":"4925","name":"DR PEDRO CASTELLINO esq. DR RAUL MORETTI","lat":-34.87323947810137,"lng":-56.249403424783246,"code":"4925"},{"seq":99,"id":"4777","name":"HAITI esq. AV DR SANTIN CARLOS ROSSI","lat":-34.872259159795625,"lng":-56.25249953361408,"code":"4777"},{"seq":100,"id":"1109","name":"AV DR SANTIN CARLOS ROSSI esq. AV CARLOS MARIA RAMIREZ","lat":-34.87411525166118,"lng":-56.252674904759814,"code":"1109"},{"seq":101,"id":"1142","name":"BOGOTA esq. JAPON","lat":-34.87533184293842,"lng":-56.25446933792364,"code":"1142"},{"seq":102,"id":"1141","name":"BOGOTA esq. BERNA","lat":-34.877144766714025,"lng":-56.25408193082731,"code":"1141"},{"seq":103,"id":"3898","name":"BOGOTA esq. PERU","lat":-34.87884827799077,"lng":-56.25373904966049,"code":"3898"},{"seq":104,"id":"1222","name":"BOGOTA esq. CHINA","lat":-34.88059498528243,"lng":-56.2533899149423,"code":"1222"},{"seq":105,"id":"1223","name":"BOGOTA esq. SUECIA","lat":-34.88244196931878,"lng":-56.253000789620515,"code":"1223"},{"seq":106,"id":"1224","name":"BOGOTA esq. CHARCAS","lat":-34.884264395695276,"lng":-56.252649920866524,"code":"1224"},{"seq":107,"id":"1225","name":"BOGOTA esq. ECUADOR","lat":-34.88606416252092,"lng":-56.25230898903259,"code":"1225"},{"seq":108,"id":"1226","name":"BOGOTA esq. JUAN B VIACABA","lat":-34.88785094017187,"lng":-56.25197038544019,"code":"1226"},{"seq":109,"id":"1227","name":"BOGOTA esq. CENTRO AMERICA","lat":-34.88948527254472,"lng":-56.25158386663608,"code":"1227"},{"seq":110,"id":"1228","name":"BOGOTA esq. FRANCIA","lat":-34.89133739097636,"lng":-56.25121653326162,"code":"1228"},{"seq":111,"id":"1229","name":"BOGOTA esq. INGLATERRA","lat":-34.893076014111756,"lng":-56.25085963011785,"code":"1229"},{"seq":112,"id":"1121","name":"INGLATERRA esq. RIO DE JANEIRO","lat":-34.89341842607811,"lng":-56.25221088838629,"code":"1121"},{"seq":113,"id":"1122","name":"VIZCAYA esq. SUIZA","lat":-34.895162815043676,"lng":-56.252660048617244,"code":"1122"},{"seq":114,"id":"5510","name":"AV DR MARTIN IGNACIO HARRETCHE esq. RBLA JOSE GURVICH","lat":-34.90110123159019,"lng":-56.26117509355766,"code":"5510"},{"seq":115,"id":"5511","name":"AV DR MARTIN IGNACIO HARRETCHE esq. CALLE FICTICIA","lat":-34.903895761997674,"lng":-56.259823822920254,"code":"5511"}]}